     2.10           OBSERVATION DATA    M (MIXED)           RINEX VERSION / TYPE
teqc  2004Apr5                          20050614 17:36:18UTCPGM / RUN BY / DATE
OBSERVATION MODE: Episodic                                  COMMENT
AAC4 Almaliashy                                             MARKER NAME
AACH                                                        MARKER NUMBER
235-1828            TPS E_GGD            2.3                REC # / TYPE / VERS
127                 TPSCR3_GGD      NONE                    ANT # / TYPE
        0.3560        0.0000        0.0000                  ANTENNA: DELTA H/E/N
  1324947.0941  4547063.8058  4260975.7332                  APPROX POSITION XYZ
  73.75465895  42.16804158  2263.1692  LonLatAlt  S/W       COMMENT
Linux 2.0.36|Pentium II|gcc -static|Linux|486/DX+           COMMENT
BIT 2 OF LLI FLAGS DATA COLLECTED UNDER A/S CONDITION       COMMENT
Eremeev             IVTAN                                   OBSERVER / AGENCY
     1     1                                                WAVELENGTH FACT L1/2
     9    L1    L2    C1    P1    P2    D1    D2    S1    S2# / TYPES OF OBSERV
    30.0000                                                 INTERVAL
 SNR is mapped to RINEX snr flag value [0-9]                COMMENT
  L1 & L2:  2-19 dBHz = 1, 20-27 dBHz = 2, 28-31 dBHz = 3   COMMENT
           32-35 dBHz = 4, 36-38 dBHz = 5, 39-41 dBHz = 6   COMMENT
           42-44 dBHz = 7, 45-48 dBHz = 8, >= 49 dBHz = 9   COMMENT
pseudorange smoothing corrections not applied               COMMENT
    13                                                      LEAP SECONDS
  2005     5    16     3    33    0.0000000     GPS         TIME OF FIRST OBS
  2005     5    16     3    33   30.0000000     GPS         TIME OF LAST OBS
                                                            END OF HEADER
 05  5 16  3 33  0.0000000  0 11R 4G 6G10R18R 5G30G21R 3G29G26G 2
 102268572.906 9  79542236.440 8  19138163.694    19138166.395    19138168.411
     -1052.625        -818.707          52.000          46.000
 106677593.67549  83125405.97048  20300069.300    20300069.187    20300074.062
       916.473         714.129          54.000          46.000
 110539809.59749  86134920.18847  21035023.795    21035022.853    21035028.784
     -2091.066       -1629.404          52.000          43.000
 108810503.291 8  84630415.275 7  20362398.634    20362400.025    20362406.354
     -2614.469       -2033.473          45.000          43.000
 110527903.639 7  85966161.908 7  20669275.614    20669276.705    20669274.320
      3003.468        2336.034          44.000          44.000
 118451905.20548  92300189.42344  22540644.322    22540645.437    22540653.121
     -2962.616       -2308.542          48.000          34.000
 119615583.42148  93206954.21043  22762088.594    22762088.067    22762092.461
      2453.841        1912.084          47.000          31.000
 118825810.506 6  92420102.240 6  22236630.279    22236630.247    22236633.950
     -3846.800       -2991.942          41.000          39.000
 120889266.30948  94199437.85543  23004462.038    23004462.029    23004467.856
      2603.831        2028.977          46.000          30.000
 124745559.74247  97204341.71242  23738288.022    23738288.201    23738296.856
      3613.086        2815.361          42.000          22.000
 121184535.95748  94429519.19643  23060649.695    23060649.629    23060654.108
     -2903.911       -2262.777          46.000          31.000
 05  5 16  3 33 30.0000000  0 11R 4G 6G10R18R 5G30G21R 3G29G26G 2
 102515602.029 9  79734370.231 8  19144060.349    19144062.877    19144064.976
     -1052.094        -818.292          51.000          46.000
 106649973.46749  83103883.73148  20294813.204    20294813.205    20294818.115
       925.027         720.799          54.000          46.000
 110602426.98849  86183712.95147  21046939.445    21046938.601    21046944.633
     -2083.259       -1623.319          53.000          43.000
 108888578.286 8  84691140.228 7  20377009.762    20377011.330    20377016.798
     -2608.648       -2028.950          46.000          42.000
 110437695.609 7  85896000.202 7  20652406.420    20652404.948    20652400.952
      3010.609        2341.587          43.000          43.000
 118540588.69948  92369293.43844  22557521.167    22557524.004    22557528.017
     -2949.443       -2298.274          48.000          35.000
 119541690.04648  93149374.98843  22748026.992    22748026.554    22748030.853
      2472.533        1926.658          46.000          31.000
 118940468.616 6  92509280.708 6  22258086.565    22258086.564    22258090.485
     -3829.072       -2978.168          40.000          40.000
 120810960.93147  94138420.72143  22989560.043    22989559.009    22989567.191
      2616.629        2038.935          43.000          29.000
 124636877.75046  97119654.45342  23717607.536    23717607.132    23717615.307
      3632.507        2830.530          41.000          25.000
 121271362.52448  94497176.16943  23077171.828    23077172.106    23077177.029
     -2884.404       -2247.584          45.000          31.000
