     2.10           OBSERVATION DATA    G (GPS)             RINEX VERSION / TYPE
teqc  2003Apr29                         20041226 00:22:15UTCPGM / RUN BY / DATE
OBSERVATION MODE: IGS-Net                                   COMMENT
PERT Perth (PERT)                                           MARKER NAME
50133M001                                                   MARKER NUMBER
200313003           ASHTECH UZ-12        CJ00               REC # / TYPE / VERS
CR620023901         ASH701945C_M    NONE                    ANT # / TYPE
        0.0595        0.0000        0.0000                  ANTENNA: DELTA H/E/N
  -2368687.1709  4881316.4489  -3341795.7050                APPROX POSITION XYZ
  115.88524979  -31.80196638  12.5410  LonLatAlt  S/W       COMMENT
Solaris 2.7|Ultra 2|cc SC5.0|=+-|*Sparc                     COMMENT
MSWin2000|IAx86-PII|bcc32 5.0|MSWin95->XP|486/DX+           COMMENT
BIT 2 OF LLI FLAGS DATA COLLECTED UNDER A/S CONDITION       COMMENT
AUTOMATIC           ESA/ESOC                                OBSERVER / AGENCY
     1     1                                                WAVELENGTH FACT L1/2
     9    L1    L2    C1    P2    P1    D1    D2    S1    S2# / TYPES OF OBSERV
    30.0000                                                 INTERVAL
 SNR is mapped to RINEX snr flag value [1-9]                COMMENT
  L1: 1 -> 1;  90 -> 5; 210 -> 9                            COMMENT
  L2: 1 -> 1; 150 -> 5; 250 -> 9                            COMMENT
pseudorange smoothing corrections not applied               COMMENT
Checked by ROCK 1.0 [25.12.04-00:18]; status 2: file fixed  COMMENT
    30                                                      # OF SATELLITES
   G01   633   635   636   635   633   633   635   633   635PRN / # OF OBS
   G02   874   876   876   876   874   874   876   874   876PRN / # OF OBS
   G03   719   730   737   730   719   719   730   719   730PRN / # OF OBS
   G04   822   829   839   829   822   822   829   822   829PRN / # OF OBS
   G05   804   806   806   806   804   804   806   804   806PRN / # OF OBS
   G06   827   831   841   831   827   827   831   827   831PRN / # OF OBS
   G07   527   529   535   529   527   527   529   527   529PRN / # OF OBS
   G08   797   800   803   800   797   797   800   797   800PRN / # OF OBS
   G09   694   695   695   695   694   694   695   694   695PRN / # OF OBS
   G10   898   907   919   907   898   898   907   898   907PRN / # OF OBS
   G11   717   724   742   724   717   717   724   717   724PRN / # OF OBS
   G13   818   822   831   822   818   818   822   818   822PRN / # OF OBS
   G14   725   731   733   731   725   725   731   725   731PRN / # OF OBS
   G15   861   870   876   870   861   861   870   861   870PRN / # OF OBS
   G16   603   605   611   605   603   603   605   603   605PRN / # OF OBS
   G17   699   711   718   711   699   699   711   699   711PRN / # OF OBS
   G18   610   618   622   618   610   610   618   610   618PRN / # OF OBS
   G19   675   676   681   676   675   675   676   675   676PRN / # OF OBS
   G20   766   769   772   769   766   766   769   766   769PRN / # OF OBS
   G21   718   719   720   719   718   718   719   718   719PRN / # OF OBS
   G22   698   703   706   703   698   698   703   698   703PRN / # OF OBS
   G23   848   853   856   853   848   848   853   848   853PRN / # OF OBS
   G24   846   848   853   848   846   846   848   846   848PRN / # OF OBS
   G25   806   814   833   814   806   806   814   806   814PRN / # OF OBS
   G26   619   625   633   625   619   619   625   619   625PRN / # OF OBS
   G27   704   705   709   705   704   704   705   704   705PRN / # OF OBS
   G28   650   656   658   656   650   650   656   650   656PRN / # OF OBS
   G29   624   628   634   628   624   624   628   624   628PRN / # OF OBS
   G30   822   823   826   823   822   822   823   822   823PRN / # OF OBS
   G31   780   788   790   788   780   780   788   780   788PRN / # OF OBS
Checked by ROCK 1.0 [26.12.04-00:24]; status 0: file OK     COMMENT
  2004    12    25     0     0    0.0000000     GPS         TIME OF FIRST OBS
  2004    12    25    23    59   30.0000000     GPS         TIME OF LAST OBS
                                                            END OF HEADER
 04 12 25  0  0  0.0000000  0  7G15G19G 3G 1G11G22G14
  -6384091.50243  -4922594.22142  22644738.7554   22644743.6034   22644738.2454
     -1554.6084      -1211.3804         46.0004         42.0004
 -19593474.96643 -15230224.33342  20832832.5224   20832833.9934   20832831.7284
      1208.9384        942.0374         51.0004         47.0004
 -20022437.90043 -15564163.10542  20554482.1094   20554486.1004   20554481.9274
      -895.6734       -697.9164         51.0004         46.0004
  -8078953.25543  -6245391.37142  22530928.3634   22530933.8674   22530928.2004
      3301.3214       2572.4594         45.0004         41.0004
  -2125119.54543  -1621485.24142  24181478.6424   24181482.1114   24181478.3924
      2666.8714       2078.0774         40.0004         35.0004
 -16840889.76543 -13077257.73542  22208272.7564   22208274.8124   22208272.7204
     -2648.0034      -2063.3804         47.0004         42.0004
 -12811531.89743  -9944733.26742  21394389.2224   21394392.7474   21394388.9584
       706.4134        550.4594         49.0004         44.0004
 04 12 25  0  0 30.0000000  0  7G15G19G 3G 1G11G22G14
  -6337387.51543  -4886201.55342  22653626.2984   22653631.1434   22653625.7494
     -1558.0824      -1214.0804         46.0004         42.0004
 -19629480.12343 -15258280.29842  20825981.0204   20825982.4424   20825980.2084
      1192.4834        929.2194         51.0004         47.0004
 -19995277.56043 -15542999.23542  20559650.5564   20559654.5584   20559650.3664
      -913.9034       -712.1314         51.0004         46.0004
  -8177852.99743  -6322456.06942  22512108.4144   22512113.7674   22512108.1504
      3293.2344       2566.1554         45.0004         41.0004
  -2205120.90043  -1683823.95942  24166254.8024   24166258.2834   24166254.6474
      2667.7704       2078.7824         40.0004         36.0004
 -16761352.22643 -13015280.47342  22223408.3754   22223410.3264   22223408.2824
     -2653.3574      -2067.5704         47.0004         42.0004
 -12832422.31243  -9961011.50442  21390413.9844   21390417.4444   21390413.7034
       687.1354        535.4294         49.0004         44.0004
 04 12 25  0  1  0.0000000  0  7G15G19G 3G 1G11G22G14
  -6290571.14943  -4849721.32842  22662535.2494   22662540.0824   22662534.7044
     -1561.5484      -1216.7904         46.0004         41.0004
 -19664977.62743 -15285940.68742  20819226.0454   20819227.4674   20819225.2564
      1175.5164        915.9844         51.0004         47.0004
 -19967560.91743 -15521401.87442  20564924.9074   20564928.8964   20564924.7054
      -932.3394       -726.5094         51.0004         46.0004
  -8276504.85843  -6399327.62742  22493335.5764   22493340.8744   22493335.2694
      3285.0564       2559.7834         45.0004         41.0004
  -2285140.52143  -1746176.90442  24151027.5964   24151031.0234   24151027.4144
      2668.1914       2079.1064         40.0004         36.0004
 -16681645.07643 -12953171.04142  22238576.0694   22238578.0224   22238576.0514
     -2658.9154      -2071.8804         47.0004         42.0004
 -12852717.74243  -9976826.12742  21386551.9674   21386555.3514   21386551.6514
       667.2734        519.9584         49.0004         44.0004
 04 12 25  0  1 30.0000000  0  7G15G19G 3G 1G11G22G14
  -6243641.80643  -4813153.05242  22671465.6434   22671470.5014   22671465.0864
     -1566.3914      -1220.5594         46.0004         41.0004
 -19699965.40743 -15313203.89542  20812568.0494   20812569.4944   20812567.2654
      1157.6624        902.0654         51.0004         47.0004
 -19939288.18643 -15499371.20042  20570305.1204   20570309.0454   20570304.8454
      -951.7774       -741.6564         51.0004         46.0004
  -8374905.57643  -6476003.47742  22474610.4814   22474615.7954   22474610.1764
      3275.4744       2552.3144         45.0004         41.0004
  -2365177.53643  -1808543.36842  24135796.8854   24135800.6594   24135796.7264
      2667.9924       2078.9524         40.0004         36.0004
 -16601770.27943 -12890930.98642  22253775.7254   22253777.6994   22253775.7234
     -2665.3404      -2076.8824         47.0004         42.0004
 -12872416.83843  -9992176.07942  21382803.2924   21382806.7464   21382803.0334
       646.6844        503.8944         49.0004         44.0004
 04 12 25  0  2  0.0000000  0  7G15G19G 3G 1G11G22G14
  -6196598.76643  -4776496.19042  22680417.6884   22680422.4184   22680417.1174
     -1570.2454      -1223.5764         46.0004         41.0004
 -19734441.24443 -15340068.18742  20806007.5054   20806008.9784   20806006.7434
      1140.4184        888.6214         51.0004         47.0004
 -19910459.32043 -15476907.17842  20575791.0934   20575795.0434   20575790.8294
      -970.4004       -756.1714         51.0004         46.0004
  -8473051.59343  -6552480.87342  22455933.8474   22455939.2104   22455933.6074
      3267.0404       2545.7394         46.0004         41.0004
  -2445231.06443  -1870922.75042  24120563.2104   24120566.9514   24120563.1204
      2668.6724       2079.5024         40.0004         36.0004
 -16521729.37343 -12828561.50142  22269007.1194   22269009.0734   22269007.0494
     -2670.9104      -2081.2284         47.0004         42.0004
 -12891518.20243 -10007060.25442  21379168.3904   21379171.8684   21379168.1374
       626.5334        488.1954         49.0004         44.0004
 04 12 25  0  2 30.0000000  0  7G15G19G 3G 1G11G22G14
  -6149442.58243  -4739751.15542  22689391.2534   22689395.9544   22689390.7144
     -1574.1234      -1226.5864         46.0004         41.0004
 -19768404.23343 -15366532.85542  20799544.5324   20799546.0354   20799543.7944
      1123.1734        875.1984         51.0004         47.0004
 -19881075.83343 -15454010.98242  20581382.5944   20581386.5524   20581382.3444
      -989.0734       -770.7124         51.0004         46.0004
  -8570940.70643  -6628758.07542  22437306.2844   22437311.5334   22437306.0094
      3258.3694       2538.9884         46.0004         41.0004
  -2525301.33043  -1933315.15342  24105326.3014   24105329.7864   24105326.2494
      2669.1324       2079.8324         40.0004         36.0004
 -16441525.38443 -12766064.93242  22284269.3634   22284271.4614   22284269.3584
     -2676.4994      -2085.5894         47.0004         42.0004
 -12910021.82643 -10021478.66042  21375647.2874   21375650.7644   21375647.0214
       606.4854        472.5964         49.0004         44.0004
 04 12 25  0  3  0.0000000  0  7G15G19G 3G 1G11G22G14
  -6102171.79843  -4702916.83942  22698386.7514   22698391.3804   22698386.0974
     -1578.1584      -1229.7324         46.0004         41.0004
 -19801851.91643 -15392595.98942  20793179.6554   20793181.1634   20793178.9294
      1105.7404        861.6144         51.0004         47.0004
 -19851137.61343 -15430682.52442  20587079.6454   20587083.6314   20587079.3814
     -1007.7284       -785.2464         51.0004         46.0004
  -8668568.86843  -6704831.93342  22418728.2154   22418733.4404   22418727.8424
      3249.3864       2531.9864         46.0004         41.0004
  -2605386.62143  -1995719.24742  24090086.7404   24090090.3064   24090086.5164
      2669.3604       2080.0234         41.0004         36.0004
 -16361159.73443 -12703442.40742  22299562.4634   22299564.4734   22299562.4524
     -2682.0964      -2089.9434         47.0004         42.0004
 -12927925.89043 -10035429.88242  21372240.1764   21372243.7834   21372239.9534
       586.3274        456.8754         49.0004         44.0004
 04 12 25  0  3 30.0000000  0  7G15G19G 3G 1G11G22G14
  -6054786.13343  -4665992.99242  22707403.8324   22707408.5704   22707403.3504
     -1581.4854      -1232.3264         46.0004         41.0004
 -19834782.83043 -15418256.45142  20786913.0854   20786914.6354   20786912.3744
      1089.0144        848.5824         51.0004         47.0004
 -19820645.56743 -15406922.51642  20592882.0684   20592886.1024   20592881.8384
     -1025.6704       -799.2154         51.0004         46.0004
  -8765933.33043  -6780700.31942  22400200.2724   22400205.5604   22400199.9664
      3240.8884       2525.3594         46.0004         41.0004
  -2685486.90743  -2058135.03742  24074844.0624   24074847.6744   24074843.7644
      2670.0734       2080.5704         41.0004         36.0004
 -16280634.56343 -12640695.55342  22314886.0354   22314888.0304   22314885.9894
     -2686.9004      -2093.6874         47.0004         42.0004
 -12945229.83743 -10048913.47142  21368947.3724   21368950.9154   21368947.1364
       566.7624        441.6284         49.0004         44.0004
 04 12 25  0  4  0.0000000  0  7G15G19G 3G 1G11G22G14
  -6007284.22743  -4628978.57042  22716443.2154   22716447.9154   22716442.7194
     -1585.7804      -1235.6724         46.0004         41.0004
 -19867194.41843 -15443512.24442  20780745.4184   20780746.9404   20780744.6474
      1071.2834        834.7544         51.0004         47.0004
 -19789599.27643 -15382730.62742  20598790.0184   20598794.0374   20598789.7884
     -1044.5514       -813.9504         51.0004         46.0004
  -8863029.97843  -6856360.01842  22381723.4234   22381728.6894   22381723.0834
      3231.7014       2518.2044         46.0004         41.0004
  -2765600.93443  -2120561.54742  24059598.8824   24059602.4554   24059598.4984
      2670.0574       2080.5634         41.0004         36.0004
 -16199951.18243 -12577825.43842  22330239.4334   22330241.6234   22330239.4434
     -2692.4204      -2097.9864         46.0004         42.0004
 -12961931.87443 -10061928.03942  21365769.0964   21365772.5884   21365768.8654
       546.3824        425.7474         49.0004         44.0004
 04 12 25  0  4 30.0000000  0  7G15G19G 3G 1G11G22G14
  -5959667.23143  -4591874.47342  22725504.5194   22725509.1884   22725503.9774
     -1589.6014      -1238.6454         46.0004         41.0004
 -19899086.42643 -15468363.16942  20774676.5834   20774678.0654   20774675.7734
      1054.0274        821.3104         51.0004         47.0004
 -19758000.73243 -15358108.41142  20604803.0514   20604807.0674   20604802.8014
     -1062.8934       -828.2264         50.0004         46.0004
  -8959857.15943  -6931809.74642  22363297.9354   22363303.0814   22363297.4744
      3222.5134       2511.0484         46.0004         41.0004
  -2845729.20743  -2182999.14542  24044351.0374   24044354.4654   24044350.6694
      2670.8674       2081.2044         41.0004         37.0004
 -16119113.17043 -12514834.82242  22345622.4564   22345624.6384   22345622.4944
     -2697.6084      -2102.0234         46.0004         42.0004
 -12978032.34343 -10074473.85742  21362705.2874   21362708.7444   21362705.0514
       526.3974        410.1734         49.0004         44.0004
 04 12 25  0  5  0.0000000  0  7G15G19G 3G 1G11G22G14
  -5911934.53543  -4554680.21042  22734587.7164   22734592.5024   22734587.2674
     -1592.9584      -1241.2674         46.0004         41.0004
 -19930457.04443 -15492807.81642  20768706.9544   20768708.4434   20768706.1464
      1036.9594        808.0294         51.0004         47.0004
 -19725850.54443 -15333056.34342  20610921.0174   20610925.1104   20610920.7814
     -1080.8774       -842.2394         50.0004         46.0004
  -9056411.65443  -7007046.98542  22344924.1994   22344929.3524   22344923.7974
      3213.9074       2504.3434         46.0004         41.0004
  -2925870.99143  -2245447.25942  24029100.6294   24029104.2004   24029100.2374
      2671.3604       2081.5764         41.0004         37.0004
 -16038122.42643 -12451725.19942  22361034.4664   22361036.6704   22361034.5484
     -2702.3294      -2105.6994         46.0004         42.0004
 -12993530.66243 -10086550.46942  21359756.0944   21359759.5044   21359755.8084
       506.4314        394.6254         49.0004         44.0004
 04 12 25  0  5 30.0000000  0  7G15G19G 3G 1G11G22G14
  -5864085.34543  -4517395.17842  22743693.2384   22743697.9524   22743692.8064
     -1596.5994      -1244.1044         46.0004         41.0004
 -19961304.22543 -15516844.58342  20762836.9684   20762838.4574   20762836.1614
      1019.8014        794.6574         51.0004         47.0004
 -19693149.34143 -15307574.91642  20617143.8334   20617147.9424   20617143.6174
     -1099.0404       -856.3834         50.0004         46.0004
  -9152689.87643  -7082068.94842  22326602.9804   22326608.1584   22326602.6164
      3205.1164       2497.4954         46.0004         41.0004
  -3006025.33443  -2307905.15342  24013847.4954   24013851.2254   24013847.3374
      2672.4994       2082.4714         41.0004         36.0004
 -15956980.47143 -12388497.74742  22376475.3644   22376477.6004   22376475.3844
     -2706.9724      -2109.3234         46.0004         42.0004
 -13008425.55043 -10098156.88142  21356921.7644   21356925.1724   21356921.4454
       486.7654        379.3004         49.0004         45.0004
 04 12 25  0  6  0.0000000  0  7G15G19G 3G 1G11G22G14
  -5816118.63543  -4480018.56042  22752821.0504   22752825.7224   22752820.5844
     -1600.8624      -1247.4334         46.0004         41.0004
 -19991625.70143 -15540471.71842  20757066.9874   20757068.4954   20757066.1904
      1001.8004        780.6184         51.0004         47.0004
 -19659897.19043 -15281664.17942  20623471.5454   20623475.6404   20623471.3074
     -1117.6434       -870.8904         50.0004         46.0004
  -9248688.21143  -7156872.82542  22308334.9964   22308340.2334   22308334.7134
      3195.1294       2489.7154         46.0004         41.0004
  -3086191.12343  -2370371.99642  23998592.3214   23998596.0554   23998592.1224
      2672.3924       2082.3814         41.0004         36.0004
 -15875688.98443 -12325153.77842  22391944.6704   22391946.8404   22391944.6764
     -2712.3914      -2113.5494         46.0004         42.0004
 -13022715.68043 -10109292.04642  21354202.5134   21354205.8474   21354202.1614
       466.1714        363.2544         49.0004         44.0004
 04 12 25  0  6 30.0000000  0  7G15G19G 3G 1G11G22G14
  -5768034.24843  -4442550.25442  22761971.2594   22761975.8994   22761970.7644
     -1605.2324      -1250.8324         46.0004         41.0004
 -20021420.49743 -15563688.44542  20751397.2854   20751398.7054   20751396.4624
       984.0874        766.8104         51.0004         47.0004
 -19626095.33043 -15255325.09442  20629903.8694   20629907.9574   20629903.5894
     -1136.1724       -885.3364         50.0004         46.0004
  -9344403.94943  -7231456.48542  22290120.9664   22290126.1254   22290120.5504
      3185.5494       2482.2414         46.0004         41.0004
  -3166368.18443  -2432847.61042  23983335.1014   23983338.8864   23983334.8134
      2672.2624       2082.2834         41.0004         36.0004
 -15794250.30743 -12261695.10542  22407441.9114   22407444.0504   22407441.9374
     -2717.1864      -2117.2914         46.0004         41.0004
 -13036400.60643 -10119955.62642  21351598.3324   21351601.6584   21351597.9894
       445.8054        347.3654         49.0004         44.0004
 04 12 25  0  7  0.0000000  0  7G15G19G 3G 1G11G22G14
  -5719831.78443  -4404989.92042  22771143.9494   22771148.4984   22771143.4384
     -1608.3084      -1253.2184         45.0004         41.0004
 -20050686.80243 -15586493.36142  20745828.1034   20745829.5164   20745827.2554
       967.1864        753.6534         51.0004         47.0004
 -19591744.38343 -15228558.15142  20636440.5764   20636444.7304   20636440.3634
     -1153.7834       -899.0484         50.0004         46.0004
  -9439833.98243  -7305817.52842  22271961.1864   22271966.3804   22271960.8494
      3176.7034       2475.3534         46.0004         42.0004
  -3246555.49843  -2495331.20442  23968075.8414   23968079.8774   23968075.6194
      2673.4304       2083.1894         41.0004         37.0004
 -15712666.57043 -12198123.40042  22422966.6974   22422968.9874   22422966.7794
     -2721.4624      -2120.6304         46.0004         42.0004
 -13049479.67743 -10130147.11442  21349109.4084   21349112.8274   21349109.0714
       426.4984        332.3464         49.0004         44.0004
 04 12 25  0  7 30.0000000  0  7G15G19G 3G 1G11G22G14
  -5671511.39343  -4367337.73142  22780339.0064   22780343.5664   22780338.5004
     -1612.6624      -1256.6214         45.0004         41.0004
 -20079423.62543 -15608885.69142  20740359.6424   20740361.0734   20740358.8164
       949.0264        739.4994         51.0004         47.0004
 -19556845.81943 -15201364.49342  20643081.5414   20643085.7174   20643081.3304
     -1172.3974       -913.5614         50.0004         46.0004
  -9534975.79743  -7379953.97442  22253856.2894   22253861.4924   22253855.9874
      3166.4014       2467.3204         46.0004         42.0004
  -3326753.11443  -2557822.84042  23952814.6854   23952818.7674   23952814.4344
      2673.2954       2083.0844         41.0004         37.0004
 -15630940.26443 -12134440.61142  22438518.7014   22438520.9854   22438518.7854
     -2726.4474      -2124.5024         46.0004         42.0004
 -13061952.71543 -10139866.36842  21346735.8754   21346739.2874   21346735.5134
       405.5964        316.0414         49.0004         44.0004
 04 12 25  0  8  0.0000000  0  7G15G19G 3G 1G11G22G14
  -5623071.81143  -4329592.63642  22789556.7934   22789561.4344   22789556.2614
     -1616.7714      -1259.8124         45.0004         41.0004
 -20107628.50443 -15630863.52442  20734992.4404   20734993.8374   20734991.6244
       931.2174        725.6294         51.0004         47.0004
 -19521399.20143 -15173743.78342  20649826.8294   20649830.9924   20649826.6374
     -1190.7814       -927.8844         50.0004         46.0004
  -9629825.16443  -7453862.56042  22235807.0794   22235812.1754   22235806.8054
      3156.8144       2459.8514         46.0004         42.0004
  -3406959.55843  -2620321.34542  23937551.9404   23937555.8954   23937551.8294
      2673.8834       2083.5484         41.0004         37.0004
 -15549072.45443 -12070647.54342  22454097.7664   22454099.9574   22454097.7684
     -2731.0884      -2128.1164         46.0004         41.0004
 -13073817.98743 -10149112.03042  21344477.9774   21344481.4954   21344477.6524
       385.2634        300.2074         49.0004         44.0004
 04 12 25  0  8 30.0000000  0  7G15G19G 3G 1G11G22G14
  -5574512.69843  -4291754.41342  22798797.3204   22798801.9564   22798796.7864
     -1620.3124      -1262.5794         46.0004         41.0004
 -20135300.15943 -15652425.85942  20729726.7374   20729728.0964   20729725.8934
       913.7774        712.0244         51.0004         47.0004
 -19485405.95643 -15145697.13042  20656676.1574   20656680.3294   20656675.9594
     -1208.6014       -941.7784         50.0004         46.0004
  -9724379.48743  -7527541.22742  22217813.9304   22217819.0244   22217813.6914
      3147.0804       2452.2694         46.0004         42.0004
  -3487174.21243  -2682826.25442  23922287.5674   23922291.2794   23922287.4244
      2674.0504       2083.6844         41.0004         36.0004
 -15467065.15343 -12006745.78742  22469703.2784   22469705.4274   22469703.2604
     -2735.4354      -2131.5074         46.0004         41.0004
 -13085075.42243 -10157884.06442  21342335.7054   21342339.3324   21342335.4094
       365.3564        284.7074         49.0004         44.0004
 04 12 25  0  9  0.0000000  0  7G15G19G 3G 1G11G22G14
  -5525833.95743  -4253822.97042  22808060.6884   22808065.2834   22808060.0884
     -1624.3524      -1265.7304         46.0004         41.0004
 -20162437.49743 -15673571.84242  20724562.7084   20724564.0344   20724561.8554
       895.8994        698.1074         51.0004         47.0004
 -19448867.34843 -15117225.51542  20663629.2394   20663633.4164   20663629.0484
     -1226.9414       -956.0434         50.0004         46.0004
  -9818635.92243  -7600987.77342  22199877.4004   22199882.5644   22199877.3144
      3136.9254       2444.3614         46.0004         42.0004
  -3567397.08543  -2745337.58242  23907021.8064   23907025.4924   23907021.6074
      2674.3884       2083.9384         41.0004         36.0004
 -15384921.12643 -11942737.50242  22485334.7784   22485337.0034   22485334.7264
     -2740.1164      -2135.1514         46.0004         41.0004
 -13095724.69543 -10166182.20142  21340309.2464   21340312.8184   21340308.9284
       344.9604        268.8064         49.0004         44.0004
 04 12 25  0  9 30.0000000  0  7G15G19G 3G 1G11G22G14
  -5477035.37443  -4215798.14742  22817346.6934   22817351.3714   22817346.1394
     -1629.4344      -1269.6874         46.0004         41.0004
 -20189039.19043 -15694300.44142  20719500.5714   20719501.9334   20719499.7114
       876.9534        683.3264         51.0004         47.0004
 -19411784.31543 -15088329.67142  20670685.9274   20670690.0974   20670685.7304
     -1245.9414       -970.8864         50.0004         46.0004
  -9912591.55143  -7674199.93142  22181998.3004   22182003.3374   22181998.1544
      3126.0264       2435.8564         46.0004         42.0004
  -3647627.62643  -2807854.86942  23891754.4344   23891757.9244   23891754.2604
      2673.8524       2083.5214         41.0004         36.0004
 -15302642.49043 -11878624.31742  22500992.0394   22500994.1154   22500991.9104
     -2745.7024      -2139.5194         46.0004         41.0004
 -13105765.36843 -10174006.09742  21338398.5864   21338402.0914   21338398.2564
       323.6654        252.1944         49.0004         44.0004
 04 12 25  0 10  0.0000000  0  7G15G19G 3G 1G11G22G14
  -5428115.44043  -4177678.75842  22826656.0094   22826660.6104   22826655.3774
     -1631.9364      -1271.6324         46.0004         41.0004
 -20215102.43943 -15714609.47242  20714540.9614   20714542.3124   20714540.0654
       860.5324        670.5514         52.0004         47.0004
 -19374156.56943 -15059009.37642  20677846.2814   20677850.4454   20677846.0784
     -1262.5664       -983.8134         50.0004         46.0004
 -10006242.06243  -7747174.32442  22164177.1664   22164182.2314   22164177.0194
      3117.2704       2429.0534         47.0004         42.0004
  -3727863.63743  -2870376.39542  23876485.9394   23876489.4924   23876485.8534
      2675.2624       2084.6224         41.0004         36.0004
 -15220229.98743 -11814406.82942  22516674.6164   22516676.7224   22516674.4804
     -2748.8294      -2141.9454         46.0004         41.0004
 -13115195.58943 -10181354.32742  21336604.0694   21336607.6024   21336603.7644
       305.0734        237.7194         49.0004         44.0004
 04 12 25  0 10 30.0000000  0  7G15G19G 3G 1G11G22G14
  -5379074.47743  -4139465.07042  22835988.2494   22835992.9204   22835987.6394
     -1636.9154      -1275.5184         45.0004         41.0004
 -20240627.03143 -15734498.76842  20709683.8094   20709685.1504   20709682.9214
       841.6134        655.8014         52.0004         47.0004
 -19335986.15243 -15029266.21442  20685109.9054   20685114.0714   20685109.7034
     -1281.6014       -998.6664         50.0004         46.0004
 -10099585.51443  -7819909.45542  22146414.4764   22146419.5624   22146414.2914
      3106.0034       2420.2664         47.0004         42.0004
  -3808105.50243  -2932902.51742  23861216.3894   23861220.0034   23861216.3814
      2674.1854       2083.7924         41.0004         36.0004
 -15137686.71643 -11750087.44342  22532382.0664   22532384.2744   22532381.9514
     -2753.7524      -2145.7704         46.0004         41.0004
 -13124015.98643 -10188227.36742  21334925.6564   21334929.1314   21334925.3384
       283.4964        220.8984         49.0004         44.0004
 04 12 25  0 11  0.0000000  0  7G15G19G 3G 1G11G22G14
  -5329911.80843  -4101156.55542  22845343.5054   22845348.2924   22845342.9214
     -1641.0884      -1278.7704         45.0004         41.0004
 -20265611.20943 -15753966.96342  20704929.5094   20704930.8084   20704928.6184
       823.5154        641.6974         52.0004         47.0004
 -19297273.93343 -14999100.87542  20692476.6184   20692480.7914   20692476.4104
     -1299.7644      -1012.7994         50.0004         46.0004
 -10192618.56343  -7892402.71442  22128710.7414   22128715.9314   22128710.6464
      3095.7974       2412.3144         47.0004         42.0004
  -3888352.36443  -2995432.53042  23845945.8534   23845949.5414   23845945.5934
      2674.7564       2084.2254         41.0004         36.0004
 -15055014.13743 -11685667.27142  22548114.2054   22548116.4274   22548114.1084
     -2758.1204      -2149.1964         46.0004         41.0004
 -13132225.99043 -10194624.76542  21333363.3404   21333366.7684   21333363.0494
       263.0864        204.9994         49.0004         44.0004
 04 12 25  0 11 30.0000000  0  7G15G19G 3G 1G11G22G14
  -5280627.46443  -4062753.20442  22854722.1764   22854726.8524   22854721.4904
     -1644.5434      -1281.4514         45.0004         41.0004
 -20290053.87743 -15773013.19942  20700278.2674   20700279.5194   20700277.3244
       806.0374        628.0974         52.0004         47.0004
 -19258021.28443 -14968514.42642  20699946.1994   20699950.3214   20699945.9784
     -1317.1154      -1026.3194         50.0004         46.0004
 -10285338.48043  -7964651.96342  22111066.8414   22111071.9324   22111066.6654
      3085.6984       2404.4404         47.0004         42.0004
  -3968604.05543  -3057966.27842  23830674.4034   23830678.2004   23830674.0094
      2675.7654       2085.0184         41.0004         36.0004
 -14972214.83743 -11621148.39242  22563870.3724   22563872.7064   22563870.2794
     -2761.7944      -2152.0474         46.0004         41.0004
 -13139825.45343 -10200546.42542  21331917.1524   21331920.6614   21331916.9044
       243.3424        189.6174         49.0004         44.0004
 04 12 25  0 12  0.0000000  0  7G15G19G 3G 1G11G22G14
  -5231219.83243  -4024253.80942  22864124.1174   22864128.8354   22864123.4734
     -1649.2474      -1285.1264         45.0004         41.0004
 -20313952.19243 -15791635.26942  20695730.5534   20695731.8014   20695729.6604
       787.1864        613.3984         52.0004         47.0004
 -19218227.67343 -14937506.44642  20707518.7314   20707522.8434   20707518.5054
     -1335.7774      -1040.8594         50.0004         46.0004
 -10377740.92943  -8036653.84142  22093483.2374   22093488.3564   22093483.0254
      3074.5454       2395.7514         47.0004         42.0004
  -4048858.41443  -3120502.11442  23815402.5384   23815406.2044   23815402.1524
      2675.1654       2084.5334         41.0004         36.0004
 -14889289.43343 -11556531.23842  22579650.5034   22579652.8964   22579650.5054
     -2766.6194      -2155.8094         45.0004         41.0004
 -13146812.44443 -10205990.83842  21330587.6674   21330591.0864   21330587.3674
       222.4404        173.3374         49.0004         44.0004
 04 12 25  0 12 30.0000000  0  7G15G19G 3G 1G11G22G14
  -5181689.32643  -3985658.67342  22873549.3654   22873554.2194   22873548.7754
     -1653.3434      -1288.3134         45.0004         41.0004
 -20337306.09943 -15809833.11442  20691286.4494   20691287.6994   20691285.5644
       769.1494        599.3344         52.0004         47.0004
 -19177895.30843 -14906078.65242  20715193.7444   20715197.8934   20715193.5384
     -1353.3724      -1054.5744         50.0004         46.0004
 -10469823.96743  -8108406.82742  22075960.3684   22075965.4714   22075960.1534
      3064.0424       2387.5634         47.0004         42.0004
  -4129115.45843  -3183040.04942  23800129.9304   23800133.8744   23800129.8804
      2675.1814       2084.5554         41.0004         36.0004
 -14806240.99543 -11491818.20342  22595454.1474   22595456.5154   22595454.2084
     -2770.2224      -2158.5994         45.0004         41.0004
 -13153187.59743 -10210958.48742  21329374.5194   21329377.9364   21329374.2174
       202.1084        157.4904         49.0004         44.0004
 04 12 25  0 13  0.0000000  0  7G15G19G 3G 1G11G22G14
  -5132034.99443  -3946967.04142  22882998.3234   22883003.1604   22882997.7024
     -1657.5604      -1291.6044         45.0004         41.0004
 -20360113.97443 -15827605.49042  20686946.1844   20686947.5294   20686945.3354
       750.7684        585.0144         52.0004         47.0004
 -19137025.05743 -14874231.73842  20722971.1524   20722975.2794   20722970.9204
     -1371.7164      -1068.8764         50.0004         46.0004
 -10561584.27643  -8179908.34342  22058498.9354   22058503.9924   22058498.7634
      3052.9784       2378.9364         47.0004         42.0004
  -4209374.44643  -3245579.49042  23784857.0514   23784861.0754   23784856.9794
      2674.6464       2084.1234         41.0004         36.0004
 -14723070.96143 -11427010.43242  22611280.9234   22611283.3714   22611280.9834
     -2774.6824      -2162.0874         45.0004         41.0004
 -13158950.40043 -10215448.98342  21328277.9194   21328281.3294   21328277.6034
       181.4404        141.3834         49.0004         44.0004
 04 12 25  0 13 30.0000000  0  7G15G19G 3G 1G11G22G14
  -5082256.54643  -3908178.67842  22892470.9454   22892475.7354   22892470.2564
     -1660.1494      -1293.6084         45.0004         41.0004
 -20382374.30743 -15844951.20642  20682710.1974   20682711.5674   20682709.3624
       734.0814        572.0264         52.0004         47.0004
 -19095618.01343 -14841966.54042  20730850.7204   20730854.7994   20730850.4474
     -1387.9734      -1081.5164         50.0004         46.0004
 -10653018.67943  -8251155.89542  22041099.6434   22041104.5674   22041099.3984
      3043.5474       2371.5994         47.0004         42.0004
  -4289634.51343  -3308119.78042  23769584.0824   23769588.1234   23769583.6424
      2676.5414       2085.6224         41.0004         36.0004
 -14639781.23943 -11362109.39542  22627130.4494   22627132.9704   22627130.5144
     -2777.1484      -2164.0114         45.0004         41.0004
 -13164100.39443 -10219461.96042  21327297.9584   21327301.3074   21327297.6394
       162.6564        126.7544         49.0004         45.0004
 04 12 25  0 14  0.0000000  0  7G15G19G 3G 1G11G22G14
  -5032353.63443  -3869293.34542  22901967.1394   22901971.9724   22901966.4324
     -1665.5784      -1297.8514         45.0004         41.0004
 -20404085.79543 -15861869.25342  20678578.6534   20678580.0224   20678577.8074
       714.6384        556.8594         52.0004         47.0004
 -19053675.19143 -14809283.84142  20738832.1804   20738836.2674   20738831.9314
     -1406.9084      -1096.2844         50.0004         46.0004
 -10744124.18843  -8322147.16842  22023762.8094   22023767.7804   22023762.6524
      3031.3074       2362.0464         47.0004         43.0004
  -4369894.86743  -3370660.29842  23754310.8314   23754315.0324   23754310.6284
      2675.5924       2084.8724         41.0004         36.0004
 -14556373.84843 -11297116.65642  22643002.3594   22643004.9124   22643002.4094
     -2782.2294      -2167.9664         45.0004         41.0004
 -13168637.37443 -10222997.26242  21326434.6084   21326437.9544   21326434.2284
       141.0314        109.8914         49.0004         44.0004
 04 12 25  0 14 30.0000000  0  7G15G19G 3G 1G11G22G14
  -4982326.05543  -3830310.87042  22911487.0704   22911491.9664   22911486.3454
     -1669.1434      -1300.6284         45.0004         41.0004
 -20425247.38343 -15878358.80942  20674551.7304   20674553.1134   20674550.8954
       696.6634        542.8594         52.0004         47.0004
 -19011197.89843 -14776184.67842  20746915.3864   20746919.4624   20746915.1254
     -1424.2704      -1109.8094         50.0004         46.0004
 -10834898.15743  -8392880.09042  22006489.1474   22006494.0804   22006488.8894
      3020.6724       2353.7764         47.0004         43.0004
  -4450155.41143  -3433200.96642  23739037.6124   23739041.9314   23739037.4814
      2675.8954       2085.1164         41.0004         36.0004
 -14472850.98343 -11232033.96842  22658896.2274   22658898.9034   22658896.2724
     -2785.3874      -2170.4244         45.0004         41.0004
 -13172561.29243 -10226054.86142  21325687.8924   21325691.2374   21325687.5414
       121.0434         94.3334         49.0004         44.0004
                            4  1
RINEX FILE SPLICE; other post-header comments skipped       COMMENT
 04 12 25  0 15  0.0000000  0  7G15G19G 3G 1G11G22G14
  -4932172.96443  -3791230.58842  22921031.0104   22921035.9284   22921030.2574
     -1673.7194      -1304.1914         45.0004         41.0004
 -20445857.35743 -15894418.54142  20670629.7834   20670631.1564   20670628.9634
       678.1324        528.4344         52.0004         47.0004
 -18968186.92343 -14742669.66342  20755100.0704   20755104.1844   20755099.8604
     -1442.2494      -1123.8144         50.0004         46.0004
 -10925337.08843  -8463351.95342  21989279.1754   21989284.0964   21989278.9144
      3009.2814       2344.8894         47.0004         43.0004
  -4530414.54543  -3495740.52842  23723764.9754   23723769.0834   23723764.6724
      2675.4724       2084.7864         41.0004         36.0004
 -14389214.17843 -11166862.47842  22674811.8614   22674814.5184   22674811.9134
     -2789.5764      -2173.6974         45.0004         41.0004
 -13175871.32943 -10228634.10342  21325058.0184   21325061.3274   21325057.6894
       100.4054         78.2504         49.0004         44.0004
 04 12 25  0 15 30.0000000  0  7G15G19G 3G 1G11G22G14
  -4881894.43843  -3752052.56642  22930598.5914   22930603.7114   22930597.9664
     -1677.8574      -1307.4194         45.0004         40.0004
 -20465915.09543 -15910047.95642  20666812.9264   20666814.3294   20666812.1004
       659.5964        513.9744         52.0004         47.0004
 -18924644.23843 -14708740.32242  20763385.9724   20763390.1144   20763385.7554
     -1460.0594      -1137.7014         50.0004         45.0004
 -11015438.43743  -8533560.76342  21972133.4084   21972138.3344   21972133.1794
      2998.0494       2336.1454         47.0004         43.0004
  -4610672.10843  -3558278.88142  23708492.5294   23708496.5624   23708492.1524
      2674.9874       2084.4064         41.0004         37.0004
 -14305465.72343 -11101603.98842  22690748.7154   22690751.3744   22690748.7664
     -2793.1604      -2176.4834         45.0004         41.0004
 -13178567.93643 -10230735.34742  21324544.8664   21324548.2044   21324544.5244
        80.0164         62.3394         49.0004         44.0004
 04 12 25  0 16  0.0000000  0  7G15G19G 3G 1G11G22G14
  -4831489.20543  -3712775.80942  22940190.3324   22940195.5254   22940189.8104
     -1682.1674      -1310.7714         45.0004         40.0004
 -20485418.75443 -15925245.62642  20663101.5004   20663102.9024   20663100.6784
       641.1394        499.6004         52.0004         47.0004
 -18880570.06543 -14674396.84442  20771773.1044   20771777.1844   20771772.8094
     -1477.6584      -1151.4114         50.0004         46.0004
 -11105198.57943  -8603503.70342  21955052.6644   21955057.4824   21955052.3684
      2986.5594       2327.1824         47.0004         43.0004
  -4690926.57543  -3620814.80242  23693220.6554   23693224.6104   23693220.2814
      2674.9834       2084.3894         41.0004         37.0004
 -14221606.88043 -11036259.49542  22706706.4854   22706709.2484   22706706.5734
     -2796.8184      -2179.3364         45.0004         40.0004
 -13180650.25743 -10232357.93842  21324148.5394   21324151.8944   21324148.2384
        59.4434         46.3174         49.0004         44.0004
 04 12 25  0 16 30.0000000  0  7G15G19G 3G 1G11G22G14
  -4780957.37943  -3673400.41642  22949806.3694   22949811.4304   22949805.7644
     -1686.6504      -1314.2704         45.0004         41.0004
 -20504367.22443 -15940010.68242  20659495.7404   20659497.1324   20659494.9174
       622.0464        484.7084         52.0004         47.0004
 -18835965.86243 -14639640.34842  20780261.0284   20780265.0914   20780260.7234
     -1495.8274      -1165.5864         50.0004         45.0004
 -11194614.73343  -8673178.59342  21938037.2824   21938042.1164   21938037.0234
      2974.7124       2317.9604         47.0004         43.0004
  -4771177.51443  -3683347.98042  23677949.4914   23677953.3114   23677949.1054
      2675.0234       2084.4314         41.0004         37.0004
 -14137639.86543 -10970830.71442  22722684.8684   22722687.7204   22722684.9344
     -2800.9044      -2182.5264         45.0004         40.0004
 -13182118.34243 -10233501.88642  21323869.1904   21323872.4904   21323868.8784
        38.5144         30.0124         49.0004         44.0004
 04 12 25  0 17  0.0000000  0  7G15G19G 3G 1G11G22G14
  -4730297.87943  -3633925.53242  22959446.5894   22959451.6814   22959445.9544
     -1691.1424      -1317.7754         45.0004         40.0004
 -20522758.78743 -15954341.77942  20655995.9674   20655997.3404   20655995.1334
       603.5314        470.2704         52.0004         47.0004
 -18790832.45443 -14604471.48242  20788849.6164   20788853.6754   20788849.3344
     -1513.6144      -1179.4414         50.0004         45.0004
 -11283683.39643  -8742582.72242  21921088.0424   21921092.8994   21921087.7784
      2962.8964       2308.7374         47.0004         43.0004
  -4851423.30143  -3745877.14442  23662679.1784   23662683.0344   23662678.7914
      2674.2574       2083.8384         41.0004         37.0004
 -14053566.02643 -10905318.66842  22738683.6524   22738686.4614   22738683.7804
     -2804.4904      -2185.3114         45.0004         40.0004
 -13182971.32343 -10234166.54442  21323706.8624   21323710.1754   21323706.5484
        17.8684         13.9134         49.0004         45.0004
 04 12 25  0 17 30.0000000  0  7G15G19G 3G 1G11G22G14
  -4679511.15343  -3594351.51842  22969110.8584   22969116.1764   22969110.3134
     -1694.9424      -1320.7324         45.0004         40.0004
 -20540593.45543 -15968238.93542  20652602.0564   20652603.4844   20652601.2754
       585.3384        456.1114         52.0004         47.0004
 -18745172.12743 -14568892.03342  20797538.4914   20797542.5854   20797538.2514
     -1530.6344      -1192.6944         50.0004         45.0004
 -11372402.57443  -8811714.51442  21904205.3314   21904210.1494   21904205.0244
      2951.5594       2299.9294         47.0004         43.0004
  -4931664.42943  -3808402.69042  23647409.4874   23647413.5124   23647409.3544
      2674.7444       2084.2024         41.0004         37.0004
 -13969388.14443 -10839725.58642  22754701.9684   22754705.0834   22754702.2014
     -2807.4154      -2187.5864         45.0004         40.0004
 -13183210.20643 -10234352.67142  21323661.4164   21323664.6954   21323661.0844
        -2.1124         -1.6354         49.0004         44.0004
 04 12 25  0 18  0.0000000  0  7G15G19G 3G 1G11G22G14
  -4628596.23843  -3554677.60542  22978799.7064   22978804.9414   22978799.1444
     -1698.6514      -1323.6224         45.0004         40.0004
 -20557869.31443 -15981700.65542  20649314.5654   20649316.0044   20649313.7944
       567.2864        442.0444         52.0004         47.0004
 -18698985.69643 -14532902.62842  20806327.5384   20806331.6104   20806327.2864
     -1547.5054      -1205.8444         50.0004         45.0004
 -11460768.69043  -8880571.19042  21887389.7664   21887394.6664   21887389.4964
      2940.2154       2291.0904         47.0004         43.0004
  -5011899.43243  -3870923.44342  23632141.4524   23632145.2944   23632141.2764
      2674.9524       2084.3844         41.0004         37.0004
 -13885107.48043 -10774052.38542  22770740.2734   22770743.2024   22770740.3724
     -2810.3104      -2189.8464         45.0004         40.0004
 -13182834.58043 -10234059.97642  21323732.7924   21323736.1294   21323732.4934
       -21.9594        -17.1124         49.0004         44.0004
 04 12 25  0 18 30.0000000  0  7G15G19G 3G 1G11G22G14
  -4577552.62443  -3514903.40342  22988513.0094   22988518.2234   22988512.4074
     -1703.9944      -1327.7904         45.0004         40.0004
 -20574585.20343 -15994726.02842  20646133.6594   20646135.0934   20646132.9034
       547.3504        426.4954         52.0004         47.0004
 -18652274.15643 -14496504.05942  20815216.4464   20815220.5394   20815216.1964
     -1566.1874      -1220.3974         50.0004         45.0004
 -11548778.64343  -8949150.34042  21870641.9574   21870646.9164   21870641.6874
      2927.1874       2280.9124         47.0004         43.0004
  -5092127.39943  -3933438.70542  23616874.5484   23616878.4054   23616874.4244
      2673.6944       2083.3994         42.0004         37.0004
 -13800726.00643 -10708300.63842  22786797.4964   22786800.5164   22786797.6134
     -2814.8804      -2193.4124         45.0004         40.0004
 -13181843.90543 -10233288.01742  21323921.3314   21323924.7124   21323920.9924
       -43.7444        -34.0844         49.0004         44.0004
 04 12 25  0 19  0.0000000  0  7G15G19G 3G 1G11G22G14
  -4526379.75643  -3475028.49342  22998251.0194   22998256.2124   22998250.3614
     -1707.9164      -1330.8424         45.0004         40.0004
 -20590740.17343 -16007314.33242  20643059.5224   20643060.9084   20643058.7184
       529.2014        412.3694         52.0004         47.0004
 -18605039.12943 -14459697.57242  20824205.0154   20824209.0784   20824204.7024
     -1583.2494      -1233.6914         50.0004         45.0004
 -11636429.61443  -9017449.76242  21853962.5294   21853967.4734   21853962.1914
      2915.6454       2271.9284         47.0004         43.0004
  -5172347.49043  -3995947.85242  23601609.2494   23601613.0124   23601609.0564
      2674.0224       2083.6504         42.0004         37.0004
 -13716245.44543 -10642471.69042  22802873.6804   22802876.5394   22802873.7604
     -2817.7054      -2195.6134         45.0004         40.0004
 -13180238.57943 -10232037.10742  21324226.7724   21324230.2014   21324226.4934
       -63.8274        -49.7324         49.0004         44.0004
 04 12 25  0 19 30.0000000  0  7G15G19G 3G 1G11G22G14
  -4475077.02643  -3435052.38142  23008013.6384   23008018.8844   23008013.0504
     -1712.5704      -1334.4714         45.0004         40.0004
 -20606332.75043 -16019464.39742  20640092.3734   20640093.7474   20640091.5634
       510.1504        397.5224         52.0004         47.0004
 -18557281.54643 -14422483.90242  20833292.9474   20833297.0774   20833292.6584
     -1600.8254      -1247.3774         50.0004         45.0004
 -11723718.39943  -9085466.96042  21837351.9384   21837356.9224   21837351.6424
      2903.3484       2262.3394         47.0004         43.0004
  -5252558.78043  -4058450.14142  23586345.6824   23586349.3174   23586345.4404
      2673.1974       2083.0134         42.0004         37.0004
 -13631667.37643 -10576566.74742  22818968.3864   22818971.1864   22818968.4804
     -2821.4674      -2198.5314         45.0004         40.0004
 -13178018.12243 -10230306.87042  21324649.2604   21324652.7424   21324649.0294
       -84.6044        -65.9324         49.0004         44.0004
 04 12 25  0 20  0.0000000  0  7G15G19G 3G 1G11G22G14
  -4423644.63243  -3394975.23742  23017800.9294   23017806.1804   23017800.3334
     -1716.8614      -1337.8144         45.0004         40.0004
 -20621362.56943 -16031175.95542  20637232.3074   20637233.6704   20637231.4784
       491.3694        382.8774         52.0004         47.0004
 -18509003.42143 -14384864.61842  20842479.9364   20842484.1114   20842479.6724
     -1618.0334      -1260.8164         50.0004         45.0004
 -11810642.73643  -9153200.18342  21820810.7514   21820815.7614   21820810.4374
      2891.3234       2252.9914         48.0004         43.0004
  -5332760.84943  -4120945.23742  23571083.6274   23571087.3434   23571083.3664
      2673.0574       2082.8974         42.0004         37.0004
 -13546994.24343 -10510587.74742  22835081.2114   22835084.0254   22835081.3274
     -2824.1244      -2200.6144         45.0004         40.0004
 -13175183.30543 -10228097.91942  21325188.7784   21325192.1984   21325188.4964
      -104.9344        -81.7814         49.0004         44.0004
 04 12 25  0 20 30.0000000  0  7G15G19G 3G 1G11G22G14
  -4372081.27343  -3354796.05242  23027613.1634   23027618.4044   23027612.5654
     -1720.9224      -1340.9744         45.0004         40.0004
 -20635827.91643 -16042447.66242  20634479.6754   20634481.0474   20634478.8394
       472.5624        368.2334         52.0004         47.0004
 -18460205.51343 -14346840.30342  20851765.8324   20851770.0934   20851765.6054
     -1635.3104      -1274.2664         50.0004         45.0004
 -11897198.90443  -9220646.51542  21804339.5924   21804344.6474   21804339.2954
      2878.8644       2243.2784         48.0004         43.0004
  -5412952.20343  -4183431.98742  23555823.7364   23555827.5114   23555823.6354
      2672.8294       2082.7194         42.0004         38.0004
 -13462227.01643 -10444535.42342  22851211.8464   22851214.7654   22851212.0474
     -2827.2314      -2203.0364         45.0004         40.0004
 -13171733.38443 -10225409.66242  21325845.2604   21325848.7044   21325844.9904
      -125.0844        -97.4544         49.0004         44.0004
 04 12 25  0 21  0.0000000  0  7G15G19G 3G 1G11G22G14
  -4320386.71843  -3314514.64242  23037450.2094   23037455.5704   23037449.7214
     -1724.9794      -1344.1414         45.0004         40.0004
 -20649727.72743 -16053278.68742  20631834.6024   20631836.0194   20631833.8074
       454.1744        353.8934         52.0004         47.0004
 -18410889.28943 -14308412.10742  20861150.4114   20861154.6864   20861150.1904
     -1652.1164      -1287.3604         50.0004         45.0004
 -11983384.01443  -9287803.70042  21787939.0754   21787944.1534   21787938.7604
      2866.9574       2233.9834         48.0004         43.0004
  -5493131.85343  -4245909.60842  23540566.1094   23540569.9664   23540566.0024
      2672.8564       2082.7494         43.0004         38.0004
 -13377367.76743 -10378411.39742  22867360.0864   22867362.9904   22867360.2724
     -2829.9254      -2205.1324         45.0004         40.0004
 -13167668.45143 -10222242.17742  21326618.8044   21326622.2584   21326618.4934
      -145.3994       -113.3104         49.0004         44.0004
 04 12 25  0 21 30.0000000  0  7G15G19G 3G 1G11G22G14
  -4268561.25643  -3274131.20642  23047312.4584   23047317.5894   23047311.8664
     -1729.3704      -1347.5594         45.0004         40.0004
 -20663061.60643 -16063668.73542  20629297.2004   20629298.6494   20629296.4374
       435.1504        339.0834         52.0004         47.0004
 -18361056.77443 -14269581.60842  20870633.2634   20870637.5254   20870633.0384
     -1669.4354      -1300.8644         50.0004         45.0004
 -12069195.80543  -9354669.99742  21771609.5384   21771614.6864   21771609.3154
      2854.2484       2224.0904         48.0004         43.0004
  -5573299.66143  -4308378.03242  23525310.6314   23525314.4894   23525310.5774
      2672.2584       2082.2834         42.0004         38.0004
 -13292419.02943 -10312217.62842  22883525.4124   22883528.2674   22883525.5984
     -2832.9194      -2207.4674         44.0004         40.0004
 -13162989.26843 -10218596.06642  21327509.2414   21327512.6714   21327508.9604
      -165.9994       -129.3584         49.0004         44.0004
 04 12 25  0 22  0.0000000  0  7G15G19G 3G 1G11G22G14
  -4216603.91843  -3233645.00442  23057199.6534   23057204.7844   23057199.0864
     -1733.8214      -1351.0274         45.0004         40.0004
 -20675828.19743 -16073616.73842  20626867.8564   20626869.2554   20626867.0924
       416.4374        324.5004         52.0004         47.0004
 -18310708.98543 -14230349.58642  20880214.1514   20880218.4274   20880213.9274
     -1686.4144      -1314.0964         50.0004         45.0004
 -12154630.85143  -9421242.72842  21755351.8074   21755356.9144   21755351.5114
      2841.8944       2214.4624         48.0004         43.0004
  -5653454.12643  -4370836.05442  23510057.7454   23510061.5694   23510057.7024
      2671.7794       2081.9054         42.0004         38.0004
 -13207381.86343 -10245954.96642  22899707.5494   22899710.4174   22899707.7034
     -2835.7944      -2209.7004         45.0004         40.0004
 -13157695.60243 -10214471.12342  21328516.6434   21328519.9984   21328516.3224
      -186.2444       -145.1314         49.0004         44.0004
 04 12 25  0 22 30.0000000  0  7G15G19G 3G 1G11G22G14
  -4164514.30543  -3193055.76242  23067111.9824   23067117.1294   23067111.4434
     -1738.8594      -1354.9484         45.0004         40.0004
 -20688026.70843 -16083122.08042  20624546.5854   20624547.9614   20624545.8024
       396.7524        309.1414         52.0004         48.0004
 -18259847.26043 -14190717.09742  20889892.8184   20889897.1274   20889892.6024
     -1704.2774      -1328.0054         49.0004         45.0004
 -12239686.45243  -9487519.78642  21739166.2794   21739171.3534   21739165.9694
      2828.4394       2203.9804         48.0004         43.0004
  -5733594.60543  -4433283.15242  23494807.4724   23494811.4994   23494807.5424
      2670.8864       2081.2104         43.0004         38.0004
 -13122258.07843 -10179624.79142  22915906.1354   22915909.0754   22915906.2984
     -2839.4014      -2212.5194         44.0004         40.0004
 -13151787.76243 -10209867.61042  21329640.8154   21329644.2194   21329640.5164
      -207.4024       -161.6244         49.0004         44.0004
 04 12 25  0 23  0.0000000  0  7G15G19G 3G 1G11G22G14
  -4112291.49143  -3152362.70542  23077049.6354   23077054.8684   23077049.1084
     -1742.6634      -1357.9164         45.0004         40.0004
 -20699655.69143 -16092183.63542  20622333.6674   20622335.0524   20622332.8864
       378.4184        294.8684         52.0004         48.0004
 -18208472.80643 -14150685.08242  20899669.0484   20899673.3684   20899668.8514
     -1720.6754      -1340.7884         49.0004         45.0004
 -12324359.26843  -9553498.57042  21723053.5944   21723058.6034   21723053.2504
      2816.3124       2194.5194         48.0004         43.0004
  -5813719.63843  -4495718.23942  23479560.0844   23479564.1824   23479560.1954
      2670.9594       2081.2654         43.0004         38.0004
 -13037049.13443 -10113228.28042  22932120.9554   22932123.7924   22932121.0314
     -2841.4614      -2214.1174         44.0004         40.0004
 -13145265.18443 -10204785.08342  21330882.0684   21330885.3944   21330881.7874
      -227.3534       -177.1604         49.0004         44.0004
 04 12 25  0 23 30.0000000  0  7G15G19G 3G 1G11G22G14
  -4059935.67843  -3111566.02242  23087012.7034   23087017.9754   23087012.1344
     -1746.6754      -1361.0354         45.0004         40.0004
 -20710714.88743 -16100801.20442  20620229.2254   20620230.5874   20620228.4174
       359.9054        280.4514         52.0004         48.0004
 -18156587.75343 -14110255.20042  20909542.5024   20909546.8234   20909542.3094
     -1737.1084      -1353.5864         49.0004         45.0004
 -12408647.00343  -9619177.29442  21707014.0854   21707019.1174   21707013.8024
      2803.9144       2184.8694         48.0004         43.0004
  -5893829.02043  -4558141.12242  23464315.7724   23464319.7404   23464315.9604
      2670.8044       2081.1444         43.0004         38.0004
 -12951757.58443 -10046767.40342  22948351.5134   22948354.2614   22948351.4754
     -2843.7704      -2215.9164         44.0004         40.0004
 -13138128.75243 -10199224.23542  21332240.0824   21332243.4494   21332239.8104
      -247.3604       -192.7544         49.0004         44.0004
 04 12 25  0 24  0.0000000  0  7G15G19G 3G 1G11G22G14
  -4007446.15443  -3070665.13842  23097001.0314   23097006.3914   23097000.5784
     -1752.2194      -1365.3604         45.0004         40.0004
 -20721202.97543 -16108973.75342  20618233.3784   20618234.7974   20618232.6014
       340.1124        265.0164         52.0004         48.0004
 -18104193.52643 -14069428.56942  20919512.8544   20919517.1484   20919512.6324
     -1754.8264      -1367.3724         50.0004         45.0004
 -12492546.50643  -9684553.49942  21691048.6254   21691053.4944   21691048.2734
      2790.1514       2174.1674         48.0004         43.0004
  -5973921.69843  -4620550.97342  23449074.5884   23449078.5474   23449074.7914
      2669.5924       2080.2094         43.0004         38.0004
 -12866384.56443  -9980243.03742  22964597.4154   22964600.2164   22964597.4424
     -2847.2074      -2218.6064         44.0004         40.0004
 -13130378.66543 -10193185.21742  21333714.8254   21333718.2344   21333714.5384
      -268.4534       -209.1834         49.0004         44.0004
 04 12 25  0 24 30.0000000  0  7G15G19G 3G 1G11G22G14
  -3954822.18543  -3029659.52542  23107015.0824   23107020.4284   23107014.6204
     -1757.2244      -1369.2634         45.0004         40.0004
 -20731119.01243 -16116700.54842  20616346.4734   20616347.8404   20616345.6934
       320.4584        249.7114         52.0004         48.0004
 -18051291.21943 -14028206.02142  20929579.8224   20929584.1584   20929579.6414
     -1772.1944      -1380.9304         49.0004         45.0004
 -12576054.53543  -9749624.66642  21675157.5504   21675162.3924   21675157.2424
      2776.5644       2163.5474         48.0004         44.0004
  -6053996.36543  -4682946.80742  23433836.9444   23433840.7854   23433836.9904
      2668.3384       2079.2284         43.0004         38.0004
 -12780931.46143  -9913656.27142  22980858.7224   22980861.4534   22980858.7614
     -2850.2774      -2220.9994         44.0004         40.0004
 -13122014.72043 -10186667.86142  21335306.4684   21335309.8034   21335306.1344
      -289.5794       -225.6534         49.0004         44.0004
 04 12 25  0 25  0.0000000  0  7G15G19G 3G 1G11G22G14
  -3902063.57843  -2988548.98642  23117054.8194   23117060.0934   23117054.3864
     -1760.0554      -1371.4674         45.0004         40.0004
 -20740462.27743 -16123981.02042  20614568.4834   20614569.8804   20614567.7024
       302.4124        235.6494         52.0004         48.0004
 -17997882.61943 -13986588.96142  20939743.1944   20939747.5244   20939742.9764
     -1788.1404      -1393.3314         49.0004         45.0004
 -12659168.23943  -9814388.55842  21659341.5794   21659346.3444   21659341.2464
      2764.4584       2154.1264         48.0004         44.0004
  -6134051.82543  -4745327.65742  23418602.8694   23418606.8964   23418602.8514
      2668.9334       2079.6884         43.0004         38.0004
 -12695400.30443  -9847008.67542  22997134.8174   22997137.5314   22997134.9094
     -2851.5564      -2221.9944         44.0004         40.0004
 -13113037.44743 -10179672.58742  21337014.8444   21337018.0824   21337014.4814
      -308.7734       -240.5934         49.0004         44.0004
 04 12 25  0 25 30.0000000  0  7G15G19G 3G 1G11G22G14
  -3849169.65443  -2947332.99042  23127120.2464   23127125.5584   23127119.8214
     -1765.3774      -1375.6154         45.0004         40.0004
 -20749231.67243 -16130814.32642  20612899.6794   20612901.1484   20612898.9244
       282.6944        220.2834         52.0004         48.0004
 -17943969.12843 -13944578.48642  20950002.6024   20950006.9554   20950002.4014
     -1805.5994      -1406.9584         49.0004         45.0004
 -12741884.83743  -9878843.01242  21643601.1054   21643605.9244   21643600.7794
      2750.5454       2143.2804         48.0004         44.0004
