     2.10           OBSERVATION DATA    G (GPS)             RINEX VERSION / TYPE
teqc  2003Apr29                         20041229 00:22:02UTCPGM / RUN BY / DATE
OBSERVATION MODE: IGS-Net                                   COMMENT
PERT Perth (PERT)                                           MARKER NAME
50133M001                                                   MARKER NUMBER
200313003           ASHTECH UZ-12        CJ00               REC # / TYPE / VERS
CR620023901         ASH701945C_M    NONE                    ANT # / TYPE
        0.0595        0.0000        0.0000                  ANTENNA: DELTA H/E/N
  -2368687.3258  4881316.3600  -3341795.7047                APPROX POSITION XYZ
  115.88525167  -31.80196644  12.5303  LonLatAlt  S/W       COMMENT
Solaris 2.7|Ultra 2|cc SC5.0|=+-|*Sparc                     COMMENT
MSWin2000|IAx86-PII|bcc32 5.0|MSWin95->XP|486/DX+           COMMENT
BIT 2 OF LLI FLAGS DATA COLLECTED UNDER A/S CONDITION       COMMENT
AUTOMATIC           ESA/ESOC                                OBSERVER / AGENCY
     1     1                                                WAVELENGTH FACT L1/2
     9    L1    L2    C1    P2    P1    D1    D2    S1    S2# / TYPES OF OBSERV
    30.0000                                                 INTERVAL
 SNR is mapped to RINEX snr flag value [1-9]                COMMENT
  L1: 1 -> 1;  90 -> 5; 210 -> 9                            COMMENT
  L2: 1 -> 1; 150 -> 5; 250 -> 9                            COMMENT
pseudorange smoothing corrections not applied               COMMENT
Checked by ROCK 1.0 [28.12.04-00:18]; status 2: file fixed  COMMENT
    28                                                      # OF SATELLITES
   G01   639   640   643   640   639   639   640   639   640PRN / # OF OBS
   G03   722   734   741   734   722   722   734   722   734PRN / # OF OBS
   G04   871   876   881   876   871   871   876   871   876PRN / # OF OBS
   G05   794   795   795   795   794   794   795   794   795PRN / # OF OBS
   G06   821   826   840   826   821   821   826   821   826PRN / # OF OBS
   G07   522   525   531   525   522   522   525   522   525PRN / # OF OBS
   G08   821   823   825   823   821   821   823   821   823PRN / # OF OBS
   G09   717   722   733   722   717   717   722   717   722PRN / # OF OBS
   G10   885   891   905   891   885   885   891   885   891PRN / # OF OBS
   G11   710   712   719   712   710   710   712   710   712PRN / # OF OBS
   G13   825   827   835   827   825   825   827   825   827PRN / # OF OBS
   G14   752   760   763   760   752   752   760   752   760PRN / # OF OBS
   G15   853   858   858   858   853   853   858   853   858PRN / # OF OBS
   G16   621   622   628   622   621   621   622   621   622PRN / # OF OBS
   G17   688   693   697   693   688   688   693   688   693PRN / # OF OBS
   G18   681   688   692   688   681   681   688   681   688PRN / # OF OBS
   G19   661   664   669   664   661   661   664   661   664PRN / # OF OBS
   G20   751   752   758   752   751   751   752   751   752PRN / # OF OBS
   G21   745   746   749   746   745   745   746   745   746PRN / # OF OBS
   G22   722   727   729   727   722   722   727   722   727PRN / # OF OBS
   G23   827   827   827   827   827   827   827   827   827PRN / # OF OBS
   G24   857   864   868   864   857   857   864   857   864PRN / # OF OBS
   G25   821   829   847   829   821   821   829   821   829PRN / # OF OBS
   G26   620   624   630   624   620   620   624   620   624PRN / # OF OBS
   G27   704   707   711   707   704   704   707   704   707PRN / # OF OBS
   G28   656   661   663   661   656   656   661   656   661PRN / # OF OBS
   G29   626   627   634   627   626   626   627   626   627PRN / # OF OBS
   G30   820   821   824   821   820   820   821   820   821PRN / # OF OBS
Checked by ROCK 1.0 [29.12.04-00:24]; status 0: file OK     COMMENT
  2004    12    28     0     0    0.0000000     GPS         TIME OF FIRST OBS
  2004    12    28    23    59   30.0000000     GPS         TIME OF LAST OBS
                                                            END OF HEADER
 04 12 28  0  0  0.0000000  0  7G15G 1G11G 3G19G14G22
  -5695195.60843  -4371889.17242  22873212.8374   22873217.2294   22873212.1694
     -1654.0244      -1288.8564         45.0004         41.0004
 -11368235.02343  -8804364.49642  22078608.8934   22078613.6424   22078608.6264
      3066.6414       2389.5904         47.0004         42.0004
  -5474826.42143  -4229570.39642  23804767.8534   23804770.6764   23804767.4984
      2674.3904       2083.9374         41.0004         36.0004
 -22672540.78843 -17630166.12442  20708028.6994   20708032.4514   20708028.4614
     -1343.0964      -1046.5724         50.0004         46.0004
 -20302661.94343 -15774167.62242  20688563.4804   20688564.3434   20688562.6184
       772.7954        602.1714         52.0004         47.0004
 -13428543.46343 -10419451.74742  21327182.3394   21327185.3254   21327181.9594
       212.7414        165.7714         49.0004         44.0004
 -12465968.37643  -9667036.73642  22584602.8764   22584604.7494   22584602.9654
     -2767.6824      -2156.6394         45.0004         41.0004
 04 12 28  0  0 30.0000000  0  7G15G 1G11G 3G19G14G22
  -5645516.02443  -4333177.84642  22882666.5244   22882670.9464   22882665.8654
     -1658.0634      -1291.9934         45.0004         41.0004
 -11460074.29243  -8875927.54242  22061132.4234   22061137.0834   22061132.2204
      3055.9044       2381.2214         47.0004         42.0004
  -5555080.80743  -4292106.25142  23789495.8464   23789498.5964   23789495.4884
      2674.9744       2084.3864         41.0004         36.0004
 -22631986.47343 -17598565.39742  20715745.9194   20715749.7194   20715745.7124
     -1360.6854      -1060.2674         50.0004         46.0004
 -20325579.72243 -15792025.64242  20684202.3324   20684203.2724   20684201.5034
       754.7954        588.1564         52.0004         47.0004
 -13434626.93443 -10424192.11342  21326024.7264   21326027.6834   21326024.3414
       192.5124        150.0124         49.0004         44.0004
 -12382879.85443  -9602292.47442  22600414.2724   22600416.0194   22600414.2384
     -2771.7324      -2159.7864         46.0004         41.0004
 04 12 28  0  1  0.0000000  0  7G15G 1G11G 3G19G14G22
  -5595712.96643  -4294370.29442  22892143.7424   22892148.1854   22892143.0824
     -1661.4594      -1294.6404         45.0004         41.0004
 -11551588.94143  -8947237.64142  22043717.9024   22043722.3874   22043717.6224
      3045.9434       2373.4684         47.0004         42.0004
  -5635336.92743  -4354643.45642  23774223.4174   23774226.3854   23774223.1184
      2676.1714       2085.3304         41.0004         36.0004
 -22590894.77443 -17566545.92742  20723565.4644   20723569.2324   20723565.2514
     -1377.8584      -1073.6314         50.0004         46.0004
 -20347950.41643 -15809457.36442  20679945.3604   20679946.2984   20679944.5204
       737.2974        574.5334         52.0004         47.0004
 -13440098.03443 -10428455.30542  21324983.6334   21324986.5584   21324983.2434
       173.1134        134.9094         49.0004         44.0004
 -12299670.96243  -9537454.42842  22616248.2354   22616250.2294   22616248.2934
     -2774.6924      -2162.0874         45.0004         41.0004
 04 12 28  0  1 30.0000000  0  7G15G 1G11G 3G19G14G22
  -5545785.85343  -4255466.08942  22901644.5574   22901649.0444   22901643.9614
     -1667.7204      -1299.5264         45.0004         40.0004
 -11642775.61943  -9018292.17042  22026365.6084   22026370.1484   22026365.3624
      3032.5124       2362.9964         47.0004         43.0004
  -5715593.94443  -4417181.35942  23758950.8684   23758954.0814   23758950.6844
      2673.7874       2083.4664         41.0004         36.0004
 -22549266.67043 -17534108.48042  20731487.0944   20731490.8244   20731486.8634
     -1398.0514      -1089.3924         50.0004         46.0004
 -20369772.90043 -15826461.90442  20675792.6674   20675793.6284   20675791.8554
       716.6584        558.4264         52.0004         47.0004
 -13444956.27243 -10432240.94142  21324059.0994   21324062.0744   21324058.7384
       150.1804        117.0124         49.0004         44.0004
 -12216343.61843  -9472524.07742  22632105.0234   22632106.9684   22632104.9934
     -2781.1114      -2167.1034         45.0004         41.0004
 04 12 28  0  2  0.0000000  0  7G15G 1G11G 3G19G14G22
  -5495734.08543  -4216464.74442  22911169.0474   22911173.6384   22911168.5644
     -1670.5244      -1301.7084         45.0004         41.0004
 -11733631.17243  -9089088.67542  22009076.3714   22009080.8904   22009076.1364
      3022.9134       2355.5114         47.0004         43.0004
  -5795851.04143  -4479719.33942  23743678.2764   23743681.7344   23743678.1274
      2675.6504       2084.9244         41.0004         36.0004
 -22507103.17343 -17501253.84942  20739510.6084   20739514.3154   20739510.3614
     -1414.3254      -1102.0644         50.0004         46.0004
 -20391045.51043 -15843037.97442  20671744.6524   20671745.5944   20671743.8134
       699.8464        545.3344         52.0004         47.0004
 -13449201.27543 -10435548.73642  21323251.2874   21323254.2324   21323250.9164
       131.2134        102.2424         49.0004         44.0004
 -12132899.42943  -9407502.67842  22647983.9254   22647985.9904   22647983.9694
     -2783.3704      -2168.8604         45.0004         41.0004
 04 12 28  0  2 30.0000000  0  7G15G 1G11G 3G19G14G22
  -5445557.62343  -4177366.23042  22920717.4294   22920721.9434   22920716.8774
     -1674.6004      -1304.8834         45.0004         40.0004
 -11824152.96643  -9159625.11042  21991850.5394   21991855.1704   21991850.3544
      3011.7694       2346.8334         47.0004         43.0004
  -5876107.39443  -4542256.72542  23728406.0604   23728409.5464   23728405.7764
      2675.4174       2084.7474         41.0004         36.0004
 -22464405.84443 -17467983.23442  20747635.6284   20747639.3974   20747635.4014
     -1432.0774      -1115.9124         50.0004         45.0004
 -20411767.36443 -15859184.88242  20667801.4164   20667802.3574   20667800.5874
       681.5504        531.0664         52.0004         47.0004
 -13452832.98043 -10438378.63242  21322560.1934   21322563.1064   21322559.8694
       110.7884         86.3224         49.0004         44.0004
 -12049340.51743  -9342391.89042  22663884.6714   22663886.7474   22663884.7114
     -2787.5354      -2172.1104         45.0004         40.0004
 04 12 28  0  3  0.0000000  0  7G15G 1G11G 3G19G14G22
  -5395255.26243  -4138169.62242  22930289.5504   22930294.2294   22930289.0504
     -1678.2784      -1307.7474         45.0004         40.0004
 -11914337.41643  -9229898.68642  21974689.0304   21974693.6024   21974688.8294
      3000.9424       2338.3894         47.0004         43.0004
  -5956361.83043  -4604792.62442  23713133.9224   23713137.6674   23713133.8264
      2675.6654       2084.9394         41.0004         37.0004
 -22421175.16043 -17434297.02342  20755862.1904   20755865.9664   20755861.9884
     -1449.3384      -1129.3544         50.0004         46.0004
 -20431936.44443 -15874901.06442  20663963.3704   20663964.3304   20663962.5634
       663.6184        517.1144         52.0004         47.0004
 -13455850.75943 -10440730.13942  21321985.9434   21321988.8464   21321985.6174
        90.9534         70.8814         49.0004         45.0004
 -11965668.39943  -9277192.88542  22679807.0394   22679809.1164   22679807.1344
     -2790.3644      -2174.3084         45.0004         41.0004
 04 12 28  0  3 30.0000000  0  7G15G 1G11G 3G19G14G22
  -5344826.98443  -4098874.88542  22939885.7264   22939890.3954   22939885.2784
     -1683.7934      -1312.0444         45.0004         40.0004
 -12004182.01743  -9299907.44442  21957592.1914   21957596.6944   21957591.9434
      2988.5704       2328.7374         47.0004         43.0004
  -6036613.93643  -4667326.69642  23697862.5004   23697866.1344   23697862.3914
      2674.3664       2083.9194         41.0004         36.0004
 -22377412.88543 -17400196.58742  20764189.9464   20764193.6714   20764189.7054
     -1468.2404      -1144.0974         50.0004         46.0004
 -20451552.13643 -15890186.02642  20660230.6084   20660231.5904   20660229.8124
       644.0464        501.8424         52.0004         47.0004
 -13458254.69643 -10442603.33442  21321528.4734   21321531.3834   21321528.1174
        69.1674         53.8814         49.0004         44.0004
 -11881885.39143  -9211907.48242  22695750.4574   22695752.5444   22695750.5194
     -2795.1864      -2178.0584         45.0004         41.0004
 04 12 28  0  4  0.0000000  0  7G15G 1G11G 3G19G14G22
  -5294272.55743  -4059481.85342  22949506.0724   22949510.5994   22949505.4994
     -1687.2854      -1314.7644         45.0004         40.0004
 -12093683.86343  -9369649.11242  21940560.5184   21940565.0424   21940560.2674
      2977.7644       2320.3434         47.0004         43.0004
  -6116862.87343  -4729858.29742  23682591.7994   23682595.1784   23682591.6944
      2675.0794       2084.4824         41.0004         37.0004
 -22333120.17043 -17365682.82042  20772618.6124   20772622.3294   20772618.3594
     -1485.1824      -1157.2764         50.0004         45.0004
 -20470613.35743 -15905038.93742  20656603.4334   20656604.3724   20656602.6054
       626.2104        487.9554         52.0004         47.0004
 -13460044.72843 -10443998.16242  21321187.7974   21321190.7244   21321187.4394
        49.4824         38.5724         49.0004         44.0004
 -11797993.55843  -9146537.28242  22711714.5044   22711716.7394   22711714.5624
     -2797.9494      -2180.2184         45.0004         40.0004
 04 12 28  0  4 30.0000000  0  7G15G 1G11G 3G19G14G22
  -5243590.96043  -4019989.73042  22959150.4074   22959154.9924   22959149.8364
     -1691.3084      -1317.8984         45.0004         40.0004
 -12182839.55843  -9439121.06042  21923594.7294   21923599.2974   21923594.4664
      2966.1834       2311.3044         47.0004         43.0004
  -6197107.56943  -4792386.60542  23667321.7774   23667324.9794   23667321.7434
      2674.6564       2084.1454         41.0004         37.0004
 -22288297.71443 -17330756.25842  20781148.0404   20781151.7554   20781147.8144
     -1502.6364      -1170.8894         50.0004         45.0004
 -20489118.28343 -15919458.36842  20653082.1074   20653082.9844   20653081.2504
       607.7724        473.5874         52.0004         47.0004
 -13461220.37543 -10444914.24042  21320964.0834   21320967.0154   21320963.7174
        29.1054         22.6824         49.0004         45.0004
 -11713993.96943  -9081083.08942  22727699.2494   22727701.3814   22727699.1984
     -2801.6134      -2183.0734         45.0004         41.0004
 04 12 28  0  5  0.0000000  0  7G15G 1G11G 3G19G14G22
  -5192782.22743  -3980398.54242  22968818.9094   22968823.6344   22968818.3984
     -1696.3674      -1321.8454         45.0004         40.0004
 -12271646.33643  -9508321.12142  21906695.4584   21906699.9214   21906695.1004
      2953.7004       2301.5884         47.0004         43.0004
  -6277347.80843  -4854911.43542  23652052.4824   23652055.7554   23652052.3934
      2673.9874       2083.6174         41.0004         37.0004
 -22242947.24343 -17295418.25242  20789777.9494   20789781.6584   20789777.7514
     -1521.0664      -1185.2544         50.0004         45.0004
 -20507066.12643 -15933443.70842  20649666.7044   20649667.6134   20649665.8854
       588.3834        458.4764         52.0004         47.0004
 -13461781.52243 -10445351.49042  21320857.3094   21320860.2254   21320856.9554
         7.7504          6.0314         49.0004         45.0004
 -11629889.04743  -9015546.82242  22743703.7744   22743706.0544   22743703.7524
     -2805.9754      -2186.4784         45.0004         40.0004
 04 12 28  0  5 30.0000000  0  7G15G 1G11G 3G19G14G22
  -5141845.80943  -3940707.86042  22978511.8304   22978516.5274   22978511.2814
     -1700.1164      -1324.7634         45.0004         40.0004
 -12360101.06743  -9577246.85742  21889862.9744   21889867.5284   21889862.6774
      2942.4824       2292.8524         47.0004         43.0004
  -6357582.34743  -4917431.81942  23636784.2764   23636787.4334   23636784.1164
      2674.4034       2083.9444         41.0004         37.0004
 -22197069.98543 -17259669.76442  20798508.1964   20798511.8444   20798507.9544
     -1538.1294      -1198.5344         50.0004         45.0004
 -20524455.77543 -15946994.09042  20646357.5774   20646358.5014   20646356.7424
       570.3724        444.4534         52.0004         47.0004
 -13461728.09443 -10445309.86242  21320867.4124   21320870.3704   21320867.0964
       -12.2154         -9.5134         49.0004         44.0004
 -11545680.65143  -8949929.93442  22759728.1224   22759730.3864   22759728.1134
     -2808.8974      -2188.7494         45.0004         40.0004
 04 12 28  0  6  0.0000000  0  7G15G 1G11G 3G19G14G22
  -5090780.62943  -3900916.84142  22988229.2464   22988233.9754   22988228.6334
     -1704.5784      -1328.2464         45.0004         40.0004
 -12448200.35543  -9645895.63442  21873098.2394   21873102.7314   21873097.9014
      2930.4114       2283.4424         47.0004         43.0004
  -6437809.85443  -4979946.73042  23621517.3904   23621520.6984   23621517.3754
      2673.9534       2083.6054         42.0004         37.0004
 -22150666.52743 -17223511.24442  20807338.4694   20807342.1864   20807338.2594
     -1555.8554      -1212.3474         50.0004         45.0004
 -20541285.42043 -15960108.11142  20643154.9524   20643155.9474   20643154.1444
       551.4974        429.7334         52.0004         47.0004
 -13461059.62043 -10444788.97242  21320994.5404   21320997.5504   21320994.2284
       -32.8104        -25.5684         49.0004         44.0004
 -11461370.01743  -8884233.36742  22775771.9654   22775774.1374   22775771.9934
     -2812.4034      -2191.4854         45.0004         40.0004
 04 12 28  0  6 30.0000000  0  7G15G 1G11G 3G19G14G22
  -5039587.07543  -3861025.79542  22997971.1274   22997975.8644   22997970.4974
     -1708.5434      -1331.3284         45.0004         40.0004
 -12535941.93043  -9714265.67042  21856401.4944   21856406.0434   21856401.1804
      2919.0524       2274.5854         47.0004         43.0004
  -6518030.06243  -5042455.93142  23606252.0094   23606255.4234   23606251.9974
      2673.8324       2083.4994         42.0004         37.0004
 -22103739.10043 -17186944.44442  20816268.4704   20816272.2174   20816268.2524
     -1572.8844      -1225.6164         50.0004         45.0004
 -20557554.62843 -15972785.42842  20640059.0414   20640060.0434   20640058.2324
       532.9614        415.2944         52.0004         47.0004
 -13459776.58043 -10443789.20642  21321238.7634   21321241.7664   21321238.4044
       -52.7954        -41.1364         49.0004         45.0004
 -11376959.60943  -8818459.06942  22791834.6974   22791836.9194   22791834.7644
     -2815.2494      -2193.6994         45.0004         40.0004
 04 12 28  0  7  0.0000000  0  7G15G 1G11G 3G19G14G22
  -4988264.41543  -3821034.14142  23007737.4764   23007742.2794   23007736.8804
     -1712.6044      -1334.4964         45.0004         40.0004
 -12623322.52743  -9782354.42542  21839773.4914   21839778.0614   21839773.1464
      2906.7294       2264.9854         47.0004         43.0004
  -6598242.17543  -5104958.85642  23590988.2734   23590991.6374   23590988.2764
      2673.6454       2083.3654         42.0004         37.0004
 -22056288.65943 -17149970.09842  20825297.9644   20825301.7244   20825297.7574
     -1590.3074      -1239.1834         50.0004         45.0004
 -20573262.16943 -15985025.07742  20637069.9844   20637071.0054   20637069.1854
       514.4164        400.8574         52.0004         47.0004
 -13457878.80943 -10442310.41642  21321599.8844   21321602.9044   21321599.5844
       -73.3524        -57.1684         49.0004         44.0004
 -11292451.28143  -8752608.45342  22807916.2124   22807918.1774   22807916.1724
     -2818.3514      -2196.1224         45.0004         40.0004
 04 12 28  0  7 30.0000000  0  7G15G 1G11G 3G19G14G22
  -4936812.26343  -3780941.59542  23017528.5394   23017533.3494   23017527.9604
     -1717.0394      -1337.9474         45.0004         40.0004
 -12710339.41143  -9850159.77142  21823214.7044   21823219.3054   21823214.3524
      2894.7644       2255.6564         47.0004         43.0004
  -6678445.49243  -5167454.92442  23575726.2164   23575729.5004   23575726.0234
      2673.7894       2083.4774         42.0004         37.0004
 -22008316.83343 -17112589.47142  20834426.6774   20834430.5024   20834426.4984
     -1607.4164      -1252.5274         50.0004         45.0004
 -20588407.23143 -15996826.43342  20634187.9774   20634188.9784   20634187.1684
       495.7644        386.3094         52.0004         47.0004
 -13455366.33343 -10440352.63242  21322077.9774   21322081.0034   21322077.6954
       -93.7674        -73.0694         49.0004         44.0004
 -11207846.84143  -8686682.96242  22824015.9514   22824017.9994   22824015.9134
     -2821.3474      -2198.4534         45.0004         40.0004
 04 12 28  0  8  0.0000000  0  7G15G 1G11G 3G19G14G22
  -4885229.95643  -3740747.63342  23027344.4324   23027349.1864   23027343.7494
     -1721.6254      -1341.5204         45.0004         40.0004
 -12796989.34043  -9917679.17342  21806725.7644   21806730.3694   21806725.3674
      2882.1194       2245.8094         47.0004         43.0004
  -6758638.78843  -5229943.15942  23560465.9134   23560469.1654   23560465.9514
      2672.7044       2082.6374         42.0004         38.0004
 -21959824.67543 -17074803.40942  20843654.3544   20843658.3054   20843654.2034
     -1625.0814      -1266.2734         50.0004         45.0004
 -20602988.34243 -16008188.34542  20631413.3204   20631414.3044   20631412.5084
       476.6494        371.4244         52.0004         47.0004
 -13452239.02443 -10437915.77542  21322673.0754   21322676.1104   21322672.8174
      -114.4584        -89.1774         49.0004         44.0004
 -11123147.82343  -8620683.78542  22840133.8084   22840135.7244   22840133.7564
     -2824.8664      -2201.1974         45.0004         40.0004
 04 12 28  0  8 30.0000000  0  7G15G 1G11G 3G19G14G22
  -4833517.12443  -3700451.96742  23037185.0904   23037189.8244   23037184.3734
     -1726.0774      -1344.9964         45.0004         40.0004
 -12883269.21743  -9984910.22142  21790307.2204   21790311.8754   21790306.8304
      2869.4534       2235.9464         48.0004         43.0004
  -6838820.92743  -5292422.70842  23545208.0094   23545211.1494   23545207.8254
      2671.9754       2082.0594         42.0004         38.0004
 -21910813.58343 -17036612.97742  20852980.8574   20852984.8664   20852980.6994
     -1642.6424      -1279.9894         50.0004         45.0004
 -20617004.40943 -16019109.95842  20628746.1524   20628747.1654   20628745.3624
       457.4334        356.4344         52.0004         47.0004
 -13448497.03943 -10434999.93342  21323385.1864   21323388.2064   21323384.9154
      -135.1724       -105.3434         49.0004         44.0004
 -11038356.03643  -8554612.32242  22856269.1444   22856271.1574   22856269.1414
     -2828.0664      -2203.6814         45.0004         40.0004
 04 12 28  0  9  0.0000000  0  7G15G 1G11G 3G19G14G22
  -4781673.65543  -3660054.50942  23047050.6514   23047055.1834   23047049.9784
     -1729.6924      -1347.8114         45.0004         40.0004
 -12969176.61643 -10051851.04242  21773959.4454   21773964.2234   21773959.1334
      2857.6834       2226.7654         48.0004         43.0004
  -6918991.60143  -5354893.32842  23529951.9274   23529955.2334   23529951.8694
      2672.6414       2082.5834         42.0004         38.0004
 -21861285.42843 -16998019.64042  20862405.7654   20862409.7664   20862405.6344
     -1659.0574      -1292.7654         50.0004         45.0004
 -20630454.94743 -16029590.90642  20626186.5834   20626187.6044   20626185.8054
       439.4294        342.4164         52.0004         47.0004
 -13444140.89243 -10431605.53142  21324214.1384   21324217.1914   21324213.8194
      -154.8704       -120.6794         49.0004         44.0004
 -10953473.42443  -8488470.06242  22872421.9054   22872423.8624   22872421.7974
     -2830.5384      -2205.6174         45.0004         40.0004
 04 12 28  0  9 30.0000000  0  7G15G 1G11G 3G19G14G22
  -4729698.31243  -3619554.30142  23056941.2214   23056945.8044   23056940.6324
     -1734.3524      -1351.4334         45.0004         40.0004
 -13054707.89843 -10118498.78542  21757683.3774   21757688.1054   21757683.0824
      2845.0914       2216.9514         48.0004         43.0004
  -6999149.17743  -5417353.77242  23514698.4454   23514701.5634   23514698.3044
      2671.7184       2081.8604         42.0004         38.0004
 -21811240.90043 -16959023.94642  20871928.9924   20871932.9194   20871928.8404
     -1676.4594      -1306.3274         50.0004         45.0004
 -20643338.26743 -16039629.86642  20623735.0184   20623735.9904   20623734.2294
       420.3864        327.5854         52.0004         48.0004
 -13439169.67243 -10427731.85942  21325160.2224   21325163.1594   21325159.8504
      -175.6674       -136.8744         49.0004         44.0004
 -10868501.24843  -8422258.04442  22888591.6134   22888593.5754   22888591.5304
     -2833.4904      -2207.9084         44.0004         40.0004
 04 12 28  0 10  0.0000000  0  7G15G 1G11G 3G19G14G22
  -4677591.24643  -3578951.46742  23066856.9624   23066861.5474   23066856.3024
     -1739.6794      -1355.5834         45.0004         40.0004
 -13139860.77243 -10184851.68142  21741479.2724   21741484.0104   21741479.0454
      2831.8004       2206.6014         48.0004         43.0004
  -7079293.41743  -5479803.81942  23499447.5844   23499450.6104   23499447.5064
      2670.6354       2081.0194         43.0004         38.0004
 -21760681.92543 -16919627.38242  20881550.0104   20881554.0154   20881549.8724
     -1694.2424      -1320.1774         49.0004         45.0004
 -20655653.86243 -16049226.45242  20621391.4674   20621392.4324   20621390.6504
       400.7174        312.2544         52.0004         48.0004
 -13433584.24143 -10423379.57742  21326223.0664   21326226.0154   21326222.7114
      -196.6774       -153.2494         49.0004         44.0004
 -10783442.01243  -8355978.16842  22904777.8944   22904779.8914   22904777.8054
     -2837.0554      -2210.6864         44.0004         40.0004
 04 12 28  0 10 30.0000000  0  7G15G 1G11G 3G19G14G22
  -4625351.64143  -3538245.33642  23076797.8094   23076802.4394   23076797.1784
     -1743.8274      -1358.8274         45.0004         40.0004
 -13224632.07443 -10250907.23342  21725347.9384   21725352.5404   21725347.6404
      2819.1954       2196.7664         48.0004         43.0004
  -7159423.07743  -5542242.49742  23484199.3054   23484202.4794   23484199.3384
      2670.6354       2081.0214         43.0004         38.0004
 -21709609.68843 -16879830.87442  20891268.7524   20891272.7954   20891268.6194
     -1710.9994      -1333.2574         49.0004         45.0004
 -20667400.50143 -16058379.68642  20619156.1554   20619157.1214   20619155.3394
       381.9184        297.5984         52.0004         48.0004
 -13427384.57843 -10418548.68142  21327402.8184   21327405.7724   21327402.4904
      -217.0944       -169.1604         49.0004         44.0004
 -10698296.76343  -8289631.27842  22920980.5194   22920982.5004   22920980.4004
     -2839.7494      -2212.7934         44.0004         40.0004
 04 12 28  0 11  0.0000000  0  7G15G 1G11G 3G19G14G22
  -4572979.04643  -3497435.57142  23086763.9574   23086768.6834   23086763.4424
     -1747.6424      -1361.7964         45.0004         40.0004
 -13309018.68843 -10316663.02942  21709289.6774   21709294.2764   21709289.4244
      2806.6464       2186.9964         48.0004         43.0004
  -7239537.03243  -5604668.93542  23468954.0764   23468957.1834   23468954.0364
      2670.3204       2080.7704         43.0004         38.0004
 -21658025.61743 -16839635.53742  20901084.9144   20901088.9484   20901084.7284
     -1727.8844      -1346.4064         49.0004         45.0004
 -20678577.13943 -16067088.76242  20617029.3614   20617030.2954   20617028.5264
       363.1534        282.9794         52.0004         48.0004
 -13420570.70943 -10413239.16742  21328699.4854   21328702.4234   21328699.1884
      -237.1984       -184.8394         49.0004         44.0004
 -10613067.49243  -8223218.90242  22937199.1514   22937201.0914   22937199.0844
     -2842.1974      -2214.6994         44.0004         40.0004
 04 12 28  0 11 30.0000000  0  7G15G 1G11G 3G19G14G22
  -4520472.65643  -3456521.54242  23096755.4954   23096760.4224   23096754.9454
     -1752.0494      -1365.2314         44.0004         40.0004
 -13393017.54543 -10382116.67542  21693305.2774   21693309.8264   21693305.0094
      2793.7464       2176.9474         48.0004         43.0004
  -7319634.00243  -5667082.13442  23453712.1304   23453715.1254   23453712.1404
      2670.0524       2080.5594         43.0004         38.0004
 -21605930.92743 -16799042.30542  20910998.2484   20911002.3004   20910998.0804
     -1744.6744      -1359.4634         49.0004         45.0004
 -20689182.70143 -16075352.84142  20615011.1924   20615012.1604   20615010.3714
       344.2984        268.2884         52.0004         48.0004
 -13413142.42043 -10407450.88642  21330113.0404   21330116.0184   21330112.7394
      -257.4264       -200.6044         49.0004         44.0004
 -10527755.56743  -8156742.14342  22953433.3764   22953435.4684   22953433.3994
     -2844.6804      -2216.6334         44.0004         40.0004
 04 12 28  0 12  0.0000000  0  7G15G 1G11G 3G19G14G22
  -4467833.13843  -3415503.78242  23106772.4974   23106777.4264   23106771.9424
     -1757.3704      -1369.3794         45.0004         40.0004
 -13476626.81143 -10447266.73442  21677395.0114   21677399.4334   21677394.7274
      2780.0654       2166.2864         48.0004         44.0004
  -7399714.25943  -5729482.28842  23438473.2544   23438476.2884   23438473.2724
      2668.6994       2079.5014         43.0004         38.0004
 -21553328.52143 -16758053.45042  20921008.2364   20921012.2634   20921008.0564
     -1762.3274      -1373.2494         50.0004         45.0004
 -20699217.48143 -16083172.15742  20613101.6324   20613102.5984   20613100.8314
       324.6384        252.9674         52.0004         48.0004
 -13405101.30043 -10401185.06642  21331643.1684   21331646.1714   21331642.8584
      -278.7664       -217.2264         49.0004         44.0004
 -10442363.84743  -8090203.17342  22969682.9004   22969685.0744   22969683.0114
     -2848.1464      -2219.3364         45.0004         40.0004
 04 12 28  0 12 30.0000000  0  7G15G 1G11G 3G19G14G22
  -4415058.95143  -3374381.08742  23116815.3234   23116820.1014   23116814.6664
     -1761.6604      -1372.7354         45.0004         40.0004
 -13559842.55343 -10512110.14742  21661559.6334   21661564.0434   21661559.3624
      2766.8844       2155.9954         48.0004         44.0004
  -7479775.84443  -5791867.90242  23423238.1004   23423241.1184   23423237.9704
      2667.8004       2078.7974         43.0004         38.0004
 -21500218.53043 -16716669.06842  20931114.7374   20931118.8024   20931114.5644
     -1779.1354      -1386.3454         49.0004         45.0004
 -20708679.19043 -16090544.92342  20611301.1224   20611302.1044   20611300.3114
       305.5874        238.0984         52.0004         48.0004
 -13396446.26043 -10394440.86642  21333290.1914   21333293.1514   21333289.8784
      -298.9314       -232.9514         49.0004         44.0004
 -10356892.76543  -8023602.36342  22985947.6264   22985949.7334   22985947.6504
     -2850.6694      -2221.2984         45.0004         40.0004
 04 12 28  0 13  0.0000000  0  7G15G 1G11G 3G19G14G22
  -4362150.61543  -3333153.84042  23126883.4504   23126888.2594   23126882.8534
     -1765.7784      -1375.9364         45.0004         40.0004
 -13642662.77243 -10576645.36542  21645799.5004   21645803.8614   21645799.1784
      2754.2414       2146.1564         48.0004         44.0004
  -7559818.43343  -5854238.71342  23408006.5394   23408009.6044   23408006.4144
      2667.6854       2078.7074         43.0004         38.0004
 -21446603.66843 -16674891.29042  20941317.3694   20941321.3894   20941317.1994
     -1795.5374      -1399.1204         49.0004         45.0004
 -20717568.31743 -16097471.52542  20609609.4524   20609610.5584   20609608.7344
       286.8104        223.4884         52.0004         48.0004
 -13387178.75943 -10387219.42342  21335053.7064   21335056.6764   21335053.4114
      -319.1104       -248.6594         49.0004         44.0004
 -10271345.10743  -7956941.88442  23002226.9364   23002228.9154   23002226.9334
     -2852.7304      -2222.9084         44.0004         40.0004
 04 12 28  0 13 30.0000000  0  7G15G 1G11G 3G19G14G22
  -4309107.02643  -3291821.22242  23136977.3094   23136982.1994   23136976.7194
     -1771.0514      -1380.0384         45.0004         40.0004
 -13725083.94443 -10640869.63942  21630115.2024   21630119.6344   21630114.9514
      2740.1014       2135.1354         48.0004         44.0004
  -7639840.96243  -5916593.91042  23392778.6954   23392781.7934   23392778.7514
      2666.6144       2077.8764         43.0004         38.0004
 -21392484.56343 -16632720.59042  20951615.9794   20951619.9324   20951615.7614
     -1813.0344      -1412.7674         49.0004         45.0004
 -20725883.51343 -16103950.91342  20608027.2034   20608028.2504   20608026.4344
       266.9934        208.0334         52.0004         48.0004
 -13377298.42443 -10379520.44542  21336933.8424   21336936.8314   21336933.5374
      -340.2674       -265.1474         49.0004         44.0004
 -10185721.79943  -7890222.48042  23018520.6014   23018522.5954   23018520.6224
     -2855.8454      -2225.3324         44.0004         40.0004
 04 12 28  0 14  0.0000000  0  7G15G 1G11G 3G19G14G22
  -4255928.07343  -3250383.12742  23147096.9974   23147101.8394   23147096.4474
     -1775.1374      -1383.2234         45.0004         40.0004
 -13807103.69543 -10704781.10442  21614507.4034   21614511.7794   21614507.1174
      2726.9964       2124.9534         48.0004         44.0004
  -7719842.18543  -5978932.49442  23377555.1434   23377558.1254   23377555.0104
      2666.0584       2077.4554         43.0004         38.0004
 -21337863.45643 -16590158.72242  20962010.0364   20962014.0534   20962009.8354
     -1829.4714      -1425.5434         49.0004         45.0004
 -20733623.99443 -16109982.47042  20606554.2684   20606555.3184   20606553.4724
       248.1154        193.3504         52.0004         48.0004
 -13366806.02943 -10371344.54042  21338930.4084   21338933.4644   21338930.1164
      -360.3034       -280.7444         49.0004         44.0004
 -10100025.08843  -7823445.86642  23034828.3114   23034830.2004   23034828.2744
     -2858.0864      -2227.0804         45.0004         40.0004
 04 12 28  0 14 30.0000000  0  7G15G 1G11G 3G19G14G22
  -4202612.35543  -3208838.45542  23157242.6714   23157247.5054   23157242.1264
     -1778.8614      -1386.1224         44.0004         40.0004
 -13888718.30143 -10768376.86942  21598976.6484   21598981.0504   21598976.3154
      2714.2224       2114.9834         49.0004         44.0004
  -7799820.47743  -6041253.19642  23362335.6464   23362338.7364   23362335.4984
      2666.0954       2077.4784         43.0004         38.0004
 -21282741.02343 -16547206.20942  20972499.5324   20972503.5294   20972499.3414
     -1845.1754      -1437.7974         49.0004         45.0004
 -20740788.02643 -16115564.84642  20605191.0094   20605192.0374   20605190.2284
       229.7174        179.0154         52.0004         48.0004
 -13355700.97843 -10362691.24542  21341043.5704   21341046.6774   21341043.3294
      -379.8414       -295.9764         49.0004         44.0004
 -10014255.65243  -7756612.57742  23051149.7854   23051151.6164   23051149.6714
     -2859.7184      -2228.3564         44.0004         40.0004
                            4  1
RINEX FILE SPLICE; other post-header comments skipped       COMMENT
 04 12 28  0 15  0.0000000  0  7G15G 1G11G 3G19G14G22
  -4149160.06443  -3167187.36142  23167414.3004   23167419.2524   23167413.7284
     -1783.6404      -1389.8484         44.0004         40.0004
 -13969925.51943 -10831655.21442  21583523.4134   21583527.7994   21583523.0984
      2700.2804       2104.1104         49.0004         44.0004
  -7879775.35543  -6103555.68442  23347120.6244   23347123.7684   23347120.5684
      2665.1514       2076.7354         43.0004         38.0004
 -21227119.62643 -16503864.88842  20983083.9544   20983087.9574   20983083.7564
     -1862.1684      -1451.0364         49.0004         45.0004
 -20747375.83543 -16120698.22342  20603937.4044   20603938.4114   20603936.6224
       210.1844        163.7804         52.0004         48.0004
 -13343984.13043 -10353561.20842  21343273.1954   21343276.3094   21343272.9314
      -400.5974       -312.1634         49.0004         44.0004
  -9928415.73343  -7689724.34642  23067484.5444   23067486.3314   23067484.3814
     -2862.2294      -2230.3174         44.0004         39.0004
 04 12 28  0 15 30.0000000  0  7G15G 1G11G 3G19G14G22
  -4095571.25943  -3125429.91042  23177611.9234   23177616.8544   23177611.3944
     -1788.5384      -1393.6584         44.0004         39.0004
 -14050723.07943 -10894614.32842  21568148.1844   21568152.5264   21568147.8684
      2686.6924       2093.5284         49.0004         44.0004
  -7959706.20443  -6165839.42442  23331910.1774   23331913.4374   23331910.1914
      2664.2544       2076.0494         43.0004         39.0004
 -21171001.28543 -16460136.34842  20993762.8744   20993766.9834   20993762.7374
     -1878.6274      -1463.8574         49.0004         45.0004
 -20753386.95043 -16125382.22342  20602793.4864   20602794.5374   20602792.7524
       191.1794        148.9794         52.0004         48.0004
 -13331656.55343 -10343955.29442  21345619.0034   21345622.1994   21345618.7544
      -420.8984       -327.9564         49.0004         44.0004
  -9842507.51443  -7622782.94142  23083832.3184   23083834.1624   23083832.2474
     -2864.2694      -2231.8954         44.0004         40.0004
 04 12 28  0 16  0.0000000  0  7G15G 1G11G 3G19G14G22
  -4041844.39243  -3083564.88342  23187835.9404   23187840.7524   23187835.3014
     -1792.9354      -1397.0904         44.0004         39.0004
 -14131107.06643 -10957251.17942  21552851.5574   21552855.9644   21552851.2954
      2672.9064       2082.7964         49.0004         44.0004
  -8039611.25943  -6228103.07342  23316704.7924   23316708.0334   23316704.8014
      2663.4744       2075.4414         43.0004         38.0004
 -21114386.52043 -16416020.97342  21004536.3844   21004540.4114   21004536.1964
     -1895.0234      -1476.6414         49.0004         45.0004
 -20758819.49243 -16129615.38342  20601759.6824   20601760.7984   20601758.9374
       171.8894        133.9434         52.0004         48.0004
 -13318717.69043 -10333873.05342  21348081.2534   21348084.3774   21348080.9444
      -440.8744       -343.5504         49.0004         44.0004
  -9756531.51743  -7555788.70542  23100193.1534   23100194.9154   23100193.1114
     -2866.4854      -2233.6274         44.0004         40.0004
 04 12 28  0 16 30.0000000  0  7G15G 1G11G 3G19G14G22
  -3987980.37043  -3041592.96542  23198085.9384   23198090.6964   23198085.3684
     -1797.1534      -1400.3774         44.0004         39.0004
 -14211075.76443 -11019564.43942  21537633.9824   21537638.3874   21537633.7024
      2659.4264       2072.2924         49.0004         44.0004
  -8119490.39943  -6290346.53742  23301504.3394   23301507.4264   23301504.2694
      2662.8024       2074.9214         43.0004         38.0004
 -21057278.19443 -16371521.01542  21015403.7404   21015407.7964   21015403.5734
     -1911.0504      -1489.1164         49.0004         45.0004
 -20763674.17543 -16133398.27342  20600835.8994   20600837.0064   20600835.1414
       152.9104        119.1564         52.0004         48.0004
 -13305169.04443 -10323315.66342  21350659.4714   21350662.6024   21350659.1694
      -461.0904       -359.3024         49.0004         44.0004
  -9670490.35043  -7488743.70042  23116566.3514   23116568.0934   23116566.2344
     -2868.2734      -2235.0164         44.0004         39.0004
 04 12 28  0 17  0.0000000  0  7G15G 1G11G 3G19G14G22
  -3933978.25143  -2999513.44342  23208362.2054   23208366.9524   23208361.6944
     -1802.3134      -1404.3984         44.0004         39.0004
 -14290626.22643 -11081551.78642  21522495.9744   21522500.4234   21522495.6884
      2644.4914       2060.6314         49.0004         44.0004
  -8199342.30643  -6352568.78042  23286309.1614   23286312.0654   23286309.0164
      2661.0684       2073.5594         43.0004         39.0004
 -20999677.69043 -16326637.53342  21026364.8204   21026368.8474   21026364.6224
     -1928.3494      -1502.5944         49.0004         45.0004
 -20767949.95243 -16136730.06042  20600022.2804   20600023.3574   20600021.5304
       132.7244        103.4284         52.0004         48.0004
 -13291010.93443 -10312283.35942  21353353.6984   21353356.7424   21353353.3584
      -482.2514       -375.7884         49.0004         44.0004
  -9584385.37443  -7421648.93542  23132951.5374   23132953.3984   23132951.4554
     -2871.5564      -2237.5734         44.0004         39.0004
 04 12 28  0 17 30.0000000  0  7G15G 1G11G 3G19G14G22
  -3879837.14443  -2957325.64342  23218665.0324   23218669.6784   23218664.4594
     -1807.2664      -1408.2624         44.0004         39.0004
 -14369755.22243 -11143210.72342  21507438.1734   21507442.6704   21507437.8804
      2630.2554       2049.5474         49.0004         44.0004
  -8279165.51643  -6414768.66342  23271119.3924   23271122.0754   23271119.2454
      2660.0924       2072.7984         43.0004         39.0004
 -20941586.45243 -16281371.67342  21037419.2094   21037423.2534   21037419.0064
     -1944.9474      -1515.5514         49.0004         45.0004
 -20771645.67943 -16139609.86242  20599319.0274   20599320.0974   20599318.2574
       113.1924         88.2064         52.0004         48.0004
 -13276243.52843 -10300776.28442  21356163.8474   21356166.8604   21356163.4674
      -502.7454       -391.7434         49.0004         44.0004
  -9498218.05343  -7354505.60642  23149348.7624   23149350.5064   23149348.6154
     -2873.9624      -2239.4544         44.0004         40.0004
 04 12 28  0 18  0.0000000  0  7G15G 1G11G 3G19G14G22
  -3825556.91043  -2915029.42042  23228994.1594   23228998.8644   23228993.6194
     -1811.3644      -1411.4534         44.0004         39.0004
 -14448460.22743 -11204539.27642  21492461.1164   21492465.6364   21492460.7814
      2616.6314       2038.9254         49.0004         44.0004
  -8358958.95543  -6476945.32442  23255935.1414   23255937.9394   23255935.0014
      2659.3954       2072.2554         43.0004         39.0004
 -20883006.70243 -16235725.15442  21048566.6104   21048570.6404   21048566.3924
     -1960.5994      -1527.7434         49.0004         44.0004
 -20774761.26143 -16142037.60242  20598726.1994   20598727.2324   20598725.3804
        94.2174         73.4174         52.0004         48.0004
 -13260867.43943 -10288794.91042  21359089.7704   21359092.8274   21359089.3914
      -522.6954       -407.3134         49.0004         44.0004
  -9411990.27943  -7287315.18442  23165757.3024   23165759.1884   23165757.2254
     -2874.9664      -2240.2344         44.0004         40.0004
 04 12 28  0 18 30.0000000  0  7G15G 1G11G 3G19G14G22
  -3771137.18743  -2872624.50442  23239349.9354   23239354.6554   23239349.4504
     -1815.8244      -1414.9234         44.0004         39.0004
 -14526738.45343 -11265535.27442  21477565.1124   21477569.7724   21477564.8894
      2602.4414       2027.8914         49.0004         44.0004
  -8438722.21443  -6539098.49242  23240756.5784   23240759.5554   23240756.5124
      2658.5954       2071.6304         43.0004         39.0004
 -20823940.12943 -16189699.29342  21059806.6264   21059810.6734   21059806.3904
     -1976.5934      -1540.1774         49.0004         45.0004
 -20777295.95443 -16144012.70442  20598243.8474   20598244.8994   20598243.0314
        75.3294         58.6984         52.0004         48.0004
 -13244883.54743 -10276339.92742  21362131.4114   21362134.5254   21362131.0264
      -542.6224       -422.8164         49.0004         44.0004
  -9325703.58043  -7220078.85942  23182177.0134   23182178.9944   23182176.9094
     -2876.7094      -2241.5814         44.0004         39.0004
 04 12 28  0 19  0.0000000  0  7G15G 1G11G 3G19G14G22
  -3716577.43043  -2830110.46842  23249732.3204   23249737.1574   23249731.8874
     -1820.9334      -1418.9084         44.0004         39.0004
 -14604587.20643 -11326196.62342  21462751.0444   21462755.6264   21462750.7534
      2587.9364       2016.5894         49.0004         44.0004
  -8518453.81543  -6601226.99842  23225584.2094   23225586.9874   23225583.9764
      2657.1314       2070.4864         43.0004         38.0004
 -20764388.37943 -16143295.36342  21071138.9794   21071143.0584   21071138.7584
     -1992.7794      -1552.8144         49.0004         45.0004
 -20779249.28443 -16145534.79442  20597872.1564   20597873.2244   20597871.3304
        55.5814         43.3104         52.0004         48.0004
 -13228292.20243 -10263411.60142  21365288.5874   21365291.7354   21365288.2404
      -562.8414       -438.5744         49.0004         44.0004
  -9239359.38143  -7152797.71442  23198607.8234   23198609.7244   23198607.6544
     -2878.9944      -2243.3684         44.0004         39.0004
 04 12 28  0 19 30.0000000  0  7G15G 1G11G 3G19G14G22
  -3661876.99043  -2787486.81542  23260141.5214   23260146.5574   23260141.0534
     -1825.4184      -1422.4044         44.0004         39.0004
 -14682003.62143 -11386521.07942  21448019.1644   21448023.7174   21448018.8584
      2573.6644       2005.4504         49.0004         44.0004
  -8598152.37143  -6663329.73942  23210417.9684   23210420.8304   23210417.7284
      2656.6234       2070.0904         43.0004         39.0004
 -20704353.03643 -16096514.62642  21082563.3674   21082567.4164   21082563.1334
     -2008.9584      -1565.4154         49.0004         44.0004
 -20780620.44043 -16146603.24442  20597611.2694   20597612.3074   20597610.4234
        36.3664         28.3394         52.0004         48.0004
 -13211094.06843 -10250010.45142  21368561.3244   21368564.4014   21368560.9784
      -582.9574       -454.2554         49.0004         44.0004
  -9152959.17343  -7085472.92642  23215049.3044   23215051.1694   23215049.1524
     -2880.2024      -2244.3114         44.0004         39.0004
 04 12 28  0 20  0.0000000  0  7G15G 1G11G 3G19G14G22
  -3607035.86443  -2744753.52742  23270577.6394   23270582.4834   23270577.0114
     -1830.2174      -1426.1404         44.0004         40.0004
 -14758985.45343 -11446506.91142  21433369.9584   21433374.5214   21433369.6834
      2559.1084       1994.1094         49.0004         44.0004
  -8677817.55543  -6725406.50942  23195258.1384   23195261.0434   23195257.8494
      2655.0444       2068.8674         43.0004         39.0004
 -20643836.47843 -16049358.91142  21094079.2644   21094083.3364   21094079.0444
     -2024.9464      -1577.8844         49.0004         44.0004
 -20781409.41343 -16147218.04542  20597461.1154   20597462.1924   20597460.2874
        16.7864         13.0754         52.0004         48.0004
 -13193290.16443 -10236137.27842  21371949.3094   21371952.3774   21371948.9794
      -603.3704       -470.1594         49.0004         44.0004
  -9066504.86543  -7018105.97742  23231501.0124   23231502.9634   23231500.9024
     -2882.3954      -2246.0174         44.0004         39.0004
 04 12 28  0 20 30.0000000  0  7G15G 1G11G 3G19G14G22
  -3552053.63143  -2701910.29142  23281040.4874   23281045.4494   23281039.8604
     -1834.8734      -1429.7674         44.0004         40.0004
 -14835529.98843 -11506151.99142  21418803.9504   21418808.5904   21418803.6584
      2544.1024       1982.4054         49.0004         44.0004
  -8757448.02343  -6787456.20542  23180104.8644   23180107.8294   23180104.6224
      2653.8214       2067.9134         43.0004         38.0004
 -20582840.53743 -16001829.64042  21105686.3574   21105690.5124   21105686.2064
     -2041.2384      -1590.5844         49.0004         44.0004
 -20781615.75843 -16147378.84742  20597421.9314   20597422.9334   20597421.0474
        -2.8584         -2.2274         52.0004         48.0004
 -13174881.26343 -10221792.68342  21375452.3624   21375455.4624   21375452.0724
      -623.8454       -486.1054         49.0004         44.0004
  -8979997.97043  -6950698.07342  23247962.6644   23247964.7424   23247962.5464
     -2884.4654      -2247.6304         43.0004         39.0004
 04 12 28  0 21  0.0000000  0  7G15G 1G11G 3G19G14G22
  -3496929.55343  -2658956.53542  23291530.2724   23291535.2104   23291529.5904
     -1839.6514      -1433.4894         44.0004         39.0004
 -14911634.22443 -11565453.97842  21404321.7754   21404326.4104   21404321.5104
      2529.5694       1971.0924         49.0004         44.0004
  -8837042.22343  -6849477.63042  23164958.6784   23164961.4424   23164958.3894
      2652.6674       2067.0064         43.0004         39.0004
 -20521366.72043 -15953928.00442  21117384.4274   21117388.6424   21117384.2904
     -2056.7774      -1602.6714         49.0004         44.0004
 -20781238.81243 -16147085.14042  20597493.6554   20597494.6624   20597492.7714
       -21.8794        -17.0304         52.0004         48.0004
 -13155867.84943 -10206977.03742  21379070.4654   21379073.5474   21379070.1684
      -643.6284       -501.5254         49.0004         44.0004
  -8893439.87743  -6883250.27442  23264434.0984   23264436.2464   23264434.0894
     -2885.4434      -2248.3934         44.0004         39.0004
 04 12 28  0 21 30.0000000  0  7G15G 1G11G 3G19G14G22
  -3441663.61343  -2615892.23142  23302047.0144   23302052.0094   23302046.4354
     -1844.7654      -1437.4824         44.0004         39.0004
 -14987295.71843 -11624410.97242  21389923.8644   21389928.5014   21389923.6164
      2514.2774       1959.1804         49.0004         44.0004
  -8916599.69643  -6911470.44642  23149819.3304   23149822.0664   23149819.0604
      2650.8054       2065.5604         43.0004         39.0004
 -20459417.24743 -15905655.72142  21129173.0644   21129177.2974   21129172.9354
     -2073.1314      -1615.4234         49.0004         44.0004
 -20780278.20643 -16146336.62742  20597676.5084   20597677.4784   20597675.6134
       -42.0894        -32.7944         52.0004         48.0004
 -13136250.80743 -10191691.02642  21382803.5854   21382806.5374   21382803.2194
      -664.1154       -517.4994         49.0004         44.0004
  -8806832.33543  -6815763.93142  23280915.0634   23280917.1564   23280914.9904
     -2888.0544      -2250.4294         44.0004         39.0004
 04 12 28  0 22  0.0000000  0  7G15G 1G11G 3G19G14G22
  -3386254.92343  -2572716.67142  23312590.9994   23312595.9644   23312590.4654
     -1849.1664      -1440.9094         44.0004         39.0004
 -15062511.44443 -11683020.61142  21375610.7694   21375615.3994   21375610.4864
      2499.9684       1948.0244         49.0004         44.0004
  -8996118.74443  -6973433.31542  23134687.2504   23134690.0854   23134686.9814
      2650.5044       2065.3254         43.0004         39.0004
 -20396993.56243 -15857013.91942  21141051.9564   21141056.1254   21141051.8254
     -2088.4094      -1627.3374         49.0004         44.0004
 -20778733.36343 -16145132.87342  20597970.4914   20597971.4814   20597969.6234
       -60.9074        -47.4594         52.0004         48.0004
 -13116030.57143 -10175935.00942  21386651.4414   21386654.3514   21386651.0084
      -683.6534       -532.7104         49.0004         44.0004
  -8720176.59743  -6748240.03142  23297405.1564   23297407.2294   23297405.1424
     -2889.1314      -2251.2714         44.0004         39.0004
 04 12 28  0 22 30.0000000  0  7G15G 1G11G 3G19G14G22
  -3330702.86743  -2529429.42142  23323162.2034   23323167.2264   23323161.7384
     -1854.8774      -1445.3574         43.0004         39.0004
 -15137278.77143 -11741280.85642  21361383.0894   21361387.6164   21361382.7414
      2484.1284       1935.6704         49.0004         44.0004
  -9075598.36543  -7035365.46442  23119562.6994   23119565.6634   23119562.5054
      2648.0894       2063.4414         43.0004         39.0004
 -20334097.76743 -15808004.24742  21153020.6404   21153024.8224   21153020.5164
     -2105.2564      -1640.4774         49.0004         44.0004
 -20776603.88943 -16143473.55542  20598375.6794   20598376.7234   20598374.8514
       -81.4114        -63.4474         52.0004         48.0004
 -13095208.00143 -10159709.63242  21390613.7634   21390616.7614   21390613.4204
      -704.7164       -549.1324         49.0004         44.0004
  -8633474.04643  -6680679.66242  23313904.0744   23313906.1454   23313903.9784
     -2891.6024      -2253.1914         43.0004         39.0004
 04 12 28  0 23  0.0000000  0  7G15G 1G11G 3G19G14G22
  -3275007.28743  -2486030.33042  23333760.7294   23333765.7204   23333760.1694
     -1858.9324      -1448.5194         43.0004         39.0004
 -15211595.06343 -11799189.64742  21347241.1084   21347245.6774   21347240.8274
      2469.6174       1924.3584         49.0004         44.0004
  -9155037.02243  -7097265.69242  23104445.8524   23104449.0204   23104445.7624
      2647.2784       2062.8114         43.0004         39.0004
 -20270731.75143 -15758628.16742  21165078.8674   21165083.0074   21165078.6874
     -2120.1194      -1652.0534         49.0004         44.0004
 -20773889.19943 -16141358.22942  20598892.2754   20598893.3194   20598891.4874
      -100.2404        -78.1264         52.0004         48.0004
 -13073783.93943 -10143015.56242  21394690.6484   21394693.5924   21394690.2864
      -724.2214       -564.3314         49.0004         44.0004
  -8546726.26543  -6613084.05842  23330411.5334   23330413.7584   23330411.5454
     -2892.4824      -2253.8834         43.0004         39.0004
 04 12 28  0 23 30.0000000  0  7G15G 1G11G 3G19G14G22
  -3219167.98443  -2442519.24842  23344386.7514   23344391.6154   23344386.0514
     -1863.4314      -1452.0194         43.0004         39.0004
 -15285457.93343 -11856745.13142  21333185.5614   21333190.0134   21333185.2354
      2454.8244       1912.8654         49.0004         44.0004
  -9234433.98743  -7159133.43842  23089337.2534   23089340.2244   23089337.1114
      2646.0364       2061.8484         43.0004         39.0004
 -20206897.73143 -15708887.39742  21177226.1784   21177230.2914   21177225.9464
     -2135.2374      -1663.8314         49.0004         44.0004
 -20770589.33743 -16138786.92442  20599520.2684   20599521.2844   20599519.4504
      -119.4734        -93.1004         52.0004         48.0004
 -13051759.54143 -10125853.69842  21398881.6684   21398884.6834   21398881.4144
      -743.8054       -579.5834         49.0004         44.0004
  -8459934.91843  -6545454.48142  23346927.5804   23346929.6344   23346927.4694
     -2893.7794      -2254.8924         43.0004         39.0004
 04 12 28  0 24  0.0000000  0  7G15G 1G11G 3G19G14G22
  -3163184.58843  -2398895.86842  23355039.9944   23355045.0084   23355039.4364
     -1868.1744      -1455.7214         44.0004         39.0004
 -15358865.01543 -11913945.44242  21319216.6454   21319221.0834   21319216.3214
      2439.8094       1901.1574         49.0004         44.0004
  -9313788.28843  -7220967.93742  23074236.6014   23074239.5824   23074236.4814
      2644.8464       2060.9154         43.0004         39.0004
 -20142597.66943 -15658783.49542  21189462.1464   21189466.2494   21189461.9164
     -2150.7284      -1675.8844         49.0004         44.0004
 -20766704.17143 -16135759.54042  20600259.5584   20600260.6324   20600258.7794
      -138.9064       -108.2384         52.0004         48.0004
 -13029135.66643 -10108224.70842  21403186.8174   21403189.8734   21403186.5744
      -763.6854       -595.0814         49.0004         44.0004
  -8373101.55843  -6477792.16942  23363451.4924   23363453.6134   23363451.4294
     -2894.5464      -2255.4944         43.0004         39.0004
 04 12 28  0 24 30.0000000  0  7G15G 1G11G 3G19G14G22
  -3107056.36143  -2355159.64242  23365721.0064   23365725.9144   23365720.4234
     -1873.3124      -1459.7244         44.0004         39.0004
 -15431813.34443 -11970788.29542  21305335.0354   21305339.4864   21305334.7194
      2423.9124       1888.7684         49.0004         44.0004
  -9393098.43343  -7282768.03242  23059144.4284   23059147.3194   23059144.3054
      2642.9694       2059.4574         43.0004         39.0004
 -20077832.92243 -15608317.49542  21201786.4864   21201790.5544   21201786.2474
     -2166.6034      -1688.2544         49.0004         44.0004
 -20762232.92743 -16132275.46842  20601110.4714   20601111.4734   20601109.6574
      -158.8014       -123.7254         52.0004         48.0004
 -13005912.82343 -10090128.99942  21407606.0924   21407609.0684   21407605.8114
      -784.2004       -611.0504         49.0004         44.0004
  -8286227.32743  -6410098.02242  23379983.1794   23379985.4274   23379983.1284
     -2896.5374      -2257.0434         43.0004         39.0004
 04 12 28  0 25  0.0000000  0  7G15G 1G11G 3G19G14G22
  -3050782.61043  -2311310.04142  23376429.5644   23376434.5794   23376428.9974
     -1878.6404      -1463.8754         44.0004         39.0004
 -15504300.02443 -12027271.41242  21291541.3294   21291545.7124   21291540.9784
      2408.2904       1876.5844         49.0004         45.0004
  -9472362.69543  -7344532.37242  23044060.9634   23044063.7914   23044060.7764
      2641.2864       2058.1414         43.0004         39.0004
 -20012605.44043 -15557490.93542  21214198.9024   21214202.9684   21214198.6084
     -2182.1094      -1700.3454         49.0004         44.0004
 -20757175.05643 -16128334.28842  20602072.9614   20602073.9394   20602072.1584
      -178.7394       -139.2854         52.0004         48.0004
 -12982091.61343 -10071567.03142  21412139.1774   21412142.1164   21412138.8734
      -804.3204       -626.7614         49.0004         44.0004
  -8199313.22043  -6342372.79542  23396522.3664   23396524.6304   23396522.2914
     -2898.0674      -2258.2314         43.0004         39.0004
 04 12 28  0 25 30.0000000  0  7G15G 1G11G 3G19G14G22
  -2994363.24143  -2267346.96542  23387165.8564   23387170.7944   23387165.1014
     -1883.2354      -1467.4524         43.0004         39.0004
 -15576323.04843 -12083393.23942  21277835.8644   21277840.2204   21277835.4764
      2392.8884       1864.5874         49.0004         45.0004
  -9551580.60743  -7406260.58242  23028986.1874   23028989.2014   23028986.0794
      2639.5404       2056.7854         44.0004         39.0004
 -19946917.82343 -15506305.81542  21226698.8214   21226702.9744   21226698.5874
     -2197.3194      -1712.2104         49.0004         44.0004
 -20751530.94943 -16123936.30442  20603147.0274   20603147.9904   20603146.2214
      -198.0524       -154.3294         52.0004         48.0004
