     2.10           OBSERVATION DATA    G (GPS)             RINEX VERSION / TYPE
teqc  2003Apr29                         20041225 00:22:08UTCPGM / RUN BY / DATE
OBSERVATION MODE: IGS-Net                                   COMMENT
PERT Perth (PERT)                                           MARKER NAME
50133M001                                                   MARKER NUMBER
200313003           ASHTECH UZ-12        CJ00               REC # / TYPE / VERS
CR620023901         ASH701945C_M    NONE                    ANT # / TYPE
        0.0595        0.0000        0.0000                  ANTENNA: DELTA H/E/N
  -2368687.1721  4881316.3842  -3341795.6968                APPROX POSITION XYZ
  115.88525010  -31.80196660  12.4876  LonLatAlt  S/W       COMMENT
Solaris 2.7|Ultra 2|cc SC5.0|=+-|*Sparc                     COMMENT
MSWin2000|IAx86-PII|bcc32 5.0|MSWin95->XP|486/DX+           COMMENT
BIT 2 OF LLI FLAGS DATA COLLECTED UNDER A/S CONDITION       COMMENT
AUTOMATIC           ESA/ESOC                                OBSERVER / AGENCY
     1     1                                                WAVELENGTH FACT L1/2
     9    L1    L2    C1    P2    P1    D1    D2    S1    S2# / TYPES OF OBSERV
    30.0000                                                 INTERVAL
 SNR is mapped to RINEX snr flag value [1-9]                COMMENT
  L1: 1 -> 1;  90 -> 5; 210 -> 9                            COMMENT
  L2: 1 -> 1; 150 -> 5; 250 -> 9                            COMMENT
pseudorange smoothing corrections not applied               COMMENT
Checked by ROCK 1.0 [24.12.04-00:18]; status 2: file fixed  COMMENT
    30                                                      # OF SATELLITES
   G01   624   625   626   625   624   624   625   624   625PRN / # OF OBS
   G02   864   865   865   865   864   864   865   864   865PRN / # OF OBS
   G03   678   691   696   691   678   678   691   678   691PRN / # OF OBS
   G04   847   854   861   854   847   847   854   847   854PRN / # OF OBS
   G05   786   787   787   787   786   786   787   786   787PRN / # OF OBS
   G06   836   838   849   838   836   836   838   836   838PRN / # OF OBS
   G07   541   542   548   542   541   541   542   541   542PRN / # OF OBS
   G08   826   826   829   826   826   826   826   826   826PRN / # OF OBS
   G09   764   772   779   772   764   764   772   764   772PRN / # OF OBS
   G10   854   859   870   859   854   854   859   854   859PRN / # OF OBS
   G11   721   725   739   725   721   721   725   721   725PRN / # OF OBS
   G13   844   849   856   849   844   844   849   844   849PRN / # OF OBS
   G14   738   742   744   742   738   738   742   738   742PRN / # OF OBS
   G15   869   873   878   873   869   869   873   869   873PRN / # OF OBS
   G16   620   624   633   624   620   620   624   620   624PRN / # OF OBS
   G17   692   698   703   698   692   692   698   692   698PRN / # OF OBS
   G18   681   689   696   689   681   681   689   681   689PRN / # OF OBS
   G19   677   678   682   678   677   677   678   677   678PRN / # OF OBS
   G20   759   761   765   761   759   759   761   759   761PRN / # OF OBS
   G21   719   720   724   720   719   719   720   719   720PRN / # OF OBS
   G22   722   729   730   729   722   722   729   722   729PRN / # OF OBS
   G23   849   851   851   851   849   849   851   849   851PRN / # OF OBS
   G24   837   848   854   848   837   837   848   837   848PRN / # OF OBS
   G25   823   839   867   839   823   823   839   823   839PRN / # OF OBS
   G26   624   627   631   627   624   624   627   624   627PRN / # OF OBS
   G27   700   703   704   703   700   700   703   700   703PRN / # OF OBS
   G28   634   642   644   642   634   634   642   634   642PRN / # OF OBS
   G29   618   619   625   619   618   618   619   618   619PRN / # OF OBS
   G30   823   825   827   825   823   823   825   823   825PRN / # OF OBS
   G31   783   793   795   793   783   783   793   783   793PRN / # OF OBS
Checked by ROCK 1.0 [25.12.04-00:24]; status 0: file OK     COMMENT
  2004    12    24     0     0    0.0000000     GPS         TIME OF FIRST OBS
  2004    12    24    23    59   30.0000000     GPS         TIME OF LAST OBS
                                                            END OF HEADER
 04 12 24  0  0  0.0000000  0  8G 3G 1G19G15G16G14G11G22
 -23967201.65843 -18636183.29842  20516429.7394   20516433.8584   20516429.5464
      -744.0214       -579.7514         51.0004         46.0004
  -7602483.21943  -5877717.99642  22687523.0384   22687528.9444   22687522.9544
      3364.8714       2621.9844         45.0004         41.0004
 -18622316.13043 -14467698.07042  20893308.6594   20893310.3144   20893307.9114
      1346.4604       1049.2034         51.0004         47.0004
  -5951544.10343  -4590491.21542  22570850.5274   22570855.2804   22570849.9894
     -1523.3814      -1187.0464         47.0004         42.0004
   3241777.34643   2566117.49042  25351495.2264   25351502.3674   25351494.3174
     -3030.7734      -2361.6614         38.0004         34.0004
 -13822983.84343 -10721626.82242  21431130.1714   21431133.6844   21431129.7954
       867.1004        675.6694         49.0004         44.0004
  -1409382.13643  -1061456.91242  24305665.9904   24305670.7704   24305665.9844
      2661.3604       2073.7894         40.0004         36.0004
 -14931038.46943 -11591863.15642  22086055.9394   22086058.2674   22086056.0524
     -2598.8204      -2025.0634         48.0004         43.0004
 04 12 24  0  0 30.0000000  0  8G 3G 1G19G15G16G14G11G22
 -23944580.67743 -18618556.57942  20520734.3424   20520738.4994   20520734.1574
      -763.6644       -595.0684         51.0004         46.0004
  -7703309.12943  -5956283.61242  22668336.4964   22668342.4274   22668336.3574
      3356.7724       2615.6724         45.0004         41.0004
 -18662445.42943 -14498967.64442  20885672.3594   20885673.9584   20885671.5824
      1329.1854       1035.7124         51.0004         47.0004
  -5905774.14543  -4554826.33542  22579560.2964   22579565.0824   22579559.7384
     -1527.8384      -1190.5184         47.0004         42.0004
   3332629.01943   2636910.92942  25368783.7374   25368791.1874   25368783.1324
     -3025.9144      -2357.8644         38.0004         33.0004
 -13848685.96843 -10741654.43742  21426239.2104   21426242.6754   21426238.8274
       846.6244        659.6994         49.0004         44.0004
  -1489219.07943  -1123667.49442  24290473.6534   24290478.3144   24290473.4404
      2660.9554       2073.4704         40.0004         36.0004
 -14852962.93143 -11531025.10242  22100913.2064   22100915.6174   22100913.3504
     -2605.9264      -2030.5934         48.0004         43.0004
 04 12 24  0  1  0.0000000  0  8G 3G 1G19G15G16G14G11G22
 -23921399.54543 -18600493.38142  20525145.5764   20525149.7414   20525145.4004
      -781.8874       -609.2794         51.0004         46.0004
  -7803912.67243  -6034675.96142  22649192.1964   22649198.2094   22649192.2004
      3349.5314       2610.0274         45.0004         41.0004
 -18702081.83643 -14529853.14842  20878129.8044   20878131.3494   20878129.0164
      1313.0584       1023.1584         51.0004         47.0004
  -5859894.84943  -4519076.26142  22588290.7844   22588295.7614   22588290.2744
     -1531.1644      -1193.1214         47.0004         42.0004
                   2707565.40042  25386038.156    25386045.7924
                     -2352.7924                         32.0004
 -13873801.96743 -10761225.32642  21421459.7474   21421463.2704   21421459.3424
       827.3554        644.6914         49.0004         44.0004
  -1569078.62143  -1185895.67642  24275277.0804   24275281.2894   24275276.6614
      2663.0074       2075.0774         40.0004         36.0004
 -14774699.81943 -11470040.89842  22115806.2274   22115808.6154   22115806.3274
     -2611.9254      -2035.2814         48.0004         43.0004
 04 12 24  0  1 30.0000000  0  8G 3G 1G19G15G16G14G11G22
 -23897658.51943 -18581993.89842  20529663.3774   20529667.5224   20529663.1624
      -800.6434       -623.8864         51.0004         46.0004
  -7904290.97943  -6112892.80342  22630090.9404   22630096.7794   22630090.8514
      3342.1874       2604.3014         45.0004         41.0004
 -18741223.58643 -14560353.20742  20870681.3444   20870682.8944   20870680.5774
      1296.5114       1010.2654         51.0004         47.0004
  -5813906.04643  -4483240.86542  22597042.2044   22597047.1344   22597041.6674
     -1534.6694      -1195.8524         46.0004         42.0004
                   2778078.85342  25403258.434    25403265.7284
                     -2348.0594                         31.0004
 -13898330.75943 -10780338.65642  21416791.9704   21416795.5704   21416791.6484
       807.8134        629.4574         49.0004         44.0004
  -1648959.41043  -1248140.39742  24260076.1734   24260080.6564   24260075.8374
      2663.2344       2075.2534         40.0004         36.0004
 -14696251.41743 -11408912.30142  22130734.5104   22130736.8494   22130734.5984
     -2617.9864      -2039.9904         47.0004         43.0004
 04 12 24  0  2  0.0000000  0  8G 3G 1G19G15G16G14G11G22
 -23873357.79043 -18563058.28642  20534287.6404   20534291.8064   20534287.4274
      -819.1634       -638.3024         51.0004         46.0004
  -8004440.69043  -6190931.51742  22611033.1714   22611038.8994   22611033.0604
      3334.7644       2598.5094         46.0004         41.0004
 -18779868.59343 -14590466.19742  20863327.4834   20863329.0024   20863326.7104
      1280.1664        997.5334         51.0004         47.0004
  -5767807.04543  -4447319.59242  22605814.6024   22605819.4904   22605814.0054
     -1538.2244      -1198.6094         47.0004         42.0004
                                  25420444.056

 -13922270.89143 -10798993.29242  21412236.2844   21412239.9194   21412235.9694
       788.4044        614.3414         49.0004         44.0004
  -1728861.18943  -1310401.50642  24244871.4414   24244875.6464   24244871.0414
      2664.0784       2075.9044         40.0004         36.0004
 -14617619.76743 -11347640.92542  22145697.6934   22145700.0474   22145697.7054
     -2623.8624      -2044.5644         47.0004         43.0004
 04 12 24  0  2 30.0000000  0  8G 3G 1G19G15G16G14G11G22
 -23848498.07443 -18543687.10342  20539018.3264   20539022.4814   20539018.1234
      -837.8684       -652.8924         51.0004         46.0004
  -8104358.81943  -6268789.75842  22592019.3944   22592025.1114   22592019.2314
      3326.7674       2592.2834         46.0004         41.0004
 -18818015.33843 -14620190.93842  20856068.4324   20856069.8744   20856067.6454
      1263.4734        984.5294         51.0004         47.0004
  -5721597.69143  -4411312.33442  22614607.8594   22614612.8754   22614607.3014
     -1542.0194      -1201.5784         46.0004         42.0004
                                  25437594.260

 -13945621.43143 -10817188.50242  21407792.7844   21407796.4904   21407792.4604
       768.7084        598.9954         49.0004         44.0004
  -1808783.86843  -1372678.90742  24229662.6094   24229666.8914   24229662.2784
      2664.7124       2076.4074         40.0004         36.0004
 -14538807.26343 -11286228.62842  22160695.2764   22160697.5894   22160695.3124
     -2629.9114      -2049.2704         47.0004         43.0004
 04 12 24  0  3  0.0000000  0  8G 3G 1G19G15G16G14G11G22
 -23823079.43943 -18523880.39842  20543855.3704   20543859.5014   20543855.1524
      -856.1594       -667.1324         51.0004         46.0004
  -8204042.02643  -6346464.94942  22573050.2134   22573056.0284   22573050.0544
      3319.3974       2586.5444         46.0004         41.0004
 -18855661.64743 -14649525.72942  20848904.6164   20848906.0354   20848903.7994
      1246.8734        971.5814         51.0004         47.0004
  -5675277.55043  -4375218.75942  22623422.3254   22623427.3214   22623421.7854
     -1545.6054      -1204.3684         46.0004         42.0004
                                  25454709.003

 -13968381.10043 -10834923.29442  21403461.7574   21403465.4834   21403461.4494
       749.1984        583.7864         49.0004         44.0004
  -1888726.62443  -1434971.93142  24214450.1164   24214454.4454   24214449.7734
      2665.3204       2076.8834         40.0004         36.0004
 -14459815.96643 -11224677.01042  22175726.8674   22175729.2164   22175726.8624
     -2635.5784      -2053.6914         47.0004         42.0004
 04 12 24  0  3 30.0000000  0  8G 3G 1G19G15G16G14G11G22
 -23797103.04843 -18503639.07542  20548798.5444   20548802.6924   20548798.3124
      -875.2664       -682.0324         51.0004         46.0004
  -8303487.61443  -6423954.98842  22554126.2584   22554132.1344   22554126.1444
      3310.8224       2579.8634         45.0004         41.0004
 -18892806.13943 -14678469.49642  20841836.2234   20841837.7104   20841835.4244
      1229.6544        958.1804         51.0004         47.0004
  -5628846.47443  -4339038.74242  22632257.8444   22632262.8974   22632257.3484
     -1549.7154      -1207.5694         46.0004         42.0004
                                  25471786.630

 -13990549.13043 -10852197.07842  21399243.3494   21399246.9944   21399243.0254
       729.0174        568.0584         49.0004         44.0004
  -1968689.33043  -1497280.52842  24199233.7894   24199237.7084   24199233.3404
      2665.5024       2077.0274         40.0004         35.0004
 -14380648.27643 -11162987.93242  22190792.0124   22190794.3244   22190791.9604
     -2641.9064      -2058.6354         47.0004         43.0004
 04 12 24  0  4  0.0000000  0  8G 3G 1G19G15G16G14G11G22
 -23770568.12943 -18482962.52842  20553847.9744   20553852.1554   20553847.7584
      -893.8704       -696.5334         51.0004         46.0004
  -8402691.52443  -6501256.71742  22535248.2444   22535254.1654   22535248.2364
      3302.7164       2573.5454         45.0004         41.0004
 -18929446.05143 -14707020.08442  20834863.8594   20834865.3894   20834863.0554
      1212.7654        945.0084         51.0004         47.0004
  -5582303.05543  -4302771.18542  22641114.8254   22641119.8274   22641114.3124
     -1553.3694      -1210.4134         46.0004         42.0004
                                  25488827.920

 -14012123.47343 -10869008.24242  21395137.8664   21395141.5284   21395137.5554
       709.1604        552.5904         49.0004         44.0004
  -2048670.59843  -1559603.56742  24184014.0354   24184017.6784   24184013.4454
      2666.2914       2077.6344         40.0004         36.0004
 -14301305.57743 -11101162.48742  22205890.4354   22205892.7424   22205890.4324
     -2647.7514      -2063.1814         47.0004         42.0004
 04 12 24  0  4 30.0000000  0  7G 3G 1G19G15G14G11G22
 -23743476.13043 -18461851.90542  20559003.4254   20559007.6184   20559003.2084
      -912.1924       -710.7994         51.0004         46.0004
  -8501651.29943  -6578368.20142  22516416.9134   22516422.6814   22516416.7364
      3294.4904       2567.1294         46.0004         41.0004
 -18965580.22743 -14735176.59642  20827987.7764   20827989.2734   20827986.9554
      1196.1574        932.0684         51.0004         47.0004
  -5535647.63543  -4266416.36242  22649993.1424   22649998.0784   22649992.6034
     -1556.9984      -1213.2504         46.0004         42.0004
 -14033103.84743 -10885356.58142  21391145.4914   21391149.0694   21391145.1564
       689.5074        537.2634         49.0004         45.0004
  -2128670.45843  -1621941.08542  24168790.4954   24168794.1504   24168790.1364
      2667.2104       2078.3434         40.0004         36.0004
 -14221790.77843 -11039202.94042  22221021.6834   22221023.8794   22221021.6044
     -2653.1604      -2067.3944         47.0004         43.0004
 04 12 24  0  5  0.0000000  0  7G 3G 1G19G15G14G11G22
 -23715827.17843 -18440307.28742  20564264.8434   20564269.0694   20564264.6544
      -930.8744       -725.3484         51.0004         46.0004
  -8600363.65143  -6655286.88642  22497632.5354   22497638.3404   22497632.2884
      3286.3354       2560.7784         46.0004         41.0004
 -19001206.79843 -14762937.57042  20821208.2764   20821209.7714   20821207.4544
      1179.1184        918.7954         51.0004         47.0004
  -5488879.81843  -4229973.95942  22658892.8364   22658897.7684   22658892.2934
     -1560.7944      -1216.1994         46.0004         42.0004
 -14053489.04543 -10901241.14242  21387266.3354   21387269.8874   21387266.0234
       669.6894        521.8384         49.0004         44.0004
  -2208688.27743  -1684292.61342  24153563.5904   24153567.1134   24153563.1324
      2667.3444       2078.4604         40.0004         36.0004
 -14142105.72943 -10977110.73242  22236185.1984   22236187.3664   22236185.1824
     -2658.9044      -2071.8794         47.0004         42.0004
 04 12 24  0  5 30.0000000  0  7G 3G 1G19G15G14G11G22
 -23687622.33943 -18418329.51042  20569632.1264   20569636.2734   20569631.8974
      -949.3474       -739.7514         51.0004         46.0004
  -8698825.85343  -6732010.65542  22478895.7434   22478901.6184   22478895.5384
      3277.9744       2554.2644         46.0004         41.0004
 -19036324.30643 -14790301.86842  20814525.6144   20814527.1414   20814524.8104
      1162.1114        905.5304         52.0004         47.0004
  -5441999.30343  -4193443.72442  22667813.9644   22667818.8924   22667813.4004
     -1564.4224      -1219.0244         46.0004         42.0004
 -14073278.54943 -10916661.53542  21383500.4294   21383504.0684   21383500.1724
       649.5374        506.1304         49.0004         44.0004
  -2288723.94443  -1746658.02942  24138333.1434   24138336.7944   24138332.7084
      2668.3564       2079.2274         41.0004         36.0004
 -14062252.97243 -10914887.84642  22251380.6044   22251382.7954   22251380.6554
     -2664.5604      -2076.2764         47.0004         42.0004
 04 12 24  0  6  0.0000000  0  7G 3G 1G19G15G14G11G22
 -23658861.44143 -18395918.43642  20575105.1304   20575109.3334   20575104.9404
      -968.0574       -754.3304         51.0004         46.0004
  -8797033.98443  -6808536.43442  22460207.3084   22460213.1454   22460207.1274
      3269.1684       2547.4074         46.0004         41.0004
 -19070930.38943 -14817267.65242  20807940.2774   20807941.8144   20807939.5074
      1144.8524        892.0894         52.0004         47.0004
  -5395004.89443  -4156824.75542  22676756.7064   22676761.6464   22676756.1554
     -1568.5374      -1222.2454         46.0004         42.0004
 -14092470.59543 -10931616.36542  21379848.3304   21379851.9164   21379848.0154
       629.6674        490.6464         49.0004         44.0004
  -2368776.20643  -1809036.39542  24123099.5154   24123103.3984   24123099.1094
      2668.6854       2079.4904         41.0004         36.0004
 -13982233.88543 -10852535.34642  22266607.8134   22266609.9744   22266607.8574
     -2670.0864      -2080.5884         47.0004         43.0004
 04 12 24  0  6 30.0000000  0  7G 3G 1G19G15G14G11G22
 -23629545.27043 -18373074.69242  20580683.8544   20580688.0334   20580683.6164
      -986.6194       -768.7874         51.0004         46.0004
  -8894985.23743  -6884862.04342  22441567.8934   22441573.6494   22441567.6324
      3260.5804       2540.7084         46.0004         41.0004
 -19105023.38343 -14843833.62342  20801452.5834   20801454.1754   20801451.8374
      1127.7024        878.7274         52.0004         47.0004
  -5347896.41443  -4120116.88942  22685721.2324   22685726.0924   22685720.6704
     -1572.3624      -1225.2094         46.0004         42.0004
 -14111064.25743 -10946104.93542  21376310.0664   21376313.6724   21376309.7664
       609.5204        474.9524         49.0004         45.0004
  -2448844.62843  -1871427.34942  24107862.9174   24107866.6554   24107862.5504
      2669.2104       2079.9064         41.0004         36.0004
 -13902050.82443 -10790055.08342  22281866.1294   22281868.3544   22281866.1594
     -2675.5484      -2084.8474         47.0004         42.0004
 04 12 24  0  7  0.0000000  0  7G 3G 1G19G15G14G11G22
 -23599674.78343 -18349799.00942  20586368.0374   20586372.2194   20586367.7904
     -1004.5654       -782.7794         51.0004         46.0004
  -8992676.74243  -6960985.23942  22422977.8184   22422983.5374   22422977.4924
      3252.3694       2534.3084         46.0004         41.0004
 -19138602.04343 -14869998.81342  20795062.7584   20795064.3664   20795062.0194
      1111.0794        865.7664         52.0004         47.0004
  -5300673.71743  -4083320.03942  22694707.4434   22694712.3154   22694706.8474
     -1575.6014      -1227.7374         46.0004         42.0004
 -14129059.09643 -10960126.88342  21372885.7224   21372889.3774   21372885.4214
       590.1244        459.8354         49.0004         45.0004
  -2528929.19643  -1933830.88042  24092623.5094   24092627.1694   24092623.1164
      2670.0144       2080.5334         41.0004         37.0004
 -13821706.22743 -10727448.94242  22297155.1954   22297157.4264   22297155.2014
     -2680.5224      -2088.7314         47.0004         42.0004
 04 12 24  0  7 30.0000000  0  7G 3G 1G19G15G14G11G22
 -23569250.04043 -18326091.44042  20592157.6594   20592161.8534   20592157.4384
     -1023.3454       -797.4134         51.0004         46.0004
  -9090104.91343  -7036903.23242  22404437.7194   22404443.4854   22404437.4824
      3243.1424       2527.1224         46.0004         42.0004
 -19171663.96743 -14895761.35142  20788771.2764   20788772.9044   20788770.5284
      1093.4614        852.0404         52.0004         47.0004
  -5253336.00343  -4046433.54542  22703715.5504   22703720.4004   22703714.9954
     -1579.8244      -1231.0334         46.0004         42.0004
 -14146453.67743 -10973681.10342  21369575.6294   21369579.2934   21369575.3324
       569.6834        443.9074         49.0004         45.0004
  -2609028.48043  -1996245.88542  24077380.9804   24077384.9044   24077380.7004
      2669.8934       2080.4214         41.0004         37.0004
 -13741201.63343 -10664718.11442  22312474.7824   22312476.9444   22312474.7984
     -2686.1854      -2093.1404         47.0004         42.0004
 04 12 24  0  8  0.0000000  0  7G 3G 1G19G15G14G11G22
 -23538271.92643 -18301952.66842  20598052.6014   20598056.8094   20598052.3864
     -1041.6604       -811.6824         51.0004         46.0004
  -9187266.86743  -7112613.79242  22385948.3824   22385954.1074   22385948.1344
      3234.3974       2520.3084         46.0004         42.0004
 -19204207.66743 -14921120.08242  20782578.4324   20782580.0694   20782577.6874
      1076.3014        838.6884         52.0004         47.0004
  -5205883.13343  -4009457.32442  22712745.4724   22712750.3624   22712745.0004
     -1583.3024      -1233.7324         46.0004         42.0004
 -14163247.25643 -10986767.00742  21366379.9534   21366383.5334   21366379.6204
       549.9184        428.5234         49.0004         45.0004
  -2689142.09643  -2058672.05442  24062135.9164   24062139.8794   24062135.7214
      2670.8094       2081.1574         41.0004         36.0004
 -13660539.20743 -10601864.32142  22327824.2244   22327826.5754   22327824.2724
     -2691.2054      -2097.0444         47.0004         42.0004
 04 12 24  0  8 30.0000000  0  7G 3G 1G19G15G14G11G22
 -23506741.58643 -18277383.59642  20604052.6774   20604056.8484   20604052.4254
     -1060.2694       -826.1864         51.0004         46.0004
  -9284159.90543  -7188114.80342  22367510.3454   22367515.9894   22367510.0124
      3225.0284       2513.0104         46.0004         42.0004
 -19236231.99243 -14946074.10142  20776484.4064   20776486.0384   20776483.6404
      1058.8454        825.0724         52.0004         47.0004
  -5158314.86743  -3972391.19442  22721797.5364   22721802.3734   22721796.9824
     -1587.6354      -1237.1174         46.0004         42.0004
 -14179439.39543 -10999384.24942  21363298.6124   21363302.2414   21363298.3724
       529.8004        412.8294         49.0004         45.0004
  -2769269.82943  -2121109.24742  24046888.0614   24046892.1514   24046887.8734
      2671.2944       2081.5234         41.0004         37.0004
 -13579721.50943 -10538889.53242  22343203.3874   22343205.7134   22343203.4324
     -2696.4974      -2101.1674         47.0004         42.0004
 04 12 24  0  9  0.0000000  0  7G 3G 1G19G15G14G11G22
 -23474659.28843 -18252384.42642  20610157.7214   20610161.9404   20610157.4944
     -1078.9414       -840.7284         51.0004         46.0004
  -9380780.57943  -7263403.58542  22349124.0654   22349129.6384   22349123.7434
      3215.9664       2505.9524         46.0004         42.0004
 -19267735.05043 -14970621.94342  20770489.5534   20770491.1854   20770488.7904
      1040.9144        811.1004         52.0004         47.0004
  -5110630.60943  -3935234.67242  22730871.5564   22730876.4474   22730871.0344
     -1591.8384      -1240.3944         46.0004         42.0004
 -14195029.04143 -11011532.02442  21360332.0224   21360335.6144   21360331.7274
       509.3184        396.8644         49.0004         45.0004
  -2849411.11043  -2183556.96642  24031637.7544   24031641.6704   24031637.4314
      2671.3004       2081.5264         41.0004         37.0004
 -13498750.36443 -10475795.16842  22358611.7724   22358614.0624   22358611.7624
     -2701.8114      -2105.3064         47.0004         42.0004
 04 12 24  0  9 30.0000000  0  7G 3G 1G19G15G14G11G22
 -23442025.61043 -18226955.61042  20616367.6654   20616371.9664   20616367.4604
     -1096.5154       -854.4334         51.0004         46.0004
  -9477125.61743  -7338477.58842  22330790.1774   22330795.7264   22330789.7934
      3207.3514       2499.2274         46.0004         42.0004
 -19298714.99043 -14994762.15242  20764594.3034   20764595.9044   20764593.5194
      1024.3324        798.1934         52.0004         47.0004
  -5062829.83943  -3897987.36042  22739967.7224   22739972.6464   22739967.2744
     -1594.8544      -1242.7474         46.0004         42.0004
 -14210015.32743 -11023209.65142  21357480.2314   21357483.8734   21357479.9884
       489.7914        381.6604         49.0004         45.0004
  -2929565.05843  -2246014.57542  24016384.8354   24016388.7794   24016384.5184
      2672.4084       2082.4004         41.0004         36.0004
 -13417627.75143 -10412582.79442  22374048.8894   22374051.3054   22374048.9174
     -2706.1644      -2108.7014         47.0004         42.0004
 04 12 24  0 10  0.0000000  0  7G 3G 1G19G15G14G11G22
 -23408841.15143 -18201097.61342  20622682.4894   20622686.7834   20622682.2634
     -1114.7274       -868.6214         51.0004         46.0004
  -9573191.65243  -7413334.19642  22312509.3594   22312514.8654   22312508.9544
      3197.9834       2491.9354         46.0004         42.0004
 -19329169.82443 -15018493.19442  20758798.9914   20758800.5814   20758798.1634
      1007.0794        784.7434         52.0004         47.0004
  -5014911.65143  -3860648.55042  22749086.4104   22749091.1474   22749085.8884
     -1598.6974      -1245.7354         46.0004         42.0004
 -14224397.19243 -11034416.30142  21354743.5324   21354747.0904   21354743.2334
       469.9154        366.1604         49.0004         45.0004
  -3009730.49843  -2308481.14942  24001129.7354   24001133.7384   24001129.4104
      2672.4804       2082.4564         41.0004         36.0004
 -13336355.32943 -10349253.66642  22389514.5944   22389516.8844   22389514.5364
     -2711.1394      -2112.5664         47.0004         42.0004
 04 12 24  0 10 30.0000000  0  7G 3G 1G19G15G14G11G22
 -23375106.47243 -18174810.87442  20629102.0114   20629106.2824   20629101.7734
     -1133.7954       -883.4794         51.0004         46.0004
  -9668975.70243  -7487971.06342  22294282.2044   22294287.7144   22294281.8284
      3187.9194       2484.0904         46.0004         42.0004
 -19359098.18743 -15041814.00142  20753103.8484   20753105.3624   20753103.0164
       988.6054        770.3394         52.0004         47.0004
  -4966875.73643  -3823218.01642  22758227.4064   22758232.1434   22758226.8804
     -1603.5214      -1249.5024         46.0004         41.0004
 -14238173.85943 -11045151.36742  21352121.9394   21352125.4564   21352121.6074
       448.8944        349.8044         49.0004         45.0004
  -3089906.91243  -2370956.24942  23985872.6004   23985876.7524   23985872.3414
      2672.6624       2082.5834         41.0004         37.0004
 -13254935.28743 -10285809.52242  22405008.2094   22405010.5474   22405008.1964
     -2716.4764      -2116.7324         46.0004         42.0004
 04 12 24  0 11  0.0000000  0  7G 3G 1G19G15G14G11G22
 -23340822.39743 -18148096.03642  20635626.0184   20635630.3404   20635625.8094
     -1151.9674       -897.6314         51.0004         46.0004
  -9764474.78343  -7562385.87442  22276109.1884   22276114.8144   22276108.8894
      3178.3704       2476.6524         46.0004         42.0004
 -19388498.34643 -15064723.22242  20747509.2364   20747510.7154   20747508.3894
       971.2184        756.7884         52.0004         47.0004
  -4918721.96443  -3785695.63142  22767390.7904   22767395.4964   22767390.2734
     -1606.9854      -1252.1894         46.0004         41.0004
 -14251344.68743 -11055414.34542  21349615.5424   21349619.1244   21349615.2394
       428.8354        334.1514         49.0004         45.0004
  -3170093.73943  -2433439.46142  23970613.3754   23970617.7554   23970613.1314
      2673.1394       2082.9654         41.0004         37.0004
 -13173369.70143 -10222251.96742  22420529.4804   22420532.0024   22420529.5544
     -2721.3024      -2120.5004         46.0004         42.0004
 04 12 24  0 11 30.0000000  0  7G 3G 1G19G15G14G11G22
 -23305990.49543 -18120954.31442  20642254.3004   20642258.6404   20642254.0894
     -1170.0534       -911.7214         51.0004         46.0004
  -9859686.05043  -7636576.41142  22257991.1434   22257996.6454   22257990.7504
      3168.9074       2469.2774         47.0004         42.0004
 -19417369.17143 -15087219.97642  20742015.2564   20742016.7754   20742014.4234
       953.5244        743.0044         52.0004         47.0004
  -4870450.03643  -3748081.18042  22776576.6334   22776581.3254   22776576.0904
     -1611.0094      -1255.3314         46.0004         41.0004
 -14263909.53443 -11065205.14542  21347224.5234   21347228.1194   21347224.2414
       408.7574        318.5104         49.0004         45.0004
  -3250290.96643  -2495930.77542  23955352.2774   23955356.7084   23955352.2774
      2673.4404       2083.2004         42.0004         37.0004
 -13091661.07443 -10158582.96042  22436078.1364   22436080.6764   22436078.1724
     -2725.7674      -2123.9704         46.0004         42.0004
 04 12 24  0 12  0.0000000  0  7G 3G 1G19G15G14G11G22
 -23270610.85343 -18093385.78642  20648986.8344   20648991.1744   20648986.6184
     -1188.0194       -925.7244         51.0004         46.0004
  -9954605.77943  -7710539.78942  22239928.4574   22239933.9524   22239928.0924
      3159.4364       2461.8914         47.0004         42.0004
 -19445708.70043 -15109302.73242  20736622.3974   20736623.9094   20736621.6004
       936.2644        729.5564         52.0004         47.0004
  -4822059.00143  -3710373.90542  22785785.1044   22785789.9154   22785784.5964
     -1614.5284      -1258.0674         46.0004         41.0004
 -14275867.04343 -11074522.67342  21344949.1404   21344952.7514   21344948.8314
       388.9284        303.0594         49.0004         45.0004
  -3330497.41743  -2558429.27442  23940089.5774   23940093.7084   23940089.3584
      2674.1404       2083.7494         42.0004         37.0004
 -13009810.91243 -10094803.65142  22451653.8534   22451656.2284   22451653.8784
     -2730.3174      -2127.5184         46.0004         42.0004
 04 12 24  0 12 30.0000000  0  7G 3G 1G19G15G14G11G22
 -23234684.68743 -18065391.38842  20655823.3854   20655827.7144   20655823.1584
     -1206.7594       -940.3374         51.0004         46.0004
 -10049231.41043  -7784273.98242  22221921.7564   22221927.1994   22221921.4084
      3149.0814       2453.8314         47.0004         42.0004
 -19473515.63643 -15130970.48342  20731330.9504   20731332.4544   20731330.1484
       917.9184        715.2484         52.0004         47.0004
  -4773548.95643  -3672573.91342  22795016.3404   22795021.1454   22795015.8234
     -1619.0424      -1261.5924         46.0004         41.0004
 -14287216.80843 -11083366.65942  21342789.2974   21342792.9994   21342789.0324
       368.0864        286.8214         49.0004         45.0004
  -3410712.64043  -2620934.61942  23924825.0744   23924829.0374   23924824.9054
      2673.6854       2083.3784         41.0004         37.0004
 -12927821.50143 -10030915.84842  22467256.0524   22467258.3804   22467256.0544
     -2735.4384      -2131.5184         46.0004         42.0004
 04 12 24  0 13  0.0000000  0  7G 3G 1G19G15G14G11G22
 -23198212.38543 -18036971.44042  20662763.8384   20662768.2054   20662763.6124
     -1224.3844       -954.0594         51.0004         46.0004
 -10143559.41643  -7857776.26542  22203971.6974   22203977.0754   22203971.3264
      3139.6894       2446.5014         47.0004         42.0004
 -19500788.04043 -15152221.71342  20726141.2164   20726142.6764   20726140.3864
       900.5004        701.6894         52.0004         47.0004
  -4724918.79943  -3634680.31442  22804270.4824   22804275.1884   22804269.8774
     -1622.6614      -1264.4184         46.0004         41.0004
 -14297958.10543 -11091736.50742  21340745.3224   21340748.9564   21340745.0314
       348.3834        271.4744         49.0004         45.0004
  -3490935.19043  -2683445.69342  23909559.3424   23909562.9224   23909559.1604
      2674.5314       2084.0484         41.0004         37.0004
 -12845694.44243  -9966920.78742  22482884.4494   22482886.7504   22482884.3364
     -2739.1404      -2134.3824         46.0004         42.0004
 04 12 24  0 13 30.0000000  0  7G 3G 1G19G15G14G11G22
 -23161195.41543 -18008127.06742  20669807.9324   20669812.3084   20669807.7204
     -1242.3334       -968.0404         50.0004         46.0004
 -10237586.86743  -7931044.35542  22186078.8344   22186084.1244   22186078.4984
      3129.7414       2438.7624         47.0004         42.0004
 -19527524.71243 -15173055.48642  20721053.3704   20721054.8714   20721052.5424
       882.8944        687.9844         52.0004         47.0004
  -4676168.35643  -3596692.98742  22813547.3514   22813552.1294   22813546.7264
     -1626.7614      -1267.5994         46.0004         41.0004
 -14308090.43943 -11099631.83042  21338817.2404   21338820.8264   21338816.9254
       328.2314        255.7614         49.0004         45.0004
  -3571165.08843  -2745962.46342  23894291.9714   23894295.6864   23894291.8314
      2675.0444       2084.4544         41.0004         37.0004
 -12763431.77843  -9902820.06242  22498538.5564   22498540.9174   22498538.4684
     -2743.7404      -2137.9734         46.0004         42.0004
 04 12 24  0 14  0.0000000  0  7G 3G 1G19G15G14G11G22
 -23123634.77343 -17978859.06442  20676955.5564   20676959.8594   20676955.3094
     -1260.8934       -982.5004         51.0004         46.0004
 -10331310.98043  -8004076.07342  22168243.6064   22168248.9434   22168243.3474
      3119.3604       2430.6694         47.0004         42.0004
 -19553724.31643 -15193470.76642  20716067.8044   20716069.2904   20716066.9454
       864.4734        673.6194         52.0004         47.0004
  -4627297.50043  -3558611.82042  22822847.2424   22822851.9514   22822846.5624
     -1630.5894      -1270.5854         46.0004         41.0004
 -14317613.47843 -11107052.38942  21337005.0584   21337008.6654   21337004.7704
       307.4724        239.6074         49.0004         45.0004
  -3651401.73043  -2808484.47542  23879023.2994   23879027.1374   23879023.0894
      2675.0704       2084.4754         41.0004         37.0004
 -12681035.98543  -9838615.58642  22514217.9604   22514220.4234   22514217.8724
     -2748.4664      -2141.6584         46.0004         41.0004
 04 12 24  0 14 30.0000000  0  7G 3G 1G19G15G14G11G22
 -23085530.58743 -17949167.51242  20684206.5594   20684210.8974   20684206.3084
     -1279.3174       -996.8664         51.0004         46.0004
 -10424728.13843  -8076868.60042  22150466.8794   22150472.2324   22150466.5554
      3108.7534       2422.4074         47.0004         42.0004
 -19579384.92443 -15213466.05042  20711184.7824   20711186.2254   20711183.9064
       846.3584        659.4894         52.0004         47.0004
  -4578305.09843  -3520435.95242  22832170.3194   22832175.0514   22832169.5834
     -1635.2684      -1274.2334         46.0004         41.0004
 -14326526.27643 -11113997.42742  21335309.0614   21335312.6294   21335308.7264
       286.8524        223.5244         49.0004         45.0004
  -3731643.73843  -2871010.69442  23863753.8124   23863757.6844   23863753.5294
      2674.8114       2084.2534         41.0004         37.0004
 -12598508.36043  -9774308.39142  22529922.4104   22529925.0174   22529922.3294
     -2753.1644      -2145.3224         46.0004         41.0004
                            4  1
RINEX FILE SPLICE; other post-header comments skipped       COMMENT
 04 12 24  0 15  0.0000000  0  7G 3G 1G19G15G14G11G22
 -23046884.38343 -17919053.61242  20691560.6724   20691565.0364   20691560.4684
     -1297.6374      -1011.1464         51.0004         46.0004
 -10517835.65343  -8149419.85642  22132748.9784   22132754.3954   22132748.7574
      3098.1364       2414.1264         47.0004         42.0004
 -19604505.55943 -15233040.57542  20706404.4864   20706405.9274   20706403.6224
       828.0374        645.2304         52.0004         47.0004
  -4529191.33943  -3482165.50842  22841516.2604   22841521.1784   22841515.5854
     -1639.4414      -1277.4874         46.0004         41.0004
 -14334828.75543 -11120466.89042  21333729.1464   21333732.6844   21333728.8314
       266.1564        207.3974         49.0004         45.0004
  -3811891.06843  -2933541.07642  23848483.2454   23848486.9534   23848482.9314
      2675.0514       2084.4474         41.0004         36.0004
 -12515851.39543  -9709900.40742  22545651.5644   22545654.1424   22545651.4594
     -2757.7134      -2148.8804         46.0004         41.0004
 04 12 24  0 15 30.0000000  0  7G 3G 1G19G15G14G11G22
 -23007696.51043 -17888517.63442  20699017.9034   20699022.2624   20699017.6754
     -1315.4104      -1024.9984         50.0004         46.0004
 -10610629.73143  -8221726.87342  22115090.9064   22115096.2454   22115090.5754
      3087.8164       2406.0964         47.0004         43.0004
 -19629083.94543 -15252192.56342  20701727.3734   20701728.8034   20701726.5084
       810.2644        631.3744         52.0004         47.0004
  -4479954.91243  -3443799.47942  22850885.6774   22850890.5674   22850884.9604
     -1643.4944      -1280.6464         46.0004         41.0004
 -14342519.58843 -11126459.74642  21332265.6174   21332269.2064   21332265.3074
       246.0664        191.7434         49.0004         45.0004
  -3892142.00843  -2996074.24642  23833211.8504   23833215.7144   23833211.5614
      2675.4244       2084.7434         41.0004         36.0004
 -12433066.35443  -9645392.63442  22561404.9204   22561407.5984   22561404.8804
     -2761.8264      -2152.0724         46.0004         41.0004
 04 12 24  0 16  0.0000000  0  7G 3G 1G19G15G14G11G22
 -22967969.21543 -17857561.32142  20706577.8094   20706582.1134   20706577.5854
     -1332.8524      -1038.5704         51.0004         46.0004
 -10703108.57243  -8293788.25142  22097492.7694   22097498.0694   22097492.4434
      3077.8244       2398.3024         47.0004         43.0004
 -19653119.81543 -15270921.82042  20697153.5104   20697154.9284   20697152.6534
       792.5384        617.5584         52.0004         47.0004
  -4430596.45843  -3405338.35442  22860278.3554   22860283.1694   22860277.6064
     -1646.7744      -1283.1934         46.0004         41.0004
 -14349599.45643 -11131976.53442  21330918.4474   21330921.9704   21330918.0964
       226.1224        176.2094         49.0004         45.0004
  -3972397.32543  -3058610.81342  23817939.9234   23817943.5274   23817939.4914
      2675.8334       2085.0714         41.0004         36.0004
 -12350156.38543  -9580787.50842  22577182.1344   22577184.8134   22577182.0594
     -2765.4224      -2154.8684         46.0004         41.0004
 04 12 24  0 16 30.0000000  0  7G 3G 1G19G15G14G11G22
 -22927702.00443 -17826184.30042  20714240.4824   20714244.7344   20714240.2364
     -1351.2034      -1052.8924         51.0004         46.0004
 -10795267.76043  -8365600.55942  22079955.4194   22079960.7364   22079955.0914
      3066.5424       2389.5144         47.0004         42.0004
 -19676610.71443 -15289226.41442  20692683.3524   20692684.7394   20692682.4974
       773.9264        603.0524         52.0004         47.0004
  -4381114.49043  -3366780.99842  22869694.3804   22869699.3214   22869693.6944
     -1651.4824      -1286.8664         46.0004         41.0004
 -14356066.86343 -11137016.07242  21329687.6984   21329691.2414   21329687.4014
       205.3214        159.9704         49.0004         45.0004
  -4052654.57643  -3121148.91342  23802667.3354   23802671.1134   23802666.9434
      2675.5064       2084.8114         41.0004         36.0004
 -12267122.04343  -9516085.45342  22592983.0334   22592985.7254   22592983.0314
     -2769.7784      -2158.2674         46.0004         41.0004
 04 12 24  0 17  0.0000000  0  7G 3G 1G19G15G14G11G22
 -22886897.11043 -17794388.30242  20722005.4194   20722009.6694   20722005.1794
     -1368.6574      -1066.4744         51.0004         46.0004
 -10887105.33943  -8437162.26942  22062479.2344   22062484.5534   22062478.9734
      3056.3594       2381.5644         47.0004         43.0004
 -19699556.14443 -15307105.97942  20688316.9074   20688318.3904   20688316.1204
       756.2344        589.2824         52.0004         48.0004
  -4331509.34043  -3328127.67942  22879133.8304   22879138.8994   22879133.1774
     -1654.9204      -1289.5464         45.0004         41.0004
 -14361922.27943 -11141578.73042  21328573.4884   21328577.0004   21328573.1704
       185.4644        144.5134         49.0004         45.0004
  -4132914.39743  -3183689.00342  23787394.2474   23787398.0454   23787393.9104
      2676.0904       2085.2734         41.0004         36.0004
 -12183966.28543  -9451288.79642  22608807.1804   22608809.8014   22608807.1224
     -2773.2604      -2160.9774         46.0004         41.0004
 04 12 24  0 17 30.0000000  0  7G 3G 1G19G15G14G11G22
 -22845555.00543 -17762173.70642  20729872.6384   20729876.8314   20729872.3614
     -1386.8864      -1080.6884         50.0004         46.0004
 -10978617.56043  -8508470.45042  22045065.0654   22045070.2684   22045064.7584
      3045.0944       2372.7974         47.0004         43.0004
 -19721954.08543 -15324558.92942  20684054.7314   20684056.2544   20684053.9464
       737.5794        574.7384         52.0004         48.0004
  -4281779.93043  -3289377.49342  22888597.0354   22888602.0744   22888596.3754
     -1659.7544      -1293.3194         45.0004         41.0004
 -14367164.86443 -11145663.86242  21327575.9124   21327579.3594   21327575.5854
       164.6864        128.3334         49.0004         45.0004
  -4213175.38643  -3246230.00942  23772121.0264   23772125.0334   23772120.6614
      2675.4864       2084.7964         41.0004         36.0004
 -12100690.46643  -9386398.60942  22624654.0254   22624656.7624   22624654.0104
     -2777.6864      -2164.4294         46.0004         41.0004
 04 12 24  0 18  0.0000000  0  7G 3G 1G19G15G14G11G22
 -22803677.22843 -17729541.69942  20737841.7014   20737845.9154   20737841.4504
     -1404.6554      -1094.5484         50.0004         46.0004
 -11069801.84943  -8579523.09442  22027713.1634   22027718.5004   22027712.9344
      3034.0494       2364.1824         47.0004         43.0004
 -19743803.80343 -15341584.69342  20679896.8734   20679898.3904   20679896.0754
       719.2934        560.4774         52.0004         48.0004
  -4231926.26843  -3250530.50842  22898083.9154   22898088.9364   22898083.1774
     -1663.5894      -1296.3064         45.0004         41.0004
 -14371794.80643 -11149271.61142  21326694.8244   21326698.3044   21326694.4954
       144.3324        112.4724         49.0004         45.0004
  -4293437.02343  -3308771.54642  23756847.5174   23756851.9224   23756847.4084
      2676.0944       2085.2654         41.0004         37.0004
 -12017297.01543  -9321416.72942  22640523.4014   22640526.0344   22640523.3274
     -2781.5594      -2167.4404         46.0004         41.0004
 04 12 24  0 18 30.0000000  0  7G 3G 1G19G15G14G11G22
 -22761264.18043 -17696492.60242  20745912.7164   20745916.8764   20745912.4244
     -1422.8934      -1108.7454         50.0004         46.0004
 -11160654.66243  -8650317.44942  22010424.4534   22010429.7654   22010424.2174
      3022.4534       2355.1444         47.0004         43.0004
 -19765103.28843 -15358181.70142  20675843.7274   20675845.2214   20675842.9134
       700.5544        545.8814         52.0004         48.0004
  -4181947.43743  -3211586.00742  22907594.5284   22907599.5934   22907593.7594
     -1668.2414      -1299.9254         45.0004         41.0004
 -14375811.22243 -11152401.28542  21325930.5304   21325933.9754   21325930.1804
       123.3184         96.0934         49.0004         45.0004
  -4373698.11643  -3371312.64242  23741574.1664   23741578.6594   23741573.9904
      2674.9584       2084.3874         41.0004         36.0004
 -11933787.25243  -9256344.24342  22656414.8034   22656417.5254   22656414.7744
     -2785.8724      -2170.8024         45.0004         41.0004
 04 12 24  0 19  0.0000000  0  7G 3G 1G19G15G14G11G22
 -22718317.78843 -17663027.90142  20754085.0874   20754089.3404   20754084.8624
     -1440.2864      -1122.2974         50.0004         46.0004
 -11251173.61543  -8720851.65142  21993199.2904   21993204.5454   21993198.9824
      3011.7014       2346.7824         48.0004         43.0004
 -19785852.04843 -15374349.57942  20671895.3814   20671896.8904   20671894.5484
       682.4654        531.7904         52.0004         48.0004
  -4131843.64343  -3172544.11142  22917129.0494   22917134.1444   22917128.2264
     -1672.0404      -1302.8824         45.0004         41.0004
 -14379214.39743 -11155053.11042  21325282.8684   21325286.3354   21325282.5914
       103.2954         80.4754         49.0004         45.0004
  -4453958.30943  -3433853.00942  23726301.2854   23726305.5694   23726300.8324
      2675.7364       2084.9954         41.0004         37.0004
 -11850163.45943  -9191182.89342  22672327.8344   22672330.6634   22672327.8304
     -2789.2044      -2173.4044         45.0004         41.0004
 04 12 24  0 19 30.0000000  0  7G 3G 1G19G15G14G11G22
 -22674838.92643 -17629148.28742  20762358.8064   20762363.1164   20762358.6244
     -1458.6854      -1136.6354         50.0004         46.0004
 -11341355.29343  -8791123.04942  21976038.2164   21976043.4584   21976037.9524
      3000.0324       2337.6934         48.0004         43.0004
 -19806048.47843 -15390087.06542  20668052.1294   20668053.6334   20668051.3054
       663.5944        517.0804         52.0004         48.0004
  -4081613.99643  -3133404.15342  22926687.3834   22926692.6034   22926686.6164
     -1676.8174      -1306.6074         45.0004         41.0004
 -14382003.52443 -11157226.45242  21324752.1344   21324755.6034   21324751.8434
        82.1624         64.0094         49.0004         45.0004
  -4534216.63343  -3496391.95942  23711028.5974   23711032.9214   23711028.2964
      2674.8804       2084.3274         41.0004         37.0004
 -11766427.46943  -9125934.11942  22688262.3854   22688265.1424   22688262.3504
     -2793.4814      -2176.7334         45.0004         41.0004
 04 12 24  0 20  0.0000000  0  7G 3G 1G19G15G14G11G22
 -22630828.77443 -17594854.68342  20770733.7024   20770737.9864   20770733.4834
     -1475.5254      -1149.7724         50.0004         46.0004
 -11431196.43343  -8861129.09742  21958942.0434   21958947.2014   21958941.7734
      2989.4104       2329.4054         48.0004         43.0004
 -19825691.23043 -15405393.11342  20664314.2354   20664315.7674   20664313.4164
       645.8794        503.2764         52.0004         48.0004
  -4031257.87943  -3094165.66142  22936269.7154   22936275.0364   22936269.0284
     -1680.1084      -1309.1754         45.0004         40.0004
 -14384178.57943 -11158921.29842  21324338.1904   21324341.6784   21324337.8954
        62.4454         48.6544         49.0004         45.0004
  -4614472.16243  -3558928.70342  23695756.4624   23695760.7154   23695756.2424
      2675.4934       2084.7904         41.0004         37.0004
 -11682581.14643  -9060599.37342  22704217.7644   22704220.7234   22704217.7914
     -2796.3804      -2178.9944         45.0004         41.0004
 04 12 24  0 20 30.0000000  0  7G 3G 1G19G15G14G11G22
 -22586288.77343 -17560148.21042  20779209.4464   20779213.6724   20779209.1974
     -1493.5334      -1163.8104         50.0004         46.0004
 -11520694.32043  -8930867.66742  21941911.1464   21941916.2624   21941910.8574
      2977.4384       2320.0814         48.0004         43.0004
 -19844779.12743 -15420266.81342  20660681.9674   20660683.4724   20660681.1284
       626.9984        488.5704         52.0004         48.0004
  -3980775.15443  -3054828.50542  22945876.2764   22945881.6124   22945875.6174
     -1684.6664      -1312.7264         45.0004         41.0004
 -14385739.60043 -11160137.67742  21324041.1404   21324044.5724   21324040.8324
        41.7094         32.4984         49.0004         45.0004
  -4694724.38643  -3621462.88442  23680485.1674   23680489.1784   23680484.9274
      2675.0114       2084.4284         42.0004         37.0004
 -11598626.39643  -8995180.14242  22720193.8414   22720196.8684   22720193.8184
     -2800.2824      -2182.0404         45.0004         41.0004
 04 12 24  0 21  0.0000000  0  7G 3G 1G19G15G14G11G22
 -22541219.82743 -17525029.56842  20787785.7724   20787789.9894   20787785.5234
     -1511.1074      -1177.4794         50.0004         46.0004
 -11609845.81443  -9000336.32042  21924946.1034   21924951.2574   21924945.8384
      2965.9024       2311.0854         48.0004         43.0004
 -19863310.92643 -15434707.18442  20657155.4804   20657156.9794   20657154.6364
       608.4014        474.0884         52.0004         48.0004
  -3930165.13043  -3015392.14742  22955507.1504   22955512.3674   22955506.4854
     -1689.1934      -1316.2574         45.0004         41.0004
 -14386686.02643 -11160875.15942  21323861.0464   21323864.5064   21323860.7044
        21.1684         16.5054         49.0004         45.0004
  -4774972.24443  -3683993.65642  23665214.4574   23665218.6194   23665214.2404
      2674.6814       2084.1604         42.0004         37.0004
 -11514564.89443  -8929677.71042  22736190.2614   22736193.2264   22736190.2634
     -2804.0044      -2184.9354         45.0004         41.0004
 04 12 24  0 21 30.0000000  0  7G 3G 1G19G15G14G11G22
 -22495623.04543 -17489499.63242  20796462.5884   20796466.7834   20796462.3264
     -1528.2744      -1190.8684         50.0004         46.0004
 -11698647.82243  -9069532.64342  21908047.6354   21908052.7564   21908047.3104
      2954.7434       2302.4054         48.0004         43.0004
 -19881285.31043 -15448713.21042  20653735.0294   20653736.5504   20653734.2294
       590.3124        459.9874         52.0004         48.0004
  -3879427.19743  -2975856.13542  22965162.2444   22965167.5244   22965161.5894
     -1692.9244      -1319.1584         45.0004         40.0004
 -14387018.02843 -11161133.85742  21323797.8454   21323801.2934   21323797.5464
         1.1634           .8914         49.0004         45.0004
  -4855214.81343  -3746520.31042  23649944.6014   23649948.9864   23649944.3404
      2674.8374       2084.2874         41.0004         37.0004
 -11430398.32843  -8864093.42642  22752206.5384   22752209.6144   22752206.6394
     -2806.8454      -2187.1504         45.0004         40.0004
 04 12 24  0 22  0.0000000  0  7G 3G 1G19G15G14G11G22
 -22449499.71443 -17453559.39342  20805239.6154   20805243.7944   20805239.3534
     -1545.7644      -1204.4814         50.0004         46.0004
 -11787097.37743  -9138454.32742  21891216.1044   21891221.3204   21891215.8534
      2942.6944       2293.0154         48.0004         43.0004
 -19898701.08643 -15462283.95542  20650420.8754   20650422.4344   20650420.1024
       571.7264        445.5024         52.0004         48.0004
  -3828560.91943  -2936220.10042  22974841.7454   22974847.0244   22974841.0774
     -1697.3254      -1322.5864         45.0004         40.0004
 -14386735.10843 -11160913.40642  21323851.6214   21323855.1184   21323851.3204
       -19.2964        -15.0344         49.0004         45.0004
  -4935451.44443  -3809042.34342  23634676.0964   23634680.3974   23634675.8044
      2674.9264       2084.3554         42.0004         37.0004
 -11346128.60443  -8798428.76042  22768242.6674   22768245.6614   22768242.6484
     -2810.4884      -2189.9894         45.0004         40.0004
 04 12 24  0 22 30.0000000  0  7G 3G 1G19G15G14G11G22
 -22402851.15743 -17417209.89342  20814116.5624   20814120.7454   20814116.2634
     -1564.0844      -1218.7704         50.0004         45.0004
 -11875191.50843  -9207099.05342  21874452.3584   21874457.5304   21874452.0154
      2930.2314       2283.2854         48.0004         43.0004
 -19915557.01443 -15475418.45342  20647213.3374   20647214.8764   20647212.5424
       552.2384        430.2994         52.0004         48.0004
  -3777565.81443  -2896483.68842  22984545.8224   22984551.0284   22984545.1404
     -1702.2284      -1326.4144         45.0004         40.0004
 -14385837.29643 -11160213.81942  21324022.4564   21324026.0164   21324022.1604
       -40.4374        -31.5264         49.0004         45.0004
  -5015681.01343  -3871558.85642  23619408.8854   23619413.1684   23619408.8434
      2673.9774       2083.6154         42.0004         37.0004
 -11261757.64043  -8732685.19042  22784297.8904   22784300.9934   22784297.9264
     -2814.3714      -2193.0174         45.0004         40.0004
 04 12 24  0 23  0.0000000  0  7G 3G 1G19G15G14G11G22
 -22355679.13543 -17380452.49842  20823093.1334   20823097.3264   20823092.8144
     -1580.6964      -1231.6874         50.0004         45.0004
 -11962927.61943  -9275464.80442  21857756.6774   21857761.8644   21857756.3344
      2919.0724       2274.5964         48.0004         43.0004
 -19931852.45343 -15488116.20642  20644112.4534   20644113.9584   20644111.6474
       534.3014        416.3294         52.0004         48.0004
  -3726441.87543  -2856646.88042  22994274.4254   22994279.6744   22994273.7844
     -1706.0764      -1329.4134         45.0004         41.0004
 -14384325.02243 -11159035.42442  21324310.2454   21324313.8194   21324309.9494
       -60.2354        -46.9454         49.0004         45.0004
  -5095903.07243  -3934069.52442  23604143.2154   23604147.3894   23604143.0664
      2674.6464       2084.1384         42.0004         38.0004
 -11177287.64843  -8666864.47642  22800372.0574   22800375.0344   22800372.0754
     -2816.8404      -2194.9334         45.0004         40.0004
 04 12 24  0 23 30.0000000  0  7G 3G 1G19G15G14G11G22
 -22307984.65343 -17343287.99642  20832169.0934   20832173.2834   20832168.7624
     -1598.8234      -1245.8374         50.0004         45.0004
 -12050302.56243  -9343549.13842  21841129.6774   21841134.9224   21841129.3824
      2906.0584       2264.4544         48.0004         43.0004
 -19947586.03343 -15500376.14642  20641118.4584   20641119.9624   20641117.6454
       514.6434        401.0234         52.0004         48.0004
  -3675188.30243  -2816709.06942  23004027.7404   23004032.8694   23004027.1114
     -1711.0434      -1333.2824         45.0004         40.0004
 -14382197.92243 -11157377.94842  21324714.9904   21324718.6044   21324714.7214
       -81.5574        -63.5614         49.0004         45.0004
  -5176116.52043  -3996573.50142  23588879.1524   23588883.3144   23588879.1064
      2673.2174       2083.0234         42.0004         38.0004
 -11092720.20243  -8600967.79342  22816464.7724   22816467.7264   22816464.7174
     -2820.8014      -2198.0294         45.0004         40.0004
 04 12 24  0 24  0.0000000  0  7G 3G 1G19G15G14G11G22
 -22259768.77443 -17305717.21042  20841344.2344   20841348.4764   20841343.9354
     -1616.0254      -1259.2514         50.0004         45.0004
 -12137313.05343  -9411349.46442  21824572.1004   21824577.3864   21824571.8204
      2894.1914       2255.2214         48.0004         43.0004
 -19962756.48743 -15512197.29042  20638231.5894   20638233.1194   20638230.8084
       496.0374        386.5144         52.0004         48.0004
  -3623804.53943  -2776669.80642  23013805.7484   23013810.9024   23013805.2174
     -1715.1334      -1336.4624         45.0004         40.0004
 -14379455.58143 -11155241.06342  21325236.9234   21325240.4874   21325236.6154
      -102.1134        -79.5694         49.0004         45.0004
  -5256320.28643  -4059069.92342  23573616.9704   23573620.9704   23573616.7354
      2673.0804       2082.9194         42.0004         37.0004
 -11008056.70943  -8534996.29642  22832575.7504   22832578.7314   22832575.7054
     -2823.8104      -2200.3734         45.0004         40.0004
 04 12 24  0 24 30.0000000  0  7G 3G 1G19G15G14G11G22
 -22211033.11843 -17267741.40742  20850618.2944   20850622.5804   20850618.0054
     -1634.0494      -1273.2984         50.0004         45.0004
 -12223956.41343  -9478863.71642  21808084.3874   21808089.6874   21808084.1014
      2880.9444       2244.8944         48.0004         43.0004
 -19977362.96743 -15523578.97542  20635452.0804   20635453.6224   20635451.3104
       476.6954        371.4454         52.0004         48.0004
  -3572290.35643  -2736528.91442  23023608.5984   23023613.8384   23023608.0584
     -1720.1514      -1340.3824         45.0004         40.0004
 -14376098.60143 -11152625.22742  21325875.6954   21325879.2854   21325875.4244
      -123.0254        -95.8824         49.0004         45.0004
  -5336514.14343  -4121558.61842  23558356.5704   23558360.6774   23558356.3594
      2672.0724       2082.1354         42.0004         38.0004
 -10923299.36243  -8468951.65842  22848704.5364   22848707.5994   22848704.5164
     -2827.5684      -2203.3004         45.0004         40.0004
 04 12 24  0 25  0.0000000  0  7G 3G 1G19G15G14G11G22
 -22161779.24243 -17229361.78742  20859990.9794   20859995.3284   20859990.7174
     -1650.3574      -1285.9734         50.0004         45.0004
 -12310229.76643  -9546089.65642  21791667.0184   21791672.3904   21791666.7584
      2869.6234       2236.0754         48.0004         43.0004
 -19991404.49943 -15534520.43742  20632780.1054   20632781.6424   20632779.3224
       458.6174        357.3694         52.0004         48.0004
  -3520645.36743  -2696286.11842  23033436.3364   23033441.6044   23033435.6984
     -1723.5514      -1343.0224         45.0004         40.0004
 -14372127.14743 -11149530.58242  21326631.4734   21326635.0254   21326631.1634
      -142.7534       -111.2334         49.0004         45.0004
  -5416696.57643  -4184038.39942  23543098.5074   23543102.4954   23543098.2694
