     2.10           OBSERVATION DATA    G (GPS)             RINEX VERSION / TYPE
teqc  2003Apr29                         20041227 00:22:54UTCPGM / RUN BY / DATE
OBSERVATION MODE: IGS-Net                                   COMMENT
PERT Perth (PERT)                                           MARKER NAME
50133M001                                                   MARKER NUMBER
200313003           ASHTECH UZ-12        CJ00               REC # / TYPE / VERS
CR620023901         ASH701945C_M    NONE                    ANT # / TYPE
        0.0595        0.0000        0.0000                  ANTENNA: DELTA H/E/N
  -2368687.1656  4881316.4713  -3341795.7045                APPROX POSITION XYZ
  115.88524963  -31.80196629  12.5559  LonLatAlt  S/W       COMMENT
Solaris 2.7|Ultra 2|cc SC5.0|=+-|*Sparc                     COMMENT
MSWin2000|IAx86-PII|bcc32 5.0|MSWin95->XP|486/DX+           COMMENT
BIT 2 OF LLI FLAGS DATA COLLECTED UNDER A/S CONDITION       COMMENT
AUTOMATIC           ESA/ESOC                                OBSERVER / AGENCY
     1     1                                                WAVELENGTH FACT L1/2
     9    L1    L2    C1    P2    P1    D1    D2    S1    S2# / TYPES OF OBSERV
    30.0000                                                 INTERVAL
 SNR is mapped to RINEX snr flag value [1-9]                COMMENT
  L1: 1 -> 1;  90 -> 5; 210 -> 9                            COMMENT
  L2: 1 -> 1; 150 -> 5; 250 -> 9                            COMMENT
pseudorange smoothing corrections not applied               COMMENT
Checked by ROCK 1.0 [26.12.04-00:18]; status 2: file fixed  COMMENT
    30                                                      # OF SATELLITES
   G01   636   638   639   638   636   636   638   636   638PRN / # OF OBS
   G02   914   918   923   918   914   914   918   914   918PRN / # OF OBS
   G03   680   690   696   690   680   680   690   680   690PRN / # OF OBS
   G04   863   871   876   871   863   863   871   863   871PRN / # OF OBS
   G05   786   788   788   788   786   786   788   786   788PRN / # OF OBS
   G06   805   809   812   809   805   805   809   805   809PRN / # OF OBS
   G07   579   590   602   590   579   579   590   579   590PRN / # OF OBS
   G08   823   826   827   826   823   823   826   823   826PRN / # OF OBS
   G09   761   768   778   768   761   761   768   761   768PRN / # OF OBS
   G10   815   825   839   825   815   815   825   815   825PRN / # OF OBS
   G11   726   727   746   727   726   726   727   726   727PRN / # OF OBS
   G13   835   839   849   839   835   835   839   835   839PRN / # OF OBS
   G14   734   738   741   738   734   734   738   734   738PRN / # OF OBS
   G15   843   848   848   848   843   843   848   843   848PRN / # OF OBS
   G16   587   590   595   590   587   587   590   587   590PRN / # OF OBS
   G17   677   687   693   687   677   677   687   677   687PRN / # OF OBS
   G18   690   698   706   698   690   690   698   690   698PRN / # OF OBS
   G19   667   670   674   670   667   667   670   667   670PRN / # OF OBS
   G20   769   771   774   771   769   769   771   769   771PRN / # OF OBS
   G21   707   708   710   708   707   707   708   707   708PRN / # OF OBS
   G22   695   701   704   701   695   695   701   695   701PRN / # OF OBS
   G23   847   850   854   850   847   847   850   847   850PRN / # OF OBS
   G24   841   850   854   850   841   841   850   841   850PRN / # OF OBS
   G25   792   800   816   800   792   792   800   792   800PRN / # OF OBS
   G26   620   625   629   625   620   620   625   620   625PRN / # OF OBS
   G27   702   705   706   705   702   702   705   702   705PRN / # OF OBS
   G28   642   646   648   646   642   642   646   642   646PRN / # OF OBS
   G29   609   614   620   614   609   609   614   609   614PRN / # OF OBS
   G30   820   821   826   821   820   820   821   820   821PRN / # OF OBS
   G31   764   772   782   772   764   764   772   764   772PRN / # OF OBS
Checked by ROCK 1.0 [27.12.04-00:25]; status 0: file OK     COMMENT
  2004    12    26     0     0    0.0000000     GPS         TIME OF FIRST OBS
  2004    12    26    23    59   30.0000000     GPS         TIME OF LAST OBS
                                                            END OF HEADER
 04 12 26  0  0  0.0000000  0  7G15G 1G11G19G14G22G 3
  -5810806.97943  -4474474.11242  22720117.5034   22720121.9164   22720116.9774
     -1586.5774      -1236.2884         46.0004         42.0004
  -9944752.00443  -7699908.21642  22377435.5474   22377440.8394   22377435.2074
      3230.0184       2516.8974         46.0004         42.0004
  -2842838.69543  -2182426.19542  24056998.5454   24057001.8374   24056998.4814
      2670.7224       2081.0914         41.0004         36.0004
 -19843815.74943 -15415619.32742  20778811.0604   20778812.4424   20778810.3034
      1067.3824        831.7354         52.0004         47.0004
 -13007980.56943 -10095973.12442  21365164.4114   21365167.7304   21365164.1534
       543.7144        423.6724         49.0004         44.0004
 -13598753.42543 -10552398.37542  22332657.7954   22332659.6704   22332657.8294
     -2692.5334      -2098.0724         47.0004         42.0004
 -23269333.12143 -18088266.11342  20599539.6404   20599543.5084   20599539.3624
     -1046.3414       -815.3234         51.0004         46.0004
 04 12 26  0  0 30.0000000  0  7G15G 1G11G19G14G22G 3
  -5763141.70643  -4437332.39142  22729187.8994   22729192.3844   22729187.3804
     -1591.0354      -1239.7714         46.0004         41.0004
 -10041511.42243  -7775305.11242  22359022.8514   22359028.1134   22359022.4974
      3220.6974       2509.6354         46.0004         42.0004
  -2922967.66843  -2244864.33042  24041750.6204   24041753.7214   24041750.3934
      2671.0544       2081.3424         41.0004         37.0004
 -19875571.09343 -15440363.75942  20772768.2304   20772769.5874   20772767.4714
      1049.6604        817.9014         51.0004         47.0004
 -13023988.22343 -10108446.62142  21362118.2694   21362121.5334   21362118.0154
       523.6834        408.0714         49.0004         44.0004
 -13517896.13043 -10489392.71642  22348044.5054   22348046.3424   22348044.5174
     -2697.7554      -2102.1484         47.0004         42.0004
 -23237662.02243 -18063587.36142  20605566.4604   20605570.3494   20605566.1754
     -1064.9374       -829.8144         51.0004         46.0004
 04 12 26  0  1  0.0000000  0  7G15G 1G11G19G14G22G 3
  -5715360.41143  -4400100.25442  22738280.3594   22738284.9034   22738279.9004
     -1594.4794      -1242.4454         46.0004         41.0004
 -10137997.06643  -7850488.67942  22340662.2034   22340667.4064   22340661.8664
      3211.8604       2502.7494         46.0004         42.0004
  -3003109.70343  -2307312.63342  24026500.1944   24026503.4024   24026499.9324
      2671.7994       2081.9184         41.0004         37.0004
 -19906804.42943 -15464701.42842  20766824.7934   20766826.0974   20766823.9724
      1032.5554        804.6014         51.0004         47.0004
 -13039393.05443 -10120450.37242  21359186.7764   21359190.1414   21359186.5594
       503.5204        392.3484         49.0004         45.0004
 -13436886.11743 -10426268.06842  22363460.1854   22363462.1074   22363460.2014
     -2702.5744      -2105.8984         47.0004         42.0004
 -23205439.03943 -18038478.57142  20611698.2684   20611702.2244   20611697.9994
     -1083.0964       -843.9624         51.0004         46.0004
 04 12 26  0  1 30.0000000  0  7G15G 1G11G19G14G22G 3
  -5667462.82943  -4362777.50542  22747395.1324   22747399.4994   22747394.5964
     -1598.2074      -1245.3534         46.0004         41.0004
 -10234205.94743  -7925456.59342  22322354.2334   22322359.3944   22322353.8734
      3202.4884       2495.4384         46.0004         42.0004
  -3083264.45843  -2369770.86442  24011247.0784   24011250.4324   24011246.7834
      2672.0614       2082.1204         41.0004         36.0004
 -19937514.30943 -15488631.20642  20760980.8854   20760982.2344   20760980.0724
      1015.0944        790.9794         52.0004         47.0004
 -13054194.47443 -10131983.94042  21356370.1924   21356373.5494   21356369.9614
       483.5394        376.7854         49.0004         45.0004
 -13355725.56443 -10363026.11142  22378904.6224   22378906.4684   22378904.5654
     -2707.8054      -2109.9854         47.0004         42.0004
 -23172665.14143 -18012940.48642  20617934.9694   20617938.9024   20617934.6764
     -1101.4794       -858.3034         51.0004         46.0004
 04 12 26  0  2  0.0000000  0  7G15G 1G11G19G14G22G 3
  -5619447.85243  -4325363.28942  22756532.1294   22756536.4604   22756531.5754
     -1603.0044      -1249.0894         46.0004         41.0004
 -10330134.38243  -8000205.97542  22304099.5294   22304104.7804   22304099.2724
      3192.4384       2487.6144         46.0004         42.0004
  -3163430.57043  -2432237.94942  23995991.7534   23995995.0594   23995991.5094
      2671.7684       2081.8984         41.0004         36.0004
 -19967698.29543 -15512151.20242  20755237.0644   20755238.4204   20755236.2624
       996.8294        776.7544         52.0004         47.0004
 -13068391.10543 -10143046.24442  21353668.7334   21353672.0274   21353668.4144
       462.4514        360.3404         49.0004         44.0004
 -13274415.75843 -10299667.85242  22394377.4404   22394379.1154   22394377.3434
     -2713.2854      -2114.2324         46.0004         42.0004
 -23139340.52643 -17986973.28242  20624276.4614   20624280.4064   20624276.1444
     -1120.4904       -873.1204         51.0004         46.0004
 04 12 26  0  2 30.0000000  0  7G15G 1G11G19G14G22G 3
  -5571314.96943  -4287857.17842  22765691.6124   22765695.8624   22765691.0384
     -1606.2444      -1251.6244         46.0004         41.0004
 -10425779.25043  -8074734.38242  22285898.9374   22285904.0964   22285898.6374
      3183.5234       2480.6664         46.0004         42.0004
  -3243607.89043  -2494713.77642  23980734.2914   23980737.8434   23980734.1464
      2672.7074       2082.6334         41.0004         36.0004
 -19997354.80643 -15535260.17542  20749593.6794   20749594.9734   20749592.8244
       979.9784        763.6274         52.0004         47.0004
 -13081982.27243 -10153636.75242  21351082.4254   21351085.6744   21351082.0864
       443.1554        345.3144         49.0004         44.0004
 -13192959.02843 -10236195.10742  22409878.0904   22409879.7904   22409878.0604
     -2717.4424      -2117.4734         46.0004         42.0004
 -23105466.01043 -17960577.58242  20630722.5344   20630726.5154   20630722.2444
     -1138.1024       -886.8324         51.0004         46.0004
 04 12 26  0  3  0.0000000  0  7G15G 1G11G19G14G22G 3
  -5523064.44643  -4250259.40642  22774873.4034   22774877.6574   22774872.7934
     -1610.0334      -1254.5724         46.0004         41.0004
 -10521138.01143  -8149039.87042  22267752.7144   22267757.9084   22267752.4574
      3173.9354       2473.1924         46.0004         42.0004
  -3323795.81943  -2557197.85642  23965474.9564   23965478.7294   23965474.8184
      2673.4354       2083.1904         41.0004         37.0004
 -20026482.99143 -15557957.46742  20744050.7524   20744052.0774   20744049.9034
       962.4014        749.9164         52.0004         47.0004
 -13094968.11943 -10163755.59542  21348611.2814   21348614.5324   21348610.9444
       422.9174        329.5224         49.0004         45.0004
 -13111357.94943 -10172609.88142  22425406.2304   22425408.0034   22425406.2534
     -2722.3134      -2121.2834         46.0004         42.0004
 -23071043.00543 -17933754.48342  20637272.9514   20637277.0164   20637272.7394
     -1156.3714       -901.0694         51.0004         46.0004
 04 12 26  0  3 30.0000000  0  7G15G 1G11G19G14G22G 3
  -5474695.64743  -4212569.48642  22784077.6084   22784081.9614   22784077.0604
     -1614.0604      -1257.7004         46.0004         41.0004
 -10616207.57143  -8223119.99442  22249661.5614   22249666.7424   22249661.2874
      3164.3344       2465.7164         47.0004         42.0004
  -3403993.62343  -2619689.61442  23950213.5694   23950217.6364   23950213.5694
      2673.8054       2083.4784         42.0004         37.0004
 -20055081.12143 -15580241.72842  20738608.6814   20738610.0224   20738607.8614
       944.6474        736.0914         52.0004         47.0004
 -13107347.44943 -10173401.81342  21346255.5294   21346258.8374   21346255.2344
       402.7874        313.8694         49.0004         45.0004
 -13029614.45743 -10108913.69042  22440961.4624   22440963.3134   22440961.5014
     -2726.8054      -2124.7844         46.0004         42.0004
 -23036072.22643 -17906504.55242  20643927.6884   20643931.7284   20643927.4564
     -1174.5824       -915.2564         50.0004         46.0004
 04 12 26  0  4  0.0000000  0  7G15G 1G11G19G14G22G 3
  -5426207.04743  -4174786.19242  22793304.7474   22793309.0384   22793304.1584
     -1618.8894      -1261.4844         46.0004         41.0004
 -10710983.63143  -8296971.42342  22231626.2784   22231631.3634   22231625.9754
      3153.5584       2457.3144         47.0004         42.0004
  -3484199.66143  -2682187.80842  23934950.9604   23934954.9324   23934950.8414
      2673.0384       2082.8834         41.0004         37.0004
 -20083146.60043 -15602110.93542  20733268.0404   20733269.3264   20733267.2084
       926.0124        721.5764         52.0004         47.0004
 -13119118.88443 -10182574.35742  21344015.5014   21344018.9094   21344015.2244
       381.5854        297.3334         49.0004         45.0004
 -12947729.28243 -10045107.09142  22456543.8214   22456545.6284   22456543.8174
     -2732.3634      -2129.1204         46.0004         42.0004
 -23000553.32743 -17878827.51442  20650686.7084   20650690.7654   20650686.5054
     -1193.6574       -930.1304         50.0004         46.0004
 04 12 26  0  4 30.0000000  0  7G15G 1G11G19G14G22G 3
  -5377599.11143  -4136909.92342  22802554.6104   22802558.9284   22802554.0164
     -1622.0214      -1263.9134         46.0004         41.0004
 -10805464.04043  -8370592.47642  22213647.1424   22213652.2244   22213646.9214
      3144.7864       2450.4724         47.0004         42.0004
  -3564414.13843  -2744692.55842  23919686.5644   23919690.4864   23919686.3954
      2674.2524       2083.8284         41.0004         37.0004
 -20110678.71543 -15623564.54042  20728028.8664   20728030.1214   20728028.0494
       909.2334        708.5074         52.0004         47.0004
 -13130282.34343 -10191273.14642  21341891.1304   21341894.5954   21341890.8634
       362.2374        282.2724         49.0004         45.0004
 -12865705.45843  -9981192.46942  22472152.4594   22472154.2444   22472152.4404
     -2736.0804      -2132.0004         46.0004         41.0004
 -22964488.13843 -17850724.79342  20657549.7144   20657553.7764   20657549.5174
     -1210.9114       -943.5464         50.0004         46.0004
 04 12 26  0  5  0.0000000  0  7G15G 1G11G19G14G22G 3
  -5328871.68043  -4098940.53342  22811827.1694   22811831.4974   22811826.5524
     -1626.2264      -1267.1914         46.0004         41.0004
 -10899645.82443  -8443980.84642  22195724.8964   22195729.9564   22195724.7144
      3134.2694       2442.2904         47.0004         42.0004
  -3644636.35643  -2807203.35642  23904421.0324   23904424.5664   23904420.6724
      2673.8354       2083.5114         41.0004         37.0004
 -20137676.05943 -15644601.43742  20722891.4444   20722892.7134   20722890.6124
       891.0024        694.2924         52.0004         47.0004
 -13140837.33543 -10199497.79942  21339882.6044   21339885.9794   21339882.3364
       341.6104        266.2064         49.0004         45.0004
 -12783545.00043  -9917171.37542  22487787.0664   22487788.9544   22487787.0104
     -2741.0174      -2135.8584         46.0004         42.0004
 -22927877.51543 -17822197.05142  20664516.4824   20664520.5844   20664516.2744
     -1229.4024       -957.9744         50.0004         46.0004
 04 12 26  0  5 30.0000000  0  7G15G 1G11G19G14G22G 3
  -5280024.71843  -4060878.00142  22821122.4114   22821126.7844   22821121.8494
     -1630.7934      -1270.7534         46.0004         41.0004
 -10993526.33843  -8517134.44742  22177860.0834   22177865.0534   22177859.8384
      3123.9144       2434.2294         47.0004         42.0004
  -3724866.15043  -2869720.04342  23889153.7784   23889157.1244   23889153.4754
      2674.0024       2083.6254         41.0004         36.0004
 -20164137.57443 -15665220.80942  20717856.0194   20717857.2764   20717855.1704
       872.6584        680.0014         52.0004         47.0004
 -13150783.84443 -10207248.31842  21337989.8814   21337993.1814   21337989.5484
       320.9094        250.0424         49.0004         44.0004
 -12701250.34543  -9853045.69642  22503447.3404   22503449.1454   22503447.1994
     -2745.8574      -2139.6314         46.0004         42.0004
 -22890722.79343 -17793245.34942  20671586.7784   20671590.9204   20671586.6024
     -1248.0844       -972.5414         50.0004         46.0004
 04 12 26  0  6  0.0000000  0  7G15G 1G11G19G14G22G 3
  -5231056.73843  -4022721.17542  22830440.8534   22830445.2124   22830440.2604
     -1634.4774      -1273.6184         46.0004         41.0004
 -11087101.62443  -8590050.21842  22160053.2974   22160058.2414   22160053.0084
      3113.8034       2426.3334         47.0004         42.0004
  -3805101.83043  -2932241.29442  23873885.4544   23873888.8734   23873885.1434
      2674.5114       2084.0334         41.0004         37.0004
 -20190060.80543 -15685420.73242  20712923.0344   20712924.2664   20712922.1714
       855.0584        666.2644         52.0004         47.0004
 -13160120.39543 -10214523.54542  21336213.2314   21336216.5104   21336212.8824
       300.9634        234.5114         49.0004         45.0004
 -12618822.62543  -9788816.34242  22519132.7414   22519134.6694   22519132.7254
     -2749.9564      -2142.8234         46.0004         41.0004
 -22853024.33843 -17763869.95142  20678760.6034   20678764.7254   20678760.4014
     -1265.7614       -986.2994         50.0004         46.0004
 04 12 26  0  6 30.0000000  0  7G15G 1G11G19G14G22G 3
  -5181967.28843  -3984469.68142  22839782.2334   22839786.7414   22839781.6554
     -1638.9584      -1277.1084         46.0004         41.0004
 -11180368.66143  -8662725.79842  22142305.1054   22142310.1034   22142304.8064
      3103.2434       2418.1164         47.0004         42.0004
  -3885343.07843  -2994766.95542  23858616.0114   23858619.4894   23858615.7994
      2674.2374       2083.8214         41.0004         37.0004
 -20215444.48943 -15705200.23842  20708092.7114   20708093.9314   20708091.8414
       836.5744        651.8744         52.0004         47.0004
 -13168846.51543 -10221323.11342  21334552.7484   21334555.9884   21334552.3814
       280.1134        218.2624         49.0004         45.0004
 -12536263.97643  -9724484.97542  22534843.1534   22534845.1434   22534843.1234
     -2754.7124      -2146.5354         46.0004         42.0004
 -22814782.88043 -17734071.43842  20686037.7174   20686041.8514   20686037.5334
     -1284.3034      -1000.7504         50.0004         46.0004
 04 12 26  0  7  0.0000000  0  7G15G 1G11G19G14G22G 3
  -5132756.39643  -3946123.58442  22849146.7704   22849151.2614   22849146.1454
     -1641.9924      -1279.4724         46.0004         41.0004
 -11273324.99343  -8735159.26442  22124615.9524   22124621.0954   22124615.7734
      3093.5794       2410.5824         47.0004         42.0004
  -3965589.59843  -3057296.68542  23843345.4124   23843348.9174   23843345.2424
      2674.9974       2084.4294         41.0004         36.0004
 -20240287.80043 -15724558.66642  20703365.2434   20703366.3714   20703364.3294
       819.2334        638.3724         52.0004         47.0004
 -13176962.36243 -10227647.13642  21333008.3584   21333011.5554   21333008.0114
       260.5224        203.0114         49.0004         45.0004
 -12453576.70343  -9660053.36542  22550578.0754   22550580.0334   22550578.0584
     -2758.3144      -2149.3354         46.0004         41.0004
 -22775999.89843 -17703850.96042  20693417.8884   20693422.0294   20693417.7234
     -1301.6134      -1014.2464         50.0004         46.0004
 04 12 26  0  7 30.0000000  0  7G15G 1G11G19G14G22G 3
  -5083423.17743  -3907682.13542  22858534.6854   22858539.1524   22858534.0574
     -1646.3464      -1282.8704         46.0004         41.0004
 -11365966.74043  -8807347.60642  22106986.9474   22106991.9284   22106986.6764
      3082.9874       2402.3254         47.0004         42.0004
  -4045840.07143  -3119829.47742  23828074.1384   23828077.7704   23828073.9374
      2675.3014       2084.6474         41.0004         36.0004
 -20264588.62443 -15743494.39042  20698740.9704   20698742.0744   20698740.0324
       801.0554        624.1994         52.0004         47.0004
 -13184466.92343 -10233494.84542  21331580.2534   21331583.4874   21331579.9094
       240.0754        187.0604         49.0004         45.0004
 -12370762.26843  -9595522.68542  22566337.1184   22566339.1434   22566337.0844
     -2762.5754      -2152.6644         46.0004         41.0004
 -22736675.86643 -17673208.88042  20700901.0634   20700905.1564   20700900.8624
     -1319.7644      -1028.3904         50.0004         46.0004
 04 12 26  0  8  0.0000000  0  7G15G 1G11G19G14G22G 3
  -5033966.91143  -3869144.81742  22867945.9194   22867950.4414   22867945.2724
     -1651.5334      -1286.9094         46.0004         41.0004
 -11458290.97943  -8879288.53942  22089418.2674   22089423.1864   22089417.9114
      3071.4104       2393.3114         47.0004         43.0004
  -4126093.52143  -3182364.60342  23812802.5054   23812805.9894   23812802.0604
      2674.3394       2083.9034         41.0004         37.0004
 -20288345.54643 -15762006.28342  20694220.1834   20694221.2784   20694219.2534
       781.9564        609.3164         52.0004         47.0004
 -13191359.45343 -10238865.64042  21330268.7464   21330271.8584   21330268.3364
       218.7584        170.4804         49.0004         45.0004
 -12287822.78143  -9530894.55442  22582119.8674   22582121.9884   22582119.9334
     -2767.5534      -2156.5344         46.0004         41.0004
 -22696811.80143 -17642145.99042  20708487.0104   20708491.0544   20708486.7854
     -1338.6174      -1043.0864         50.0004         46.0004
 04 12 26  0  8 30.0000000  0  7G15G 1G11G19G14G22G 3
  -4984388.18143  -3830512.08642  22877380.4154   22877385.0054   22877379.7424
     -1654.9514      -1289.5704         45.0004         41.0004
 -11550295.41543  -8950980.27942  22071910.2944   22071915.2694   22071910.0294
      3061.1794       2385.3264         47.0004         42.0004
  -4206350.19443  -3244902.24842  23797529.9454   23797533.6254   23797529.7284
      2675.2034       2084.5834         41.0004         36.0004
 -20311557.97643 -15780093.89442  20689802.9744   20689804.1204   20689802.0584
       764.4304        595.6444         52.0004         48.0004
 -13197640.74343 -10243760.14342  21329073.4554   21329076.5814   21329073.0784
       198.9514        155.0164         49.0004         45.0004
 -12204760.86943  -9466171.02442  22597926.1844   22597928.1724   22597926.1604
     -2771.1464      -2159.3414         46.0004         41.0004
 -22656409.53843 -17610663.73642  20716175.3344   20716179.3594   20716175.1014
     -1355.8934      -1056.5484         50.0004         46.0004
 04 12 26  0  9  0.0000000  0  7G15G 1G11G19G14G22G 3
  -4934686.20343  -3791783.29442  22886838.3294   22886842.9754   22886837.7034
     -1658.7854      -1292.5644         45.0004         41.0004
 -11641976.67743  -9022420.19242  22054463.9214   22054468.8294   22054463.6564
      3050.5004       2377.0064         47.0004         43.0004
  -4286608.92943  -3307441.48042  23782256.9974   23782260.8644   23782256.8664
      2675.4504       2084.7614         41.0004         36.0004
 -20334224.19043 -15797755.88342  20685489.6804   20685490.9354   20685488.8124
       746.1954        581.4544         52.0004         47.0004
 -13203309.92443 -10248177.68142  21327994.6044   21327997.7664   21327994.2654
       178.7734        139.2974         49.0004         45.0004
 -12121577.99443  -9401353.24642  22613755.3514   22613757.3894   22613755.3724
     -2774.9234      -2162.2844         46.0004         41.0004
 -22615469.62843 -17578762.53342  20723965.9844   20723970.0124   20723965.7624
     -1373.6614      -1070.3764         50.0004         46.0004
 04 12 26  0  9 30.0000000  0  7G15G 1G11G19G14G22G 3
  -4884859.54343  -3752957.34342  22896320.1484   22896324.7044   22896319.4034
     -1662.5634      -1295.5104         45.0004         41.0004
 -11733330.70443  -9093605.11542  22037079.9254   22037084.7414   22037079.5664
      3040.3274       2369.0824         47.0004         43.0004
  -4366868.03543  -3369981.01742  23766984.1214   23766988.1494   23766984.0484
      2675.9794       2085.1954         41.0004         36.0004
 -20356341.86443 -15814990.44342  20681280.8344   20681282.1064   20681279.9814
       728.7334        567.8474         52.0004         48.0004
 -13208365.56143 -10252117.13642  21327032.5584   21327035.6824   21327032.2254
       158.8694        123.8024         49.0004         45.0004
 -12038275.06543  -9336441.91542  22629607.4494   22629609.4994   22629607.4564
     -2778.2404      -2164.8654         46.0004         41.0004
 -22573992.45943 -17546442.69042  20731858.8704   20731862.8764   20731858.6514
     -1390.9354      -1083.8314         50.0004         46.0004
 04 12 26  0 10  0.0000000  0  7G15G 1G11G19G14G22G 3
  -4834908.27443  -3714034.31742  22905825.5054   22905830.1474   22905824.6964
     -1666.7894      -1298.7954         45.0004         41.0004
 -11824355.30443  -9164533.34942  22019758.4484   22019763.3134   22019758.1844
      3028.9984       2360.2694         47.0004         43.0004
  -4447127.36243  -3432520.72742  23751711.1134   23751715.2364   23751711.1314
      2675.6744       2084.9374         41.0004         37.0004
 -20377910.50443 -15831797.18042  20677176.4714   20677177.7154   20677175.5864
       710.1054        553.3384         52.0004         48.0004
 -13212808.22443 -10255578.94742  21326187.1234   21326190.2804   21326186.7754
       138.1384        107.6464         49.0004         45.0004
 -11954854.77643  -9271439.12742  22645481.7364   22645483.9394   22645481.8624
     -2782.3434      -2168.0504         45.0004         41.0004
 -22531979.80743 -17513705.58642  20739853.5824   20739857.6554   20739853.3954
     -1409.1494      -1098.0324         50.0004         46.0004
 04 12 26  0 10 30.0000000  0  7G15G 1G11G19G14G22G 3
  -4784832.12743  -3675013.98242  22915354.6494   22915359.3654   22915353.9114
     -1671.4484      -1302.4234         45.0004         41.0004
 -11915047.48443  -9235202.54342  22002500.3364   22002505.1504   22002500.0004
      3017.2594       2351.1184         47.0004         43.0004
  -4527386.37443  -3495060.19142  23736438.2204   23736442.4184   23736438.0964
      2675.0684       2084.4794         41.0004         36.0004
 -20398929.08143 -15848175.29942  20673176.8104   20673178.0264   20673175.9164
       691.3164        538.6914         52.0004         48.0004
 -13216637.59843 -10258562.86742  21325458.4034   21325461.5244   21325458.0744
       117.1304         91.2744         49.0004         45.0004
 -11871319.25043  -9206346.55942  22661378.0864   22661380.3134   22661378.1564
     -2786.6994      -2171.4514         45.0004         41.0004
 -22489432.62043 -17480551.95742  20747950.0644   20747954.1504   20747949.8734
     -1427.3384      -1112.2134         50.0004         46.0004
 04 12 26  0 11  0.0000000  0  7G15G 1G11G19G14G22G 3
  -4734630.99143  -3635896.24742  22924907.6884   22924912.3344   22924907.0014
     -1675.2004      -1305.3474         45.0004         41.0004
 -12005404.45143  -9305610.53942  21985305.8634   21985310.7534   21985305.5714
      3006.5894       2342.8034         48.0004         43.0004
  -4607644.51643  -3557598.97542  23721165.6564   23721169.7724   23721165.4714
      2675.8354       2085.0654         41.0004         37.0004
 -20419396.16443 -15864123.68642  20669282.0624   20669283.2714   20669281.1784
       673.3244        524.6844         52.0004         48.0004
 -13219853.67643 -10261068.89942  21324846.4724   21324849.5104   21324846.0814
        97.2694         75.8054         49.0004         45.0004
 -11787670.73643  -9141165.94542  22677295.8844   22677298.1504   22677295.9954
     -2790.0574      -2174.0674         45.0004         41.0004
 -22446352.43243 -17446983.00342  20756147.9994   20756152.0634   20756147.7844
     -1444.5604      -1125.6274         50.0004         46.0004
 04 12 26  0 11 30.0000000  0  7G15G 1G11G19G14G22G 3
  -4684303.23643  -3596679.85642  22934484.6244   22934489.4384   22934483.9854
     -1680.0984      -1309.1614         45.0004         41.0004
 -12095422.00943  -9375754.05342  21968176.0984   21968180.8944   21968175.8114
      2994.5384       2333.4024         48.0004         43.0004
  -4687899.66243  -3620135.43642  23705893.7484   23705897.6584   23705893.4724
      2674.5584       2084.0674         41.0004         37.0004
 -20439309.48743 -15879640.57142  20665492.6754   20665493.9114   20665491.8324
       654.1534        509.7384         52.0004         48.0004
 -13222454.98343 -10263095.89042  21324351.4094   21324354.5074   21324351.0394
        76.3094         59.4774         49.0004         45.0004
 -11703909.67443  -9075897.63142  22693235.1774   22693237.4414   22693235.2834
     -2794.2704      -2177.3594         45.0004         41.0004
 -22402739.59043 -17412998.99542  20764447.2414   20764451.3234   20764447.0204
     -1463.1004      -1140.0704         50.0004         46.0004
 04 12 26  0 12  0.0000000  0  7G15G 1G11G19G14G22G 3
  -4633849.79143  -3557365.53542  22944085.5784   22944090.4274   22944085.0104
     -1684.0114      -1312.2074         45.0004         41.0004
 -12185098.46943  -9445631.77742  21951111.2324   21951115.9984   21951110.9354
      2983.2344       2324.6024         48.0004         43.0004
  -4768152.52343  -3682670.10842  23690622.2774   23690625.9354   23690621.8424
      2674.9694       2084.3874         41.0004         37.0004
 -20458669.22143 -15894726.08842  20661808.6314   20661809.8674   20661807.7914
       635.8304        495.4584         52.0004         48.0004
 -13224442.94043 -10264644.94242  21323973.0504   21323976.1734   21323972.6784
        55.7554         43.4724         49.0004         45.0004
 -11620039.48943  -9010544.29442  22709195.1344   22709197.4404   22709195.1824
     -2797.6674      -2180.0044         45.0004         41.0004
 -22358596.41043 -17378601.73842  20772847.5074   20772851.4844   20772847.2394
     -1480.5244      -1153.6324         50.0004         46.0004
 04 12 26  0 12 30.0000000  0  7G15G 1G11G19G14G22G 3
  -4583268.76443  -3517951.79242  22953711.0034   22953715.7384   22953710.3804
     -1688.1224      -1315.4244         45.0004         41.0004
 -12274429.65143  -9515240.45842  21934112.0174   21934116.7734   21934111.7264
      2972.0634       2315.8854         48.0004         43.0004
  -4848400.85343  -3745201.25542  23675351.4994   23675355.1314   23675351.0374
      2674.9684       2084.3944         42.0004         37.0004
 -20477472.89743 -15909378.31442  20658230.4464   20658231.6624   20658229.5894
       617.5294        481.2004         52.0004         48.0004
 -13225815.94043 -10265714.80842  21323711.7684   21323714.8844   21323711.4024
        35.4364         27.6094         49.0004         45.0004
 -11536060.65743  -8945106.28942  22725175.7584   22725178.1284   22725175.7564
     -2801.0104      -2182.6004         45.0004         41.0004
 -22313922.71343 -17343791.08742  20781348.6564   20781352.6084   20781348.3924
     -1497.9264      -1167.2124         50.0004         46.0004
 04 12 26  0 13  0.0000000  0  7G15G 1G11G19G14G22G 3
  -4532560.57543  -3478438.96242  22963360.3504   22963365.2404   22963359.8164
     -1691.9914      -1318.4354         45.0004         40.0004
 -12363413.26743  -9584578.31442  21917178.9424   21917183.7474   21917178.6914
      2960.7694       2307.0924         48.0004         43.0004
  -4928644.78943  -3807728.98042  23660081.3934   23660085.2104   23660081.0944
      2675.0174       2084.4274         42.0004         37.0004
 -20495719.98743 -15923596.83742  20654758.1334   20654759.3674   20654757.3004
       599.5404        467.1794         52.0004         48.0004
 -13226574.54843 -10266305.93442  21323567.4244   21323570.5074   21323567.0654
        15.6634         12.2094         49.0004         45.0004
 -11451975.83943  -8879585.68642  22741176.5624   22741178.9594   22741176.6754
     -2803.9904      -2184.9224         45.0004         40.0004
 -22268720.56543 -17308568.66142  20789950.3134   20789954.2674   20789950.0804
     -1514.9884      -1180.5154         50.0004         46.0004
 04 12 26  0 13 30.0000000  0  7G15G 1G11G19G14G22G 3
  -4481724.83443  -3438826.74742  22973034.0464   22973038.9704   22973033.4724
     -1697.0264      -1322.3554         45.0004         40.0004
 -12452046.22743  -9653642.92242  21900312.6184   21900317.4344   21900312.3744
      2948.0584       2297.1864         48.0004         43.0004
  -5008883.67243  -3870252.78142  23644812.3354   23644816.1024   23644812.0594
      2674.2514       2083.8324         42.0004         37.0004
 -20513409.58843 -15937380.95142  20651391.8544   20651393.1114   20651391.0504
       579.8384        451.8204         52.0004         48.0004
 -13226718.65343 -10266418.21642  21323539.9734   21323543.0554   21323539.6054
        -5.9544         -4.6384         49.0004         45.0004
 -11367786.89243  -8813983.95942  22757197.0914   22757199.5474   22757197.2954
     -2808.2704      -2188.2564         45.0004         40.0004
 -22222991.29843 -17272935.49442  20798652.3454   20798656.2624   20798652.0974
     -1533.7034      -1195.0854         50.0004         46.0004
 04 12 26  0 14  0.0000000  0  7G15G 1G11G19G14G22G 3
  -4430761.14543  -3399114.82742  22982732.2444   22982737.0264   22982731.5774
     -1701.1254      -1325.5504         45.0004         40.0004
 -12540325.77443  -9722432.13942  21883513.5384   21883518.3294   21883513.2474
      2936.6254       2288.2744         48.0004         43.0004
  -5089116.47143  -3932771.84442  23629544.7404   23629548.3424   23629544.3554
      2674.5074       2084.0374         42.0004         37.0004
 -20530540.36443 -15950729.61542  20648131.9584   20648133.2604   20648131.1754
       561.5174        437.5434         52.0004         48.0004
 -13226248.37243 -10266051.76842  21323629.4044   21323632.4834   21323629.0314
       -26.2684        -20.4764         49.0004         45.0004
 -11283495.86343  -8748302.68042  22773237.3864   22773239.6624   22773237.3864
     -2811.6424      -2190.8914         45.0004         40.0004
 -22176736.41443 -17236892.75542  20807454.4224   20807458.3124   20807454.1404
     -1550.7054      -1208.3384         50.0004         46.0004
 04 12 26  0 14 30.0000000  0  7G15G 1G11G19G14G22G 3
  -4379668.71043  -3359302.57942  22992454.8294   22992459.6934   22992454.2184
     -1705.4534      -1328.9134         45.0004         41.0004
 -12628248.50843  -9790943.31742  21866782.2934   21866787.1854   21866782.0574
      2924.3174       2278.6804         48.0004         43.0004
  -5169341.97743  -3995285.21042  23614278.3564   23614281.9634   23614278.0334
      2673.9264       2083.5804         42.0004         37.0004
 -20547110.84743 -15963641.69142  20644978.7244   20644980.0144   20644977.9124
       542.5604        422.7814         52.0004         48.0004
 -13225163.12443 -10265206.11542  21323835.8974   21323839.0894   21323835.5754
       -46.8784        -36.5274         49.0004         45.0004
 -11199104.12343  -8682542.93142  22789296.5634   22789298.9424   22789296.6464
     -2815.1944      -2193.6514         45.0004         40.0004
 -22129956.43443 -17200440.85442  20816356.3434   20816360.2784   20816356.0794
     -1568.3754      -1222.0924         50.0004         45.0004
                            4  1
RINEX FILE SPLICE; other post-header comments skipped       COMMENT
 04 12 26  0 15  0.0000000  0  7G15G 1G11G19G14G22G 3
  -4328446.83943  -3319389.48942  23002202.1814   23002207.0574   23002201.5364
     -1709.2254      -1331.8564         45.0004         41.0004
 -12715811.46043  -9859174.15042  21850119.6094   21850124.5094   21850119.3504
      2913.1424       2269.9784         48.0004         43.0004
  -5249559.38843  -4057792.25242  23599013.6704   23599017.1034   23599013.3254
      2674.1374       2083.7474         42.0004         38.0004
 -20563120.12343 -15976116.46242  20641932.3094   20641933.5304   20641931.4784
       524.6944        408.8534         52.0004         48.0004
 -13223463.03143 -10263881.35842  21324159.3724   21324162.6064   21324159.0704
       -66.4654        -51.7834         49.0004         45.0004
 -11114613.55943  -8616706.18342  22805374.6534   22805376.8664   22805374.6904
     -2817.6504      -2195.5684         45.0004         40.0004
 -22082653.11343 -17163581.14342  20825357.9164   20825361.7984   20825357.6164
     -1585.0494      -1235.0964         50.0004         45.0004
 04 12 26  0 15 30.0000000  0  7G15G 1G11G19G14G22G 3
  -4277095.47343  -3279375.47542  23011973.9384   23011978.9374   23011973.3824
     -1714.2884      -1335.8074         45.0004         40.0004
 -12803011.79343  -9927122.42142  21833525.8694   21833530.8314   21833525.6384
      2900.4094       2260.0734         48.0004         43.0004
  -5329768.22343  -4120292.65142  23583750.6254   23583753.7664   23583750.1494
      2673.2604       2083.0614         42.0004         38.0004
 -20578567.26743 -15988153.20542  20638992.8284   20638994.0484   20638992.0024
       505.2804        393.7384         52.0004         48.0004
 -13221148.25143 -10262077.63342  21324599.8224   21324603.0684   21324599.5834
       -87.6854        -68.3354         49.0004         45.0004
 -11030026.16143  -8550793.96342  22821471.0924   22821473.3824   22821471.1494
     -2821.6004      -2198.6434         45.0004         40.0004
 -22034827.95943 -17126314.81542  20834458.6934   20834462.6464   20834458.4124
     -1603.1124      -1249.1724         50.0004         45.0004
 04 12 26  0 16  0.0000000  0  7G15G 1G11G19G14G22G 3
  -4225614.02243  -3239260.10742  23021770.6064   23021775.5224   23021770.0304
     -1718.3664      -1338.9794         45.0004         40.0004
 -12889846.47643  -9994785.76642  21817001.7644   21817006.7434   21817001.5344
      2888.5114       2250.7784         48.0004         43.0004
  -5409967.28843  -4182785.40842  23568489.1114   23568492.3594   23568488.7724
      2672.7964       2082.6954         42.0004         38.0004
 -20593450.72243 -15999750.71242  20636160.5834   20636161.8424   20636159.7694
       486.7474        379.2814         52.0004         48.0004
 -13218218.54943 -10259794.74642  21325157.3594   21325160.5904   21325157.1274
      -107.9844        -84.1444         49.0004         45.0004
 -10945343.47343  -8484807.51342  22837585.7534   22837588.0244   22837585.7554
     -2824.4804      -2200.8974         45.0004         40.0004
 -21986481.98043 -17088642.66542  20843658.5464   20843662.6444   20843658.3214
     -1620.2174      -1262.4974         50.0004         45.0004
 04 12 26  0 16 30.0000000  0  7G15G 1G11G19G14G22G 3
  -4174001.81643  -3199042.85442  23031592.2534   23031597.0754   23031591.5024
     -1722.2464      -1342.0104         45.0004         41.0004
 -12976312.30743 -10062161.70142  21800547.8274   21800552.8014   21800547.5364
      2876.2054       2241.2064         48.0004         43.0004
  -5490155.17143  -4245269.45642  23553230.0074   23553233.1944   23553229.5994
      2672.8614       2082.7544         43.0004         38.0004
 -20607769.47743 -16010908.19142  20633435.8214   20633437.0874   20633435.0234
       468.1274        364.7844         52.0004         48.0004
 -13214673.63943 -10257032.46842  21325831.9284   21325835.1414   21325831.6784
      -128.1214        -99.8354         49.0004         45.0004
 -10860567.12843  -8418748.07242  22853718.0564   22853720.5244   22853718.1794
     -2826.9814      -2202.8454         45.0004         40.0004
 -21937616.25643 -17050565.50442  20852957.3974   20852961.5054   20852957.1604
     -1637.2214      -1275.7664         50.0004         45.0004
 04 12 26  0 17  0.0000000  0  7G15G 1G11G19G14G22G 3
  -4122259.18043  -3158723.98442  23041438.4844   23041443.3794   23041437.8674
     -1726.8234      -1345.5724         45.0004         40.0004
 -13062407.52843 -10129248.84542  21784164.4154   21784169.3794   21784164.1074
      2863.8454       2231.5644         48.0004         43.0004
  -5570332.07443  -4307744.93942  23537972.8234   23537976.1734   23537972.5194
      2672.5574       2082.5104         43.0004         38.0004
 -20621523.31943 -16021625.47942  20630818.5624   20630819.8584   20630817.7744
       449.3424        350.1404         52.0004         48.0004
 -13210514.66243 -10253791.70242  21326623.4194   21326626.5834   21326623.0954
      -148.5654       -115.7754         49.0004         45.0004
 -10775699.72943  -8352617.69242  22869867.8334   22869870.3674   22869868.0024
     -2830.1884      -2205.3384         45.0004         40.0004
 -21888233.24043 -17012085.25042  20862354.6544   20862358.8044   20862354.4354
     -1654.4574      -1289.1904         50.0004         45.0004
 04 12 26  0 17 30.0000000  0  7G15G 1G11G19G14G22G 3
  -4070384.74443  -3118302.37742  23051309.8814   23051314.7324   23051309.2574
     -1731.8324      -1349.4814         45.0004         40.0004
 -13148128.08843 -10196044.04342  21767852.2544   21767857.2894   21767851.9914
      2850.7914       2221.4064         48.0004         43.0004
  -5650496.46743  -4370210.70242  23522717.8904   23522721.4924   23522717.8434
      2671.5324       2081.7064         43.0004         38.0004
 -20634710.31943 -16031901.07742  20628309.1454   20628310.4424   20628308.3614
       429.7304        334.8424         52.0004         48.0004
 -13205740.53143 -10250071.60042  21327531.9654   21327535.0864   21327531.6214
      -169.8814       -132.3824         49.0004         45.0004
 -10690742.16443  -8286417.02742  22886034.8144   22886037.2484   22886034.9594
     -2833.8084      -2208.1574         45.0004         40.0004
 -21838333.26243 -16973202.17642  20871850.3804   20871854.4704   20871850.1134
     -1672.1494      -1302.9874         50.0004         45.0004
 04 12 26  0 18  0.0000000  0  7G15G 1G11G19G14G22G 3
  -4018378.15643  -3077777.81942  23061206.5084   23061211.2774   23061205.7804
     -1735.2094      -1352.1074         45.0004         40.0004
 -13233471.33143 -10262545.24642  21751611.9954   21751616.9684   21751611.7074
      2838.9284       2212.1464         48.0004         43.0004
  -5730647.50843  -4432666.06042  23507465.7364   23507469.2704   23507465.7054
      2671.9384       2082.0324         43.0004         38.0004
 -20647329.79943 -16041734.44742  20625907.7854   20625909.0344   20625906.9914
       411.6274        320.7604         52.0004         48.0004
 -13200351.76943 -10245872.55442  21328557.4354   21328560.5134   21328557.0664
      -189.4464       -147.6034         49.0004         45.0004
 -10605696.36743  -8220147.60842  22902218.6444   22902221.0724   22902218.7894
     -2836.0314      -2209.8874         45.0004         40.0004
 -21787918.15443 -16933917.70242  20881444.0344   20881448.1514   20881443.8094
     -1688.5994      -1315.7804         50.0004         45.0004
 04 12 26  0 18 30.0000000  0  7G15G 1G11G19G14G22G 3
  -3966238.91343  -3037149.89942  23071128.2234   23071133.0944   23071127.6054
     -1739.9114      -1355.7734         45.0004         40.0004
 -13318434.17443 -10328750.02742  21735444.1594   21735449.0404   21735443.8354
      2826.0534       2202.1314         48.0004         43.0004
  -5810784.11443  -4495110.14142  23492216.1754   23492219.9014   23492216.2004
      2671.1434       2081.4084         43.0004         38.0004
 -20659380.71343 -16051124.77542  20623614.5894   20623615.8284   20623613.7774
       392.4764        305.8304         52.0004         48.0004
 -13194348.82843 -10241194.94142  21329699.7164   21329702.8304   21329699.3794
      -210.0114       -163.6374         49.0004         45.0004
 -10520564.49043  -8153811.12442  22918418.7124   22918421.1234   22918418.8824
     -2838.9044      -2212.1294         45.0004         40.0004
 -21736989.43343 -16894233.01042  20891135.4274   20891139.5804   20891135.2454
     -1705.8804      -1329.2484         50.0004         45.0004
 04 12 26  0 19  0.0000000  0  7G15G 1G11G19G14G22G 3
  -3913967.55243  -2996419.02742  23081075.0784   23081080.1034   23081074.5424
     -1744.4024      -1359.2674         45.0004         40.0004
 -13403014.50043 -10394656.73742  21719349.0724   21719353.8964   21719348.7134
      2813.2004       2192.0994         48.0004         43.0004
  -5890906.12743  -4557542.88042  23476969.3944   23476973.1274   23476969.5414
      2670.5724       2080.9664         43.0004         38.0004
 -20670863.02343 -16060072.04442  20621429.6134   20621430.8184   20621428.8014
       373.4164        290.9794         52.0004         48.0004
 -13187732.21443 -10236039.13142  21330958.8594   21330961.9434   21330958.5474
      -230.5034       -179.6064         49.0004         45.0004
 -10435348.45643  -8087409.06042  22934634.9934   22934637.2124   22934635.1094
     -2841.6914      -2214.3064         45.0004         40.0004
 -21685548.93743 -16854149.53842  20900924.2544   20900928.4164   20900924.1044
     -1723.0254      -1342.6014         50.0004         45.0004
 04 12 26  0 19 30.0000000  0  7G15G 1G11G19G14G22G 3
  -3861562.40143  -2955583.90242  23091047.5404   23091052.5004   23091046.9234
     -1749.4724      -1363.2124         45.0004         40.0004
 -13487208.32743 -10460262.28742  21703327.5044   21703332.2764   21703327.1604
      2799.7954       2181.6724         48.0004         44.0004
  -5971011.63443  -4619962.74242  23461725.8544   23461729.4534   23461726.0064
      2669.8054       2080.3714         43.0004         38.0004
 -20681774.52943 -16068574.52342  20619353.2584   20619354.4544   20619352.4294
       354.1184        275.9504         52.0004         48.0004
 -13180501.13143 -10230404.52042  21332334.9084   21332338.0264   21332334.5894
      -251.4754       -195.9614         49.0004         45.0004
 -10350049.06943  -8020942.05442  22950866.9274   22950869.2274   22950866.9954
     -2844.7044      -2216.6544         45.0004         40.0004
 -21633597.34343 -16813667.81142  20910810.3824   20910814.5364   20910810.2244
     -1740.2704      -1356.0404         50.0004         45.0004
 04 12 26  0 20  0.0000000  0  7G15G 1G11G19G14G22G 3
  -3809023.43243  -2914644.51842  23101045.2744   23101050.3214   23101044.6714
     -1753.3964      -1366.2784         45.0004         40.0004
 -13571013.24143 -10525564.78242  21687379.9694   21687384.6684   21687379.5864
      2786.9324       2171.6394         48.0004         44.0004
  -6051100.05843  -4682369.28142  23446485.4394   23446489.0444   23446485.5854
      2669.4374       2080.0824         43.0004         38.0004
 -20692114.91143 -16076631.97342  20617385.5474   20617386.7574   20617384.7234
       335.1204        261.1364         52.0004         48.0004
 -13172656.32943 -10224291.68942  21333827.6654   21333830.8104   21333827.3584
      -271.7394       -211.7484         49.0004         44.0004
 -10264668.59043  -7954411.86542  22967114.2404   22967116.5514   22967114.4544
     -2847.3714      -2218.7274         45.0004         40.0004
 -21581136.81743 -16772789.51642  20920793.3464   20920797.5124   20920793.1474
     -1757.0994      -1369.1404         50.0004         45.0004
 04 12 26  0 20 30.0000000  0  7G15G 1G11G19G14G22G 3
  -3756350.59343  -2873600.80842  23111068.7044   23111073.7214   23111068.1494
     -1758.3854      -1370.1644         45.0004         40.0004
 -13654426.53843 -10590562.13142  21671506.9414   21671511.6054   21671506.5844
      2773.4514       2161.1234         48.0004         44.0004
  -6131170.51943  -4744761.83442  23431248.6524   23431252.2284   23431248.6644
      2668.1764       2079.1044         43.0004         38.0004
 -20701883.31743 -16084243.72642  20615526.7424   20615527.8974   20615525.8954
       315.7164        246.0124         52.0004         48.0004
 -13164198.19443 -10217700.92842  21335437.2004   21335440.3084   21335436.8704
      -292.5254       -227.9614         49.0004         45.0004
 -10179208.99643  -7887820.02242  22983376.7994   22983379.0264   22983376.9354
     -2850.4154      -2221.1054         45.0004         40.0004
 -21528168.80443 -16731515.77742  20930872.8284   20930877.0514   20930872.6494
     -1774.4044      -1382.6634         50.0004         45.0004
 04 12 26  0 21  0.0000000  0  7G15G 1G11G19G14G22G 3
  -3703542.81843  -2832451.96742  23121117.8374   23121122.7664   23121117.2764
     -1762.9974      -1373.7594         45.0004         40.0004
 -13737444.85743 -10655251.69242  21655709.0654   21655713.7664   21655708.7134
      2760.0524       2150.7034         49.0004         44.0004
  -6211221.67443  -4807139.32642  23416015.4984   23416018.9824   23416015.4234
      2667.7454       2078.7584         43.0004         39.0004
 -20711078.68643 -16091408.95642  20613776.8694   20613778.0834   20613776.0574
       296.4604        230.9984         52.0004         48.0004
 -13155126.52443 -10210632.08842  21337163.4964   21337166.5784   21337163.1654
      -313.1034       -243.9644         49.0004         45.0004
 -10093671.26343  -7821167.28642  22999654.1144   22999656.3504   22999654.3024
     -2852.8834      -2223.0224         45.0004         40.0004
 -21474694.53343 -16689847.54642  20941048.6614   20941052.9094   20941048.5074
     -1791.3574      -1395.8814         50.0004         45.0004
 04 12 26  0 21 30.0000000  0  7G15G 1G11G19G14G22G 3
  -3650600.68743  -2791198.40842  23131192.3734   23131197.3764   23131191.8554
     -1767.2904      -1377.1134         45.0004         40.0004
 -13820066.51943 -10719632.18142  21639986.6544   21639991.3764   21639986.3354
      2747.1484       2140.6154         49.0004         44.0004
  -6291253.69443  -4869501.93442  23400786.1184   23400789.3814   23400785.9154
      2667.1864       2078.3264         43.0004         39.0004
 -20719701.00243 -16098127.65342  20612136.0704   20612137.3214   20612135.2584
       277.6984        216.3774         52.0004         48.0004
 -13145442.78443 -10203086.32642  21339006.2004   21339009.3394   21339005.9104
      -333.1464       -259.5864         49.0004         44.0004
 -10008058.40243  -7754456.00642  23015945.8384   23015947.8884   23015945.9144
     -2855.2554      -2224.8794         45.0004         40.0004
 -21420716.66143 -16647786.90042  20951320.3934   20951324.5944   20951320.2084
     -1807.7114      -1408.6054         50.0004         45.0004
 04 12 26  0 22  0.0000000  0  7G15G 1G11G19G14G22G 3
  -3597522.34943  -2749838.72642  23141292.8234   23141297.9774   23141292.3724
     -1771.3834      -1380.2944         45.0004         40.0004
 -13902287.27443 -10783700.26642  21624340.6134   21624345.2334   21624340.2254
      2734.0194       2130.3944         49.0004         44.0004
  -6371263.95243  -4931847.57042  23385560.7274   23385564.0594   23385560.5974
      2666.5704       2077.8464         43.0004         39.0004
 -20727748.22943 -16104398.22942  20610604.8094   20610606.0084   20610603.9484
       258.8704        201.7234         52.0004         48.0004
 -13135145.97643 -10195062.84042  21340965.5264   21340968.7674   21340965.2254
      -353.3514       -275.3244         49.0004         44.0004
  -9922370.71543  -7687686.44642  23032251.6654   23032253.7674   23032251.7644
     -2857.5614      -2226.6654         45.0004         40.0004
 -21366235.42043 -16605334.01742  20961687.8564   20961692.0564   20961687.6634
     -1824.2614      -1421.5034         50.0004         45.0004
 04 12 26  0 22 30.0000000  0  7G15G 1G11G19G14G22G 3
  -3544307.82943  -2708372.93142  23151419.2844   23151424.3054   23151418.7684
     -1775.4604      -1383.4704         45.0004         40.0004
 -13984104.89743 -10847454.22942  21608771.1694   21608775.7814   21608770.8144
      2720.9764       2120.2564         49.0004         44.0004
  -6451252.49643  -4994176.28042  23370339.4614   23370342.7344   23370339.2304
      2666.6334       2077.8924         43.0004         38.0004
 -20735220.23343 -16110220.57542  20609182.8964   20609184.1234   20609182.0554
       240.0364        187.0444         52.0004         48.0004
 -13124237.11743 -10186562.43442  21343041.3974   21343044.6704   21343041.1274
      -373.0874       -290.7254         49.0004         45.0004
  -9836610.51843  -7620860.36842  23048571.4344   23048573.4764   23048571.4674
     -2859.1824      -2227.9274         45.0004         40.0004
 -21311252.94043 -16562490.56542  20972150.6384   20972154.9164   20972150.5034
     -1840.3764      -1434.0494         50.0004         45.0004
 04 12 26  0 23  0.0000000  0  7G15G 1G11G19G14G22G 3
  -3490956.47743  -2666800.49042  23161571.8034   23161576.7964   23161571.2764
     -1780.2054      -1387.1714         45.0004         40.0004
 -14065516.16843 -10910891.54542  21593279.0714   21593283.6894   21593278.7134
      2707.4694       2109.7204         49.0004         44.0004
  -6531217.86243  -5056486.95442  23355122.4344   23355125.7484   23355122.2064
      2665.3854       2076.9194         43.0004         38.0004
 -20742116.00443 -16115593.91642  20607870.6984   20607871.9164   20607869.8574
       220.7704        172.0324         52.0004         48.0004
 -13112716.30043 -10177585.17242  21345233.8344   21345236.9964   21345233.4594
      -393.6974       -306.7654         49.0004         45.0004
  -9750779.13043  -7553978.80542  23064904.6154   23064906.5894   23064904.5444
     -2861.2474      -2229.5444         44.0004         39.0004
 -21255770.62843 -16519257.62342  20982708.6564   20982712.8984   20982708.4804
     -1857.1984      -1447.1724         50.0004         45.0004
 04 12 26  0 23 30.0000000  0  7G15G 1G11G19G14G22G 3
  -3437467.91143  -2625121.14042  23171750.2794   23171755.4234   23171749.7244
     -1784.7514      -1390.7134         44.0004         40.0004
 -14146518.18743 -10974009.97642  21577864.8364   21577869.4624   21577864.5404
      2693.5204       2098.8534         49.0004         44.0004
  -6611159.19243  -5118778.87842  23339910.0914   23339913.4634   23339909.8184
      2664.7334       2076.4224         43.0004         39.0004
 -20748434.83143 -16120517.68842  20606668.2714   20606669.4884   20606667.4204
       201.4524        156.9844         52.0004         48.0004
 -13100583.88243 -10168131.34742  21347542.4274   21347545.6914   21347542.0794
      -414.1744       -322.7304         49.0004         44.0004
  -9664878.03043  -7487042.93542  23081251.0694   23081253.1424   23081250.9664
     -2864.0784      -2231.7444         44.0004         40.0004
 -21199790.14743 -16475636.50342  20993361.3744   20993365.6884   20993361.2114
     -1873.9444      -1460.2074         50.0004         45.0004
 04 12 26  0 24  0.0000000  0  7G15G 1G11G19G14G22G 3
  -3383843.05943  -2583335.61342  23181954.9024   23181959.9294   23181954.3144
     -1788.9824      -1394.0164         44.0004         40.0004
 -14227109.65143 -11036808.49642  21562528.7824   21562533.4004   21562528.5674
      2680.1834       2088.4524         49.0004         44.0004
  -6691076.37343  -5181051.98342  23324702.2674   23324705.7034   23324702.0744
      2664.1624       2075.9704         44.0004         39.0004
 -20754177.10143 -16124992.19342  20605575.4754   20605576.7764   20605574.6724
       182.4764        142.2014         52.0004         48.0004
 -13087841.51043 -10158202.22942  21349967.3094   21349970.5324   21349966.8894
      -434.1944       -338.3334         49.0004         45.0004
  -9578910.34443  -7420055.18342  23097610.3144   23097612.4234   23097610.2224
     -2865.8944      -2233.1724         45.0004         40.0004
 -21143314.22943 -16431629.33842  21004108.4194   21004112.6904   21004108.2424
     -1890.0804      -1472.7824         49.0004         45.0004
 04 12 26  0 24 30.0000000  0  7G15G 1G11G19G14G22G 3
  -3330080.37943  -2541442.67442  23192185.8614   23192190.5784   23192185.0674
     -1794.1364      -1398.0304         44.0004         40.0004
 -14307286.62443 -11099284.02342  21547271.5684   21547276.2224   21547271.3534
      2665.7584       2077.2054         49.0004         44.0004
  -6770967.50643  -5243304.79142  23309499.5444   23309502.8134   23309499.2724
      2662.5634       2074.7234         43.0004         39.0004
 -20759341.04243 -16129016.06042  20604592.7664   20604594.1344   20604592.0084
       162.5874        126.6834         52.0004         48.0004
 -13074488.55343 -10147797.34342  21352508.3504   21352511.5584   21352507.9124
      -455.2514       -354.7284         49.0004         45.0004
  -9492876.56243  -7353015.91242  23113982.2314   23113984.1754   23113982.0424
     -2868.8344      -2235.4574         45.0004         40.0004
 -21086343.80043 -16387236.82242  21014949.5164   21014953.8194   21014949.3624
     -1907.1734      -1486.1184         50.0004         45.0004
 04 12 26  0 25  0.0000000  0  7G15G 1G11G19G14G22G 3
  -3276179.19443  -2499441.80942  23202442.9564   23202447.6644   23202442.2354
     -1798.6934      -1401.5754         44.0004         39.0004
 -14387045.91643 -11161434.09142  21532093.8814   21532098.5144   21532093.6464
      2652.0224       2066.4984         49.0004         44.0004
  -6850831.06443  -5305536.12142  23294302.0494   23294305.1694   23294301.8314
      2661.9614       2074.2574         44.0004         39.0004
 -20763925.85143 -16132588.65342  20603720.3754   20603721.6874   20603719.5764
       143.4384        111.7844         52.0004         48.0004
 -13060525.45643 -10136917.01042  21355165.4744   21355168.6354   21355165.0234
      -475.3404       -370.3624         49.0004         45.0004
  -9406778.00043  -7285926.18342  23130366.1344   23130368.2784   23130366.0764
     -2870.8584      -2237.0274         44.0004         39.0004
 -21028880.44243 -16342460.21942  21025884.4554   21025888.7624   21025884.2864
     -1923.1544      -1498.5374         49.0004         45.0004
 04 12 26  0 25 30.0000000  0  7G15G 1G11G19G14G22G 3
  -3222139.10243  -2457332.70542  23212726.4654   23212731.1224   23212725.7184
     -1803.4854      -1405.3094         44.0004         40.0004
 -14466384.98243 -11223256.71142  21516996.0484   21517000.7984   21516995.8334
      2637.8134       2055.4554         49.0004         44.0004
  -6930666.39043  -5367745.45142  23279109.9824   23279112.9504   23279109.6704
      2660.7794       2073.3384         43.0004         39.0004
 -20767930.98543 -16135709.54942  20602958.2344   20602959.5164   20602957.4334
       123.8704         96.5264         52.0004         48.0004
