     2.10           OBSERVATION DATA    G (GPS)             RINEX VERSION / TYPE
teqc  2003Apr29                         20041228 00:22:13UTCPGM / RUN BY / DATE
OBSERVATION MODE: IGS-Net                                   COMMENT
PERT Perth (PERT)                                           MARKER NAME
50133M001                                                   MARKER NUMBER
200313003           ASHTECH UZ-12        CJ00               REC # / TYPE / VERS
CR620023901         ASH701945C_M    NONE                    ANT # / TYPE
        0.0595        0.0000        0.0000                  ANTENNA: DELTA H/E/N
  -2368687.2881  4881316.4469  -3341795.6980                APPROX POSITION XYZ
  115.88525091  -31.80196610  12.5793  LonLatAlt  S/W       COMMENT
Solaris 2.7|Ultra 2|cc SC5.0|=+-|*Sparc                     COMMENT
MSWin2000|IAx86-PII|bcc32 5.0|MSWin95->XP|486/DX+           COMMENT
BIT 2 OF LLI FLAGS DATA COLLECTED UNDER A/S CONDITION       COMMENT
AUTOMATIC           ESA/ESOC                                OBSERVER / AGENCY
     1     1                                                WAVELENGTH FACT L1/2
     9    L1    L2    C1    P2    P1    D1    D2    S1    S2# / TYPES OF OBSERV
    30.0000                                                 INTERVAL
 SNR is mapped to RINEX snr flag value [1-9]                COMMENT
  L1: 1 -> 1;  90 -> 5; 210 -> 9                            COMMENT
  L2: 1 -> 1; 150 -> 5; 250 -> 9                            COMMENT
pseudorange smoothing corrections not applied               COMMENT
Checked by ROCK 1.0 [27.12.04-00:18]; status 2: file fixed  COMMENT
    29                                                      # OF SATELLITES
   G01   632   633   637   633   632   632   633   632   633PRN / # OF OBS
   G03   720   731   736   731   720   720   731   720   731PRN / # OF OBS
   G04   825   835   842   835   825   825   835   825   835PRN / # OF OBS
   G05   792   794   794   794   792   792   794   792   794PRN / # OF OBS
   G06   829   830   832   830   829   829   830   829   830PRN / # OF OBS
   G07   521   523   529   523   521   521   523   521   523PRN / # OF OBS
   G08   826   826   831   826   826   826   826   826   826PRN / # OF OBS
   G09   765   770   779   770   765   765   770   765   770PRN / # OF OBS
   G10   835   845   859   845   835   835   845   835   845PRN / # OF OBS
   G11   737   740   761   740   737   737   740   737   740PRN / # OF OBS
   G13   834   839   848   839   834   834   839   834   839PRN / # OF OBS
   G14   737   743   745   743   737   737   743   737   743PRN / # OF OBS
   G15   870   875   881   875   870   870   875   870   875PRN / # OF OBS
   G16   601   604   611   604   601   601   604   601   604PRN / # OF OBS
   G17   676   687   694   687   676   676   687   676   687PRN / # OF OBS
   G18   658   668   675   668   658   658   668   658   668PRN / # OF OBS
   G19   677   678   683   678   677   677   678   677   678PRN / # OF OBS
   G20   770   774   777   774   770   770   774   770   774PRN / # OF OBS
   G21   716   719   719   719   716   716   719   716   719PRN / # OF OBS
   G22   699   706   708   706   699   699   706   699   706PRN / # OF OBS
   G23   846   850   852   850   846   846   850   846   850PRN / # OF OBS
   G24   854   862   867   862   854   854   862   854   862PRN / # OF OBS
   G25   802   809   820   809   802   802   809   802   809PRN / # OF OBS
   G26   619   625   631   625   619   619   625   619   625PRN / # OF OBS
   G27   691   696   699   696   691   691   696   691   696PRN / # OF OBS
   G28   653   663   666   663   653   653   663   653   663PRN / # OF OBS
   G29   620   625   630   625   620   620   625   620   625PRN / # OF OBS
   G30   821   821   825   821   821   821   821   821   821PRN / # OF OBS
   G31   760   777   778   777   760   760   777   760   777PRN / # OF OBS
Checked by ROCK 1.0 [28.12.04-00:24]; status 0: file OK     COMMENT
  2004    12    27     0     0    0.0000000     GPS         TIME OF FIRST OBS
  2004    12    27    23    59   30.0000000     GPS         TIME OF LAST OBS
                                                            END OF HEADER
 04 12 27  0  0  0.0000000  0  7G15G19G 3G 1G22G11G14
  -4509354.86943  -3471359.36842  22797071.1124   22797074.8574   22797070.4414
     -1619.8314      -1262.1984         46.0004         41.0004
 -19344421.68543 -15037521.03242  20731472.8334   20731473.7974   20731471.9564
       921.9324        718.3794         52.0004         47.0004
 -19585047.68743 -15215870.73442  20651568.3994   20651572.2724   20651568.2464
     -1195.4574       -931.5234         50.0004         46.0004
 -11034624.90143  -8547491.02642  22227377.4294   22227381.8544   22227377.1414
      3151.7914       2455.9344         46.0004         42.0004
 -12567381.94543  -9750579.78542  22458996.1584   22458997.6204   22458996.1654
     -2732.4644      -2129.1954         46.0004         41.0004
  -3757084.93343  -2892244.84342  23932238.8184   23932241.8834   23932238.5534
      2674.0014       2083.6384         41.0004         37.0004
 -13080444.12343 -10143277.34642  21343559.5274   21343562.4344   21343559.2024
       378.9994        295.3084         49.0004         44.0004
 04 12 27  0  0 30.0000000  0  7G15G19G 3G 1G22G11G14
  -4460698.66443  -3433445.47542  22806330.0944   22806333.9084   22806329.4814
     -1623.5704      -1265.1224         46.0004         41.0004
 -19371811.51243 -15058863.75442  20726260.7134   20726261.6584   20726259.8704
       904.2134        704.5854         52.0004         47.0004
 -19548907.38443 -15187709.47942  20658445.6754   20658449.5364   20658445.5234
     -1213.6184       -945.6834         50.0004         46.0004
 -11129030.29343  -8621053.64242  22209412.6064   22209417.0604   22209412.3294
      3141.9584       2448.2754         46.0004         42.0004
 -12485343.04443  -9686653.40742  22474607.6764   22474609.1564   22474607.6114
     -2736.8084      -2132.5704         46.0004         41.0004
  -3837300.21243  -2954750.23942  23916974.2274   23916977.2994   23916973.9174
      2674.0184       2083.6494         41.0004         37.0004
 -13091511.81343 -10151901.51642  21341453.4124   21341456.3394   21341453.1044
       358.9714        279.7234         49.0004         45.0004
 04 12 27  0  1  0.0000000  0  7G15G19G 3G 1G22G11G14
  -4411922.29243  -3395437.94042  22815611.8684   22815615.7434   22815611.2984
     -1627.8644      -1268.4704         46.0004         41.0004
 -19398665.70343 -15079789.09042  20721150.5264   20721151.5014   20721149.6754
       886.1734        690.5204         52.0004         47.0004
 -19512221.40343 -15159123.01442  20665426.7944   20665430.6854   20665426.6504
     -1231.7654       -959.8124         50.0004         46.0004
 -11223135.95143  -8694382.69542  22191504.9254   22191509.3124   22191504.6474
      3131.8304       2440.3824         47.0004         42.0004
 -12403167.44743  -9622620.52342  22490245.0984   22490246.7044   22490245.0634
     -2741.2854      -2136.0644         46.0004         42.0004
  -3917522.69043  -3017261.22242  23901708.4044   23901711.4744   23901708.1984
      2674.2664       2083.8494         41.0004         37.0004
 -13101970.46543 -10160051.10542  21339463.1894   21339466.0764   21339462.8634
       338.5814        263.8354         49.0004         44.0004
 04 12 27  0  1 30.0000000  0  7G15G19G 3G 1G22G11G14
  -4363025.51843  -3357336.56942  22824916.6574   22824920.5414   22824916.0124
     -1632.1404      -1271.7954         46.0004         41.0004
 -19424982.97243 -15100296.05042  20716142.5274   20716143.5174   20716141.6824
       868.2884        676.5884         52.0004         47.0004
 -19474990.96343 -15130112.30342  20672511.5524   20672515.4134   20672511.3784
     -1250.1754       -974.1664         50.0004         46.0004
 -11316939.02343  -8767475.97742  22173654.8354   22173659.1274   22173654.5514
      3121.5754       2432.3944         47.0004         42.0004
 -12320857.55443  -9558482.97042  22505908.2734   22505909.7714   22505908.2064
     -2746.0944      -2139.8164         46.0004         41.0004
  -3997752.17443  -3079777.65542  23886440.9934   23886444.2014   23886440.9804
      2674.7584       2084.2194         41.0004         36.0004
 -13111820.07143 -10167726.11842  21337588.8744   21337591.7364   21337588.5384
       317.9604        247.7464         49.0004         45.0004
 04 12 27  0  2  0.0000000  0  7G15G19G 3G 1G22G11G14
  -4314008.11743  -3319141.21442  22834244.3564   22834248.3654   22834243.7524
     -1635.9154      -1274.7384         46.0004         41.0004
 -19450762.22343 -15120383.77942  20711236.9164   20711237.8844   20711236.0774
       850.2574        662.5354         52.0004         47.0004
 -19437217.24443 -15100678.25342  20679699.6984   20679703.5364   20679699.5024
     -1268.2394       -988.2374         50.0004         46.0004
 -11410436.54243  -8840331.14242  22155862.8904   22155867.1534   22155862.5294
      3111.3164       2424.3934         47.0004         42.0004
 -12238415.10643  -9494242.15242  22521596.5004   22521598.0714   22521596.3824
     -2750.2764      -2143.0704         46.0004         42.0004
  -4077987.92943  -3142298.97842  23871172.4714   23871175.8124   23871172.3994
      2674.5804       2084.0834         41.0004         36.0004
 -13121060.00343 -10174926.06442  21335830.5944   21335833.4454   21335830.2664
       297.6394        231.9284         49.0004         45.0004
 04 12 27  0  2 30.0000000  0  7G15G19G 3G 1G22G11G14
  -4264868.90043  -3280850.94442  22843595.2624   22843599.3384   22843594.6174
     -1640.4294      -1278.2614         46.0004         41.0004
 -19476001.19143 -15140050.50042  20706434.0824   20706435.0524   20706433.2784
       831.9424        648.2634         52.0004         47.0004
 -19398900.39543 -15070820.98142  20686991.1654   20686995.0104   20686990.9434
     -1286.6804      -1002.6124         50.0004         46.0004
 -11503624.86443  -8912945.40842  22138129.6864   22138133.9794   22138129.3434
      3100.7254       2416.1494         47.0004         42.0004
 -12155841.54843  -9429899.15142  22537309.7714   22537311.3744   22537309.6744
     -2754.8944      -2146.6744         46.0004         41.0004
  -4158228.64143  -3204824.18942  23855903.2504   23855906.3734   23855903.2044
      2674.0384       2083.6654         41.0004         36.0004
 -13129689.02943 -10181649.97942  21334188.5984   21334191.3744   21334188.2434
       276.9964        215.8384         49.0004         44.0004
 04 12 27  0  3  0.0000000  0  7G15G19G 3G 1G22G11G14
  -4215608.38743  -3242466.15642  22852969.2554   22852973.3344   22852968.6424
     -1643.5524      -1280.6944         46.0004         41.0004
 -19500699.32443 -15159295.79142  20701734.1814   20701735.1354   20701733.3574
       814.6484        634.7744         52.0004         47.0004
 -19360042.00543 -15040541.73342  20694385.6904   20694389.5314   20694385.4444
     -1303.8194      -1015.9634         50.0004         46.0004
 -11596501.67743  -8985316.92342  22120455.7534   22120460.0934   22120455.4494
      3091.0664       2408.6144         47.0004         42.0004
 -12073139.81843  -9365456.27442  22553047.4494   22553049.0704   22553047.3284
     -2758.5304      -2149.5044         46.0004         41.0004
  -4238474.08143  -3267353.06542  23840632.9714   23840636.1774   23840632.8784
      2675.9074       2085.1254         41.0004         36.0004
 -13137707.59543 -10187898.20342  21332662.6814   21332665.4704   21332662.3524
       257.6034        200.7334         49.0004         45.0004
 04 12 27  0  3 30.0000000  0  7G15G19G 3G 1G22G11G14
  -4166225.59343  -3203986.07442  22862366.5444   22862370.5864   22862365.9194
     -1648.1654      -1284.2954         46.0004         41.0004
 -19524854.56143 -15178118.05142  20697137.6204   20697138.5484   20697136.7724
       796.1254        620.3584         52.0004         47.0004
 -19320642.63543 -15009840.94642  20701883.1614   20701886.9714   20701882.9394
     -1322.2654      -1030.3494         50.0004         46.0004
 -11689063.41743  -9057442.93242  22102841.8364   22102846.1994   22102841.6084
      3080.1134       2400.0794         47.0004         43.0004
 -11990311.34243  -9300914.65442  22568809.1854   22568810.8644   22568809.0794
     -2763.1214      -2153.0674         46.0004         41.0004
  -4318723.36143  -3329884.91442  23825362.0034   23825365.1544   23825361.8124
      2674.6694       2084.1544         41.0004         37.0004
 -13145114.77443 -10193670.03442  21331253.1394   21331255.9514   21331252.8204
       236.5834        184.3544         49.0004         45.0004
 04 12 27  0  4  0.0000000  0  7G15G19G 3G 1G22G11G14
  -4116720.13943  -3165410.42642  22871787.0994   22871791.1674   22871786.4994
     -1652.5954      -1287.7374         46.0004         41.0004
 -19548465.82043 -15196516.42742  20692644.5504   20692645.4604   20692643.6834
       777.5864        605.9084         52.0004         47.0004
 -19280703.59543 -14978719.63642  20709483.3684   20709487.1254   20709483.0994
     -1340.6924      -1044.6964         50.0004         46.0004
 -11781307.15743  -9129321.14442  22085288.3774   22085292.8004   22085288.1634
      3069.0684       2391.4794         47.0004         42.0004
 -11907358.11643  -9236275.80742  22584594.4774   22584596.2844   22584594.5334
     -2767.4444      -2156.4504         46.0004         41.0004
  -4398975.96743  -3392419.38442  23810090.4704   23810093.6314   23810090.2494
      2674.8784       2084.3094         41.0004         37.0004
 -13151910.42543 -10198965.34442  21329960.0164   21329962.7684   21329959.6804
       215.9874        168.3004         49.0004         45.0004
 04 12 27  0  4 30.0000000  0  7G15G19G 3G 1G22G11G14
  -4067091.41343  -3126738.72542  22881231.1054   22881235.2224   22881230.4944
     -1656.2104      -1290.5514         45.0004         41.0004
 -19571531.83843 -15214489.94042  20688255.2474   20688256.1494   20688254.3874
       760.0454        592.2424         52.0004         47.0004
 -19240226.06143 -14947178.72442  20717185.9814   20717189.7914   20717185.7484
     -1357.9434      -1058.1294         50.0004         46.0004
 -11873229.87743  -9200949.22342  22067796.0264   22067800.4334   22067795.8294
      3058.7704       2383.4464         47.0004         42.0004
 -11824282.24143  -9171541.38842  22600403.4874   22600405.1934   22600403.5154
     -2770.9784      -2159.1964         46.0004         41.0004
  -4479231.08843  -3454955.80242  23794818.3104   23794821.5474   23794818.0994
      2675.2734       2084.6304         41.0004         36.0004
 -13158094.03643 -10203783.73142  21328783.3434   21328786.0464   21328782.9474
       195.9634        152.6924         49.0004         45.0004
 04 12 27  0  5  0.0000000  0  7G15G19G 3G 1G22G11G14
  -4017339.59743  -3087971.09142  22890698.5234   22890702.6564   22890697.9284
     -1660.6444      -1294.0094         45.0004         41.0004
 -19594051.54943 -15232037.76542  20683969.8834   20683970.8004   20683969.0304
       741.3274        577.6574         52.0004         47.0004
 -19199211.58643 -14915219.41542  20724990.8244   20724994.5814   20724990.6014
     -1376.1734      -1072.3404         50.0004         46.0004
 -11964829.00943  -9272325.14542  22050365.4154   22050369.6624   22050365.1274
      3047.6634       2374.8144         47.0004         43.0004
 -11741086.10143  -9106713.26642  22616235.1054   22616236.9604   22616235.1344
     -2775.4124      -2162.6544         46.0004         41.0004
  -4559488.54443  -3517494.03842  23779545.7864   23779549.1644   23779545.3574
      2674.8564       2084.2994         41.0004         36.0004
 -13163665.72343 -10208125.29942  21327723.0984   21327725.7894   21327722.7094
       175.3064        136.6304         49.0004         45.0004
 04 12 27  0  5 30.0000000  0  7G15G19G 3G 1G22G11G14
  -3967463.67543  -3049106.75142  22900189.7124   22900193.7574   22900189.1014
     -1664.4614      -1296.9814         45.0004         41.0004
 -19616023.14643 -15249158.48942  20679788.7904   20679789.7324   20679787.9574
       723.4424        563.7234         52.0004         47.0004
 -19157660.60143 -14882842.05542  20732897.8074   20732901.4684   20732897.5204
     -1393.8064      -1086.0764         50.0004         46.0004
 -12056100.97143  -9343446.12442  22032996.8924   22033001.1924   22032996.6584
      3037.1344       2366.5944         47.0004         43.0004
 -11657771.00043  -9041792.43942  22632089.5404   22632091.3744   22632089.5164
     -2778.9774      -2165.4304         46.0004         41.0004
  -4639746.86243  -3580032.96642  23764273.0024   23764276.6124   23764272.8084
      2675.6824       2084.9544         41.0004         36.0004
 -13168624.59343 -10211989.34642  21326779.4454   21326782.1524   21326779.0934
       155.2624        120.9834         49.0004         45.0004
 04 12 27  0  6  0.0000000  0  7G15G19G 3G 1G22G11G14
  -3917463.09843  -3010145.28642  22909704.4144   22909708.5524   22909703.8284
     -1668.5754      -1300.1864         45.0004         41.0004
 -19637445.13743 -15265850.94942  20675712.3164   20675713.2734   20675711.4734
       705.0194        549.3774         52.0004         48.0004
 -19115573.99843 -14850047.32642  20740906.6384   20740910.3194   20740906.3794
     -1411.5994      -1099.9414         50.0004         46.0004
 -12147042.44643  -9414309.58742  22015691.2764   22015695.5994   22015691.1014
      3025.9374       2357.8774         47.0004         43.0004
 -11574338.62443  -8976780.22642  22647966.1374   22647968.0674   22647966.2094
     -2782.5034      -2168.1814         46.0004         41.0004
  -4720004.84543  -3642571.63742  23749000.2214   23749003.9364   23749000.1504
      2675.5504       2084.8524         41.0004         37.0004
 -13172970.14843 -10215375.48742  21325952.4544   21325955.2104   21325952.1164
       134.8924        105.1254         49.0004         45.0004
 04 12 27  0  6 30.0000000  0  7G15G19G 3G 1G22G11G14
  -3867337.69843  -2971086.55142  22919243.0064   22919247.1674   22919242.4014
     -1673.3024      -1303.8694         45.0004         41.0004
 -19658316.43843 -15282114.30142  20671740.6564   20671741.6014   20671739.8114
       685.9824        534.5324         52.0004         48.0004
 -19072953.16643 -14816836.30942  20749017.1594   20749020.8204   20749016.8914
     -1430.2274      -1114.4554         50.0004         46.0004
 -12237650.70343  -9484913.39742  21998449.0764   21998453.4164   21998448.8844
      3014.0284       2348.5894         47.0004         43.0004
 -11490791.18043  -8911678.36842  22663864.6214   22663866.6344   22663864.7414
     -2787.5034      -2172.0814         45.0004         41.0004
  -4800262.34343  -3705109.90742  23733727.6624   23733731.4184   23733727.4984
      2674.5514       2084.0684         41.0004         37.0004
 -13176702.26443 -10218283.61642  21325242.2734   21325244.9744   21325241.9474
       113.6434         88.5404         49.0004         45.0004
 04 12 27  0  7  0.0000000  0  7G15G19G 3G 1G22G11G14
  -3817086.08443  -2931929.46842  22928805.6154   22928809.7644   22928804.9794
     -1677.5384      -1307.1774         45.0004         41.0004
 -19678634.95543 -15297946.91742  20667874.1684   20667875.1324   20667873.3334
       667.6934        520.2714         52.0004         48.0004
 -19029798.47643 -14783209.29942  20757229.1714   20757232.8944   20757228.9494
     -1447.7864      -1128.1514         50.0004         46.0004
 -12327921.89843  -9555254.55742  21981271.0354   21981275.3384   21981270.8154
      3002.8224       2339.8604         47.0004         43.0004
 -11407129.87743  -8846487.76042  22679784.9124   22679786.9274   22679785.0404
     -2790.8414      -2174.6814         45.0004         41.0004
  -4880517.72143  -3767646.53342  23718455.5054   23718459.2914   23718455.4274
      2674.5704       2084.0764         41.0004         37.0004
 -13179819.97243 -10220712.98242  21324649.0004   21324651.6824   21324648.6664
        93.3354         72.7264         49.0004         45.0004
 04 12 27  0  7 30.0000000  0  7G15G19G 3G 1G22G11G14
  -3766709.19743  -2892674.76742  22938391.9834   22938396.1904   22938391.3824
     -1681.3824      -1310.1704         45.0004         41.0004
 -19698401.01643 -15313349.04342  20664112.8004   20664113.7764   20664111.9674
       649.5504        506.1484         52.0004         47.0004
 -18986112.46243 -14749168.27242  20765542.3484   20765546.0844   20765542.1274
     -1465.2334      -1141.7344         50.0004         46.0004
 -12417854.42543  -9625331.82042  21964157.4414   21964161.6644   21964157.2324
      2991.8524       2331.2994         47.0004         43.0004
 -11323357.95443  -8781210.96742  22695726.1964   22695728.2524   22695726.2704
     -2794.5194      -2177.5424         45.0004         41.0004
  -4960771.55243  -3830181.94342  23703183.7204   23703187.2914   23703183.5404
      2674.6914       2084.1654         41.0004         37.0004
 -13182324.68443 -10222664.70042  21324172.3224   21324175.0534   21324171.9924
        72.8754         56.7914         49.0004         45.0004
 04 12 27  0  8  0.0000000  0  7G15G19G 3G 1G22G11G14
  -3716205.86943  -2853321.54742  22948002.4304   22948006.6794   22948001.8764
     -1685.3014      -1313.2164         45.0004         41.0004
 -19717612.59143 -15328319.10142  20660456.9874   20660457.9354   20660456.1424
       631.2644        491.8894         52.0004         48.0004
 -18941895.41643 -14714713.45542  20773956.6474   20773960.3124   20773956.3534
     -1482.6124      -1155.2774         50.0004         46.0004
 -12507444.50643  -9695142.23642  21947109.0074   21947113.2234   21947108.7694
      2980.8664       2322.7344         47.0004         43.0004
 -11239476.43843  -8715848.78942  22711688.2154   22711690.4404   22711688.3034
     -2797.6404      -2179.9774         45.0004         40.0004
  -5041022.22943  -3892714.89442  23687912.5974   23687916.0074   23687912.1974
      2674.8144       2084.2674         41.0004         37.0004
 -13184215.12443 -10224137.76042  21323812.5594   21323815.2684   21323812.2454
        52.8124         41.1484         49.0004         44.0004
 04 12 27  0  8 30.0000000  0  7G15G19G 3G 1G22G11G14
  -3665575.37243  -2813869.22442  22957637.1784   22957641.2814   22957636.5774
     -1689.4954      -1316.4844         45.0004         41.0004
 -19736267.91943 -15342855.72242  20656907.0254   20656907.9234   20656906.1554
       612.8984        477.5894         52.0004         47.0004
 -18897148.42243 -14679845.69642  20782471.7244   20782475.3754   20782471.4714
     -1499.9734      -1168.8024         50.0004         45.0004
 -12596688.79843  -9764683.21942  21930126.3434   21930130.6004   21930126.1204
      2969.3814       2313.8164         47.0004         43.0004
 -11155486.82343  -8650402.36242  22727671.0074   22727673.1384   22727671.0704
     -2801.1194      -2182.6844         45.0004         41.0004
  -5121268.66843  -3955244.56342  23672642.3114   23672645.5664   23672641.9374
      2675.2354       2084.5944         41.0004         37.0004
 -13185490.81943 -10225131.79742  21323569.8154   21323572.4704   21323569.4874
        32.6404         25.4304         49.0004         45.0004
 04 12 27  0  9  0.0000000  0  7G15G19G 3G 1G22G11G14
  -3614818.59143  -2774318.50242  22967295.7034   22967300.0634   22967295.1404
     -1694.4304      -1320.3374         45.0004         40.0004
 -19754367.46143 -15356959.26942  20653462.7694   20653463.6724   20653461.9204
       593.7684        462.6654         52.0004         48.0004
 -18851874.36643 -14644567.23042  20791087.0564   20791090.7424   20791086.8284
     -1518.1864      -1183.0124         50.0004         45.0004
 -12685585.84143  -9833953.61442  21913209.7844   21913214.0494   21913209.5134
      2957.0584       2304.1934         47.0004         43.0004
 -11071392.53543  -8584874.36742  22743673.5774   22743675.7764   22743673.6524
     -2805.1104      -2185.8054         45.0004         40.0004
  -5201511.56543  -4017771.46642  23657372.4824   23657375.5484   23657372.2654
      2674.3454       2083.9034         41.0004         37.0004
 -13186152.80743 -10225647.62342  21323443.8714   21323446.4844   21323443.5464
        11.4754          8.9364         49.0004         45.0004
 04 12 27  0  9 30.0000000  0  7G15G19G 3G 1G22G11G14
  -3563933.34243  -2734667.67642  22976978.8144   22976983.2174   22976978.2064
     -1698.0824      -1323.1784         45.0004         40.0004
 -19771908.29243 -15370627.45542  20650124.8344   20650125.7724   20650123.9914
       575.8064        448.6764         52.0004         48.0004
 -18806072.55443 -14608877.53442  20799802.9074   20799806.5564   20799802.6474
     -1535.2094      -1196.2664         50.0004         45.0004
 -12774130.90743  -9902949.74442  21896360.1634   21896364.4504   21896359.9164
      2945.9754       2295.5664         47.0004         43.0004
 -10987193.50043  -8519264.77142  22759696.1714   22759698.3844   22759696.1834
     -2808.0574      -2188.0904         45.0004         40.0004
  -5281748.17743  -4080293.47242  23642103.8694   23642106.9204   23642103.6404
      2674.5974       2084.0994         41.0004         37.0004
 -13186199.71943 -10225684.16742  21323434.8944   21323437.5504   21323434.5594
        -8.2294         -6.4284         49.0004         45.0004
 04 12 27  0 10  0.0000000  0  7G15G19G 3G 1G22G11G14
  -3512919.92443  -2694916.97342  22986686.3644   22986690.7244   22986685.7184
     -1702.1684      -1326.3624         45.0004         40.0004
 -19788889.84343 -15383859.84042  20646893.3104   20646894.3044   20646892.4954
       557.2194        434.1914         52.0004         47.0004
 -18759744.96643 -14572778.13742  20808618.7764   20808622.4474   20808618.5264
     -1552.3404      -1209.6124         50.0004         45.0004
 -12862321.77643  -9971669.87442  21879577.9644   21879582.2904   21879577.6894
      2934.2244       2286.4174         47.0004         43.0004
 -10902892.59943  -8453575.77642  22775738.1534   22775740.2964   22775738.2224
     -2811.0864      -2190.4564         45.0004         40.0004
  -5361978.26043  -4142810.39642  23626836.5504   23626839.6814   23626836.4464
      2674.6664       2084.1634         42.0004         37.0004
 -13185632.04343 -10225241.81542  21323542.8384   21323545.5734   21323542.4874
       -28.6274        -22.3124         49.0004         45.0004
 04 12 27  0 10 30.0000000  0  7G15G19G 3G 1G22G11G14
  -3461777.46643  -2655065.72342  22996418.5044   22996422.8904   22996417.8674
     -1706.6154      -1329.8244         45.0004         40.0004
 -19805310.88043 -15396655.45642  20643768.5014   20643769.5164   20643767.6794
       538.1904        419.3684         52.0004         47.0004
 -18712892.58543 -14536269.80642  20817534.5114   20817538.1864   20817534.2424
     -1570.2444      -1223.5644         50.0004         45.0004
 -12950154.95843 -10040111.29742  21862863.7224   21862868.1964   21862863.5554
      2921.8884       2276.7904         48.0004         43.0004
 -10818491.11243  -8387808.43042  22791799.1884   22791801.4304   22791799.2754
     -2814.8444      -2193.3834         45.0004         40.0004
  -5442200.73643  -4205321.36842  23611570.6854   23611574.0724   23611570.8044
      2674.1744       2083.7724         42.0004         37.0004
 -13184449.23043 -10224320.14442  21323767.9284   21323770.6634   21323767.5754
       -49.5944        -38.6474         49.0004         45.0004
 04 12 27  0 11  0.0000000  0  7G15G19G 3G 1G22G11G14
  -3410506.47243  -2615114.32942  23006175.0944   23006179.4974   23006174.5634
     -1711.3744      -1333.5304         45.0004         41.0004
 -19821171.16943 -15409014.13642  20640750.3944   20640751.3804   20640749.5654
       519.1714        404.5614         52.0004         47.0004
 -18665517.57343 -14499354.23042  20826549.6664   20826553.3734   20826549.3814
     -1587.9954      -1237.3984         50.0004         45.0004
 -13037628.48043 -10108272.46842  21846218.0454   21846222.4944   21846217.8414
      2909.5774       2267.1994         48.0004         43.0004
 -10733991.74943  -8321964.80442  22807878.9714   22807881.0424   22807879.0364
     -2818.2734      -2196.0494         45.0004         40.0004
  -5522415.90643  -4267826.66942  23596306.3284   23596309.7454   23596306.3284
      2673.2614       2083.0614         42.0004         38.0004
 -13182652.25643 -10222919.89042  21324109.8934   21324112.6104   21324109.5494
       -70.3284        -54.8054         49.0004         45.0004
 04 12 27  0 11 30.0000000  0  7G15G19G 3G 1G22G11G14
  -3359105.56043  -2575061.69742  23015956.3834   23015960.6724   23015955.8984
     -1715.7114      -1336.9194         45.0004         40.0004
 -19836468.63543 -15420934.24642  20637839.3604   20637840.3554   20637838.5594
       500.3844        389.9054         52.0004         47.0004
 -18617620.12343 -14462031.55542  20835664.2334   20835667.9394   20835663.9624
     -1605.3524      -1250.9334         50.0004         45.0004
 -13124738.35343 -10176150.25942  21829641.6154   21829646.0494   21829641.3684
      2897.4534       2257.7714         48.0004         43.0004
 -10649395.40543  -8256045.60542  22823977.0924   22823979.2094   22823977.1724
     -2821.4284      -2198.5144         45.0004         40.0004
  -5602621.89243  -4330324.81242  23581043.7274   23581046.9214   23581043.8154
      2673.2044       2083.0194         42.0004         37.0004
 -13180240.26043 -10221040.40042  21324568.8374   21324571.6064   21324568.4994
       -90.8954        -70.8504         49.0004         45.0004
 04 12 27  0 12  0.0000000  0  7G15G19G 3G 1G22G11G14
  -3307574.26443  -2534907.48042  23025762.5164   23025766.8934   23025761.9674
     -1719.6464      -1339.9774         45.0004         40.0004
 -19851202.04143 -15432414.83242  20635035.6964   20635036.6724   20635034.9094
       481.9604        375.5564         52.0004         47.0004
 -18569201.78243 -14424302.99942  20844877.8524   20844881.6774   20844877.6554
     -1622.3244      -1264.1604         50.0004         45.0004
 -13211481.72543 -10243742.47342  21813134.8324   21813139.3034   21813134.6404
      2885.4984       2248.4404         48.0004         43.0004
 -10564704.04643  -8190052.37642  22840093.3824   22840095.5244   22840093.4774
     -2824.4144      -2200.8444         45.0004         40.0004
  -5682817.66243  -4392814.97742  23565782.8794   23565786.2024   23565782.9344
      2673.3134       2083.1094         42.0004         38.0004
 -13177213.11743 -10218681.59042  21325144.9124   21325147.6754   21325144.5754
      -111.0674        -86.5434         49.0004         45.0004
 04 12 27  0 12 30.0000000  0  7G15G19G 3G 1G22G11G14
  -3255912.34343  -2494651.46842  23035593.4334   23035597.8284   23035592.9234
     -1724.6034      -1343.8524         45.0004         40.0004
 -19865370.71643 -15443455.36642  20632339.5114   20632340.5034   20632338.7254
       462.4174        360.3234         52.0004         48.0004
 -18520264.55043 -14386170.11342  20854190.3534   20854194.1714   20854190.1184
     -1640.2644      -1278.1124         50.0004         45.0004
 -13297855.89443 -10311047.00042  21796698.3194   21796702.8404   21796698.1384
      2872.3864       2238.2284         48.0004         43.0004
 -10479919.62643  -8123986.64142  22856227.3314   22856229.5454   22856227.3924
     -2827.9414      -2203.6004         45.0004         40.0004
  -5763002.68443  -4455296.77442  23550524.3404   23550527.5584   23550524.2724
      2672.3404       2082.3444         43.0004         38.0004
 -13173571.14643 -10215843.68342  21325837.9454   21325840.7104   21325837.6314
      -131.9394       -102.8094         49.0004         45.0004
 04 12 27  0 13  0.0000000  0  7G15G19G 3G 1G22G11G14
  -3204119.67443  -2454293.56542  23045449.3114   23045453.5944   23045448.7724
     -1728.6464      -1346.9984         45.0004         40.0004
 -19878974.02843 -15454055.35242  20629750.8524   20629751.8994   20629750.1024
       444.1814        346.1154         52.0004         48.0004
 -18470809.84943 -14347634.00742  20863601.2474   20863605.1114   20863601.0724
     -1657.1544      -1291.2864         50.0004         45.0004
 -13383858.36343 -10378061.88442  21780332.5724   21780337.0984   21780332.3654
      2860.7944       2229.1864         48.0004         43.0004
 -10395044.16243  -8057849.94942  22872378.6904   22872380.8274   22872378.7894
     -2830.6314      -2205.6864         45.0004         40.0004
  -5843176.39243  -4517769.73942  23535267.7514   23535270.9904   23535267.6594
      2672.4714       2082.4444         42.0004         38.0004
 -13169314.78543 -10212527.03242  21326647.9074   21326650.6834   21326647.5484
      -152.0924       -118.5234         49.0004         45.0004
 04 12 27  0 13 30.0000000  0  7G15G19G 3G 1G22G11G14
  -3152195.37943  -2413833.10042  23055330.2134   23055334.5094   23055329.6494
     -1732.7024      -1350.1614         45.0004         40.0004
 -19892010.35343 -15464213.53642  20627270.1894   20627271.1614   20627269.4034
       425.4684        331.5474         52.0004         48.0004
 -18420838.72343 -14308695.49242  20873110.4904   20873114.2914   20873110.2674
     -1674.0164      -1304.4204         50.0004         45.0004
 -13469485.52843 -10444784.32342  21764038.3544   21764042.7654   21764038.0464
      2848.1974       2219.3884         48.0004         43.0004
 -10310079.03443  -7991643.39942  22888547.1484   22888549.1834   22888547.1034
     -2833.6054      -2207.9994         45.0004         40.0004
  -5923337.19343  -4580232.68542  23520013.6404   23520016.8254   23520013.5104
      2672.2404       2082.2724         42.0004         38.0004
 -13164443.77243 -10208731.44142  21327574.9254   21327577.5874   21327574.5114
      -172.4064       -134.3454         49.0004         44.0004
 04 12 27  0 14  0.0000000  0  7G15G19G 3G 1G22G11G14
  -3100139.55543  -2373270.14842  23065236.1594   23065240.3924   23065235.5474
     -1737.5284      -1353.9164         45.0004         40.0004
 -19904479.24643 -15473929.55742  20624897.4224   20624898.4184   20624896.6324
       405.9504        316.3374         52.0004         48.0004
 -18370352.88843 -14269355.90042  20882717.5784   20882721.4654   20882717.4004
     -1691.6374      -1318.1464         50.0004         45.0004
 -13554734.91543 -10511212.38942  21747815.8254   21747820.3564   21747815.6084
      2835.2434       2209.2874         48.0004         43.0004
 -10225026.53343  -7925368.75042  22904732.1384   22904734.1494   22904732.0944
     -2836.6774      -2210.3994         45.0004         40.0004
  -6003484.83343  -4642685.35542  23504762.0924   23504765.3644   23504761.9224
      2671.2384       2081.4844         43.0004         38.0004
 -13158958.43843 -10204457.15142  21328618.7304   21328621.4014   21328618.3014
      -193.2644       -150.5964         49.0004         44.0004
 04 12 27  0 14 30.0000000  0  7G15G19G 3G 1G22G11G14
  -3047951.13443  -2332603.88942  23075167.2574   23075171.5474   23075166.6024
     -1741.8524      -1357.2814         45.0004         40.0004
 -19916379.32643 -15483202.35342  20622632.9264   20622633.9124   20622632.1264
       387.5094        301.9704         52.0004         48.0004
 -18319353.55743 -14229616.17942  20892422.4414   20892426.3234   20892422.2644
     -1708.2424      -1331.0844         50.0004         45.0004
 -13639603.24043 -10577343.53642  21731665.9664   21731670.3854   21731665.7124
      2823.0384       2199.7904         48.0004         43.0004
 -10139887.62243  -7859026.77042  22920933.6144   22920935.5524   22920933.6084
     -2839.2694      -2212.4194         45.0004         40.0004
  -6083617.84743  -4705126.61442  23489513.2244   23489516.5694   23489513.2034
      2671.1954       2081.4544         43.0004         38.0004
 -13152858.56043 -10199703.99742  21329779.4654   21329782.1884   21329779.0864
      -213.2424       -166.1534         49.0004         45.0004
                            4  1
RINEX FILE SPLICE; other post-header comments skipped       COMMENT
 04 12 27  0 15  0.0000000  0  7G15G19G 3G 1G22G11G14
  -2995629.98843  -2291834.20042  23085123.6574   23085127.9864   23085123.0244
     -1746.4104      -1360.8404         45.0004         40.0004
 -19927709.93043 -15492031.39942  20620476.8214   20620477.7604   20620476.0064
       368.0064        286.7544         52.0004         48.0004
 -18267842.49243 -14189477.71042  20902224.6794   20902228.5904   20902224.5244
     -1725.8284      -1344.8234         50.0004         45.0004
 -13724087.86243 -10643175.68042  21715589.0974   21715593.4484   21715588.8094
      2809.3984       2189.1324         48.0004         43.0004
 -10054664.46143  -7792619.14742  22937151.0574   22937153.0254   22937151.0214
     -2842.4384      -2214.8934         44.0004         40.0004
  -6163735.56243  -4767555.97142  23474267.2394   23474270.5834   23474267.3254
      2669.7564       2080.3274         43.0004         38.0004
 -13146144.53043 -10194472.27642  21331057.1674   21331059.8254   21331056.7774
      -234.4364       -182.6924         49.0004         45.0004
 04 12 27  0 15 30.0000000  0  7G15G19G 3G 1G22G11G14
  -2943175.25743  -2250960.41242  23095105.4914   23095109.7974   23095104.8574
     -1750.2554      -1363.8294         45.0004         40.0004
 -19938470.01543 -15500415.88542  20618429.2514   20618430.1864   20618428.4304
       349.7444        272.5434         52.0004         48.0004
 -18215820.88843 -14148941.41042  20912124.0414   20912128.0054   20912123.9214
     -1741.8894      -1357.3144         50.0004         45.0004
 -13808185.75643 -10708706.48042  21699585.7824   21699590.1354   21699585.5304
      2797.3284       2179.7474         48.0004         44.0004
  -9969358.67343  -7726147.15942  22953384.1744   22953386.2044   22953384.1744
     -2844.1864      -2216.2494         44.0004         40.0004
  -6243836.89443  -4829972.55742  23459024.4094   23459027.7524   23459024.4534
      2670.4024       2080.8364         43.0004         38.0004
 -13138816.78843 -10188762.34742  21332451.5394   21332454.2754   21332451.1904
      -253.9014       -197.8494         49.0004         44.0004
 04 12 27  0 16  0.0000000  0  7G15G19G 3G 1G22G11G14
  -2890586.98143  -2209982.56342  23105112.7014   23105117.0304   23105112.1574
     -1754.8844      -1367.4434         45.0004         40.0004
 -19948658.67243 -15508355.10542  20616490.4134   20616491.3614   20616489.6074
       330.4914        257.5334         52.0004         48.0004
 -18163290.31843 -14108008.51942  20922120.3924   20922124.2794   20922120.2004
     -1758.9234      -1370.5874         50.0004         45.0004
 -13891894.06143 -10773933.71642  21683656.6414   21683660.9204   21683656.3564
      2784.1954       2169.5224         48.0004         44.0004
  -9883972.12343  -7659612.20942  22969632.6814   22969634.7774   22969632.7174
     -2846.9594      -2218.4084         44.0004         40.0004
  -6323921.01543  -4892375.73442  23443784.8904   23443788.1324   23443784.8874
      2669.5184       2080.1434         43.0004         38.0004
 -13130875.21143 -10182574.11442  21333962.6714   21333965.4974   21333962.3464
      -274.5194       -213.9064         49.0004         44.0004
 04 12 27  0 16 30.0000000  0  7G15G19G 3G 1G22G11G14
  -2837864.84643  -2168900.42342  23115145.4194   23115149.7704   23115144.8634
     -1760.5814      -1371.8824         45.0004         40.0004
 -19958275.36043 -15515848.63242  20614660.4654   20614661.3774   20614659.6334
       309.8374        241.4254         52.0004         48.0004
 -18110252.99043 -14066680.75142  20932213.0594   20932216.9944   20932212.8994
     -1777.4824      -1385.0734         50.0004         45.0004
 -13975210.34943 -10838855.48342  21667802.0914   21667806.3444   21667801.8014
      2769.5244       2158.0644         48.0004         44.0004
  -9798506.80643  -7593015.89542  22985896.2434   22985898.3884   22985896.3084
     -2851.1364      -2221.6614         44.0004         40.0004
  -6403987.56743  -4954765.22242  23428548.7184   23428551.9164   23428548.7094
      2667.7064       2078.7364         43.0004         38.0004
 -13122320.50643 -10175908.10342  21335590.6304   21335593.3624   21335590.2744
      -296.3954       -230.9664         49.0004         44.0004
 04 12 27  0 17  0.0000000  0  7G15G19G 3G 1G22G11G14
  -2785007.78843  -2127713.12942  23125203.8094   23125208.1344   23125203.1884
     -1764.2134      -1374.7164         45.0004         40.0004
 -19967319.04643 -15522895.67142  20612939.4154   20612940.3954   20612938.6594
       291.9024        227.4574         52.0004         48.0004
 -18056709.83843 -14024958.83242  20942401.9984   20942405.9764   20942401.8464
     -1793.1294      -1397.2454         50.0004         45.0004
 -14058131.19443 -10903469.10642  21652022.8304   21652027.0114   21652022.5224
      2757.5724       2148.7574         48.0004         44.0004
  -9712963.87743  -7526359.09842  23002174.6234   23002176.6824   23002174.6454
     -2852.7694      -2222.9294         44.0004         40.0004
  -6484034.81443  -5017139.66142  23413316.2334   23413319.5124   23413316.2454
      2668.0724       2079.0154         43.0004         38.0004
 -13113152.59243 -10168764.28242  21337335.2464   21337337.9344   21337334.8934
      -315.8304       -246.0984         49.0004         44.0004
 04 12 27  0 17 30.0000000  0  7G15G19G 3G 1G22G11G14
  -2732015.48543  -2086420.43242  23135287.9234   23135292.2594   23135287.3114
     -1769.3554      -1378.7154         45.0004         40.0004
 -19975788.77243 -15529495.46042  20611327.7094   20611328.6874   20611326.9264
       272.1594        212.0644         52.0004         48.0004
 -18002662.33643 -13982843.91742  20952686.9654   20952690.8774   20952686.7784
     -1810.5484      -1410.8284         50.0004         45.0004
 -14140653.74343 -10967772.37242  21636319.3144   21636323.4624   21636319.0044
      2743.3964       2137.6894         48.0004         44.0004
  -9627345.32243  -7459643.37242  23018467.4094   23018469.3304   23018467.4294
     -2856.0034      -2225.4624         44.0004         40.0004
  -6564061.55943  -5079498.15042  23398087.7024   23398090.9414   23398087.7184
      2666.3524       2077.6714         43.0004         39.0004
 -13103371.71543 -10161142.81942  21339196.4744   21339199.1794   21339196.0784
      -336.8094       -262.4514         49.0004         44.0004
 04 12 27  0 18  0.0000000  0  7G15G19G 3G 1G22G11G14
  -2678887.67843  -2045022.17542  23145397.8344   23145402.2824   23145397.1774
     -1773.3684      -1381.8424         45.0004         40.0004
 -19983683.76943 -15535647.41642  20609825.3844   20609826.3214   20609824.5634
       253.5234        197.5634         52.0004         48.0004
 -17948112.32543 -13940337.44842  20963067.4994   20963071.4704   20963067.3284
     -1826.7684      -1423.4514         50.0004         45.0004
 -14222775.39843 -11031763.25242  21620692.0714   21620696.2034   21620691.7784
      2730.7504       2127.8514         49.0004         44.0004
  -9541652.70443  -7392869.94842  23034774.3304   23034776.1154   23034774.2824
     -2857.7094      -2226.7804         45.0004         40.0004
  -6644067.39243  -5141840.31942  23382863.1704   23382866.4054   23382863.1994
      2666.4644       2077.7654         43.0004         39.0004
 -13092978.56843 -10153044.26042  21341174.1804   21341176.9324   21341173.7854
      -356.7344       -277.9794         49.0004         44.0004
 04 12 27  0 18 30.0000000  0  7G15G19G 3G 1G22G11G14
  -2625623.84743  -2003517.91542  23155533.6884   23155538.0684   23155533.0124
     -1778.0184      -1385.4704         44.0004         40.0004
 -19991003.37843 -15541351.01142  20608432.4764   20608433.4654   20608431.6774
       233.8764        182.2394         52.0004         48.0004
 -17893061.41343 -13897440.66042  20973543.3744   20973547.3224   20973543.1834
     -1843.7404      -1436.6864         50.0004         45.0004
 -14304493.09843 -11095439.35642  21605141.7144   21605145.8064   21605141.4024
      2716.6404       2116.8554         49.0004         44.0004
  -9455887.79443  -7326040.18142  23051094.8624   23051096.6554   23051094.8694
     -2860.4234      -2228.8964         44.0004         39.0004
  -6724051.03343  -5204165.19042  23367642.7784   23367645.8334   23367642.6354
      2665.3414       2076.8894         43.0004         38.0004
 -13081973.16643 -10144468.62742  21343268.4314   21343271.1654   21343268.1154
      -377.5794       -294.2104         49.0004         44.0004
 04 12 27  0 19  0.0000000  0  7G15G19G 3G 1G22G11G14
  -2572223.23543  -1961907.07242  23165695.4524   23165699.9554   23165694.8344
     -1781.7944      -1388.4054         44.0004         40.0004
 -19997746.47743 -15546605.38242  20607149.3174   20607150.2844   20607148.5254
       215.6264        168.0284         52.0004         48.0004
 -17837510.95843 -13854154.61642  20984114.2544   20984118.2484   20984114.1034
     -1859.5284      -1448.9674         49.0004         45.0004
 -14385803.71243 -11158798.26442  21589668.7464   21589672.8744   21589668.4994
      2703.9584       2106.9814         49.0004         44.0004
  -9370051.88243  -7259155.06942  23067428.8784   23067430.5594   23067428.8174
     -2861.9874      -2230.1244         44.0004         39.0004
  -6804011.10943  -5266471.73342  23352426.7704   23352429.9364   23352426.6954
      2665.2864       2076.8504         43.0004         38.0004
 -13070355.87743 -10135416.18942  21345479.1374   21345481.8654   21345478.8164
      -396.9004       -309.2654         49.0004         44.0004
 04 12 27  0 19 30.0000000  0  7G15G19G 3G 1G22G11G14
  -2518686.16243  -1920189.90242  23175883.2654   23175887.7434   23175882.6754
     -1787.3274      -1392.7214         44.0004         40.0004
 -20003913.45543 -15551410.82042  20605975.7424   20605976.7614   20605974.9614
       195.5524        152.3764         52.0004         48.0004
 -17781463.63043 -13810481.40542  20994779.6534   20994783.7234   20994779.5314
     -1876.9124      -1462.5314         49.0004         45.0004
 -14466705.70043 -11221838.75042  21574273.6634   21574277.7304   21574273.3694
      2689.4974       2095.7174         49.0004         44.0004
  -9284147.71843  -7192216.79042  23083775.9254   23083777.6544   23083775.9254
     -2865.0134      -2232.4744         44.0004         40.0004
  -6883947.95143  -5328760.15542  23337215.2624   23337218.3634   23337215.0864
      2663.6194       2075.5504         43.0004         39.0004
 -13058128.14143 -10125888.08242  21347805.8874   21347808.7694   21347805.6194
      -418.2704       -325.9334         49.0004         44.0004
 04 12 27  0 20  0.0000000  0  7G15G19G 3G 1G22G11G14
  -2465011.20243  -1878365.30242  23186097.2974   23186101.6384   23186096.7014
     -1792.0554      -1396.4014         44.0004         39.0004
 -20009502.12343 -15555765.62842  20604912.2504   20604913.2834   20604911.4434
       176.2334        137.3204         52.0004         48.0004
 -17724919.84643 -13766421.34642  21005539.6454   21005543.6594   21005539.5014
     -1893.2884      -1475.2924         49.0004         45.0004
 -14547194.82943 -11284557.53542  21558957.0674   21558961.1584   21558956.8064
      2675.5754       2084.8534         49.0004         44.0004
  -9198175.47243  -7125225.46742  23100136.0154   23100137.6884   23100135.9804
     -2867.4664      -2234.3914         44.0004         40.0004
  -6963858.99643  -5391028.45942  23322008.7504   23322011.8074   23322008.5984
      2663.0314       2075.0804         43.0004         39.0004
 -13045289.22143 -10115883.73142  21350249.0984   21350251.9664   21350248.7964
      -438.6494       -341.8154         49.0004         44.0004
 04 12 27  0 20 30.0000000  0  7G15G19G 3G 1G22G11G14
  -2411197.90043  -1836432.89642  23196337.7134   23196341.9764   23196337.0904
     -1796.0664      -1399.5274         44.0004         39.0004
 -20014512.14743 -15559669.54642  20603958.8604   20603959.9084   20603958.0744
       157.4824        122.7164         52.0004         48.0004
 -17667881.42043 -13721975.83542  21016393.6954   21016397.7064   21016393.5674
     -1909.5234      -1487.9264         49.0004         45.0004
 -14627268.38143 -11346952.49042  21543719.5294   21543723.6254   21543719.2834
      2662.2124       2074.4464         49.0004         44.0004
  -9112137.16343  -7058182.67042  23116508.6574   23116510.3444   23116508.6254
     -2869.0084      -2235.5974         44.0004         39.0004
  -7043743.48543  -5453276.08542  23306807.3664   23306810.1444   23306807.1624
      2662.4924       2074.6644         43.0004         38.0004
 -13031839.42543 -10105403.37142  21352808.5314   21352811.3984   21352808.1974
      -458.4294       -357.2144         49.0004         45.0004
 04 12 27  0 21  0.0000000  0  7G15G19G 3G 1G22G11G14
  -2357247.22743  -1794393.43942  23206604.2174   23206608.4414   23206603.5794
     -1800.8714      -1403.2754         44.0004         39.0004
 -20018944.24543 -15563123.13642  20603115.4904   20603116.5354   20603114.6854
       137.8974        107.4444         52.0004         48.0004
 -17610351.30443 -13677147.19142  21027341.3624   21027345.3294   21027341.1924
     -1926.0764      -1500.8424         49.0004         45.0004
 -14706924.97043 -11409022.54242  21528561.3454   21528565.4574   21528561.1324
      2648.0464       2063.4184         49.0004         44.0004
  -9026035.54843  -6991090.54742  23132893.2514   23132894.9364   23132893.1574
     -2871.3964      -2237.4544         44.0004         39.0004
  -7123601.67843  -5515503.21542  23291610.8134   23291613.6344   23291610.6444
      2661.1734       2073.6384         43.0004         39.0004
 -13017780.70543 -10094448.52642  21355483.8574   21355486.6754   21355483.4924
      -478.9144       -373.1824         49.0004         44.0004
 04 12 27  0 21 30.0000000  0  7G15G19G 3G 1G22G11G14
  -2303158.02643  -1752246.02542  23216897.0674   23216901.2184   23216896.4754
     -1805.5624      -1406.9324         44.0004         39.0004
 -20022796.86143 -15566125.17742  20602382.3274   20602383.4244   20602381.5534
       118.4304         92.2764         52.0004         48.0004
 -17552330.35743 -13631936.09242  21038382.3794   21038386.3794   21038382.2244
     -1942.3684      -1513.5394         49.0004         45.0004
 -14786161.09343 -11470764.95242  21513483.1594   21513487.3444   21513482.9634
      2633.8424       2052.3454         49.0004         44.0004
  -8939871.61043  -6923949.84242  23149289.7564   23149291.4004   23149289.7274
     -2873.3494      -2238.9704         44.0004         40.0004
  -7203431.78843  -5577708.46542  23276419.6764   23276422.4244   23276419.4444
      2660.3064       2072.9624         43.0004         39.0004
 -13003112.97543 -10083019.12542  21358275.0764   21358277.8374   21358274.6564
      -499.3144       -389.0844         49.0004         44.0004
 04 12 27  0 22  0.0000000  0  8G15G19G 3G 1G22G11G14G20
  -2248929.22143  -1709989.85342  23227216.5144   23227220.5974   23227215.8464
     -1810.2624      -1410.5904         44.0004         39.0004
 -20026068.91443 -15568674.83142  20601759.7124   20601760.7544   20601758.9094
        99.2334         77.3284         52.0004         48.0004
 -17493819.87143 -13586343.53042  21049516.5704   21049520.5924   21049516.4264
     -1958.5414      -1526.1404         49.0004         45.0004
 -14864973.45143 -11532177.15442  21498485.6604   21498489.8784   21498485.4484
      2619.8364       2041.4354         49.0004         44.0004
  -8853646.50943  -6856761.47642  23165697.9344   23165699.5834   23165697.8434
     -2875.2034      -2240.4134         44.0004         40.0004
  -7283232.23843  -5639890.59242  23261234.0994   23261236.9234   23261233.8654
      2659.4674       2072.3084         43.0004         39.0004
 -12987836.19343 -10071115.13642  21361182.0724   21361184.8904   21361181.7234
      -519.3934       -404.7304         49.0004         44.0004
   -159525.75343    -89160.70642  24170549.8484   24170554.8924   24170547.9494
      2518.3604       1962.3524         51.0004         35.0004
 04 12 27  0 22 30.0000000  0  8G15G19G 3G 1G22G11G14G20
  -2194560.94143  -1667624.98742  23237562.4724   23237566.4604   23237561.8384
     -1814.7424      -1414.0814         44.0004         39.0004
 -20028760.25343 -15570771.97742  20601247.5054   20601248.6034   20601246.7134
        79.9914         62.3294         52.0004         48.0004
 -17434822.34343 -13540371.46542  21060743.4584   21060747.4424   21060743.2954
     -1974.5514      -1538.6174         49.0004         45.0004
 -14943359.62443 -11593257.26542  21483569.1984   21483573.4794   21483568.9884
      2605.7354       2030.4204         49.0004         44.0004
  -8767362.08643  -6789526.91342  23182117.2454   23182118.9834   23182117.1144
     -2877.0674      -2241.8674         44.0004         39.0004
  -7363002.39943  -5702049.12942  23246054.2974   23246057.1644   23246054.0484
      2658.4564       2071.5194         43.0004         39.0004
 -12971951.31243 -10058737.30442  21364204.9004   21364207.7514   21364204.5094
      -539.7104       -420.5444         49.0004         44.0004
   -234972.02043   -147949.95642  24156192.8514   24156197.5384   24156191.4344
      2511.5974       1957.0954         45.0004         35.0004
 04 12 27  0 23  0.0000000  0  8G15G19G 3G 1G22G11G14G20
  -2140052.93043  -1625151.25142  23247935.0244   23247939.1054   23247934.4014
     -1819.3254      -1417.6514         44.0004         39.0004
 -20030870.62843 -15572416.42842  20600845.9354   20600847.0144   20600845.1324
        60.6924         47.2974         52.0004         48.0004
 -17375339.92543 -13494021.55242  21072062.6534   21072066.5604   21072062.4574
     -1990.7994      -1551.2624         49.0004         44.0004
 -15021317.24743 -11654003.44642  21468734.3344   21468738.5924   21468734.1044
      2591.4684       2019.3234         49.0004         44.0004
  -8681020.27343  -6722247.60442  23198547.4514   23198549.2584   23198547.3664
     -2878.8714      -2243.2754         44.0004         39.0004
  -7442741.39343  -5764183.39342  23230880.4624   23230883.2234   23230880.2604
      2657.4484       2070.7384         43.0004         39.0004
 -12955459.21243 -10045886.31342  21367343.1994   21367346.0694   21367342.8104
      -559.8904       -436.2684         49.0004         44.0004
   -310217.63543   -206582.84342  24141873.7684   24141878.3874   24141872.7954
      2504.9274       1951.8954         42.0004         35.0004
 04 12 27  0 23 30.0000000  0  8G15G19G 3G 1G22G11G14G20
  -2085404.47743  -1582568.07942  23258334.3034   23258338.3834   23258333.6634
     -1823.9054      -1421.2234         44.0004         39.0004
 -20032399.05943 -15573607.41442  20600555.1344   20600556.1614   20600554.2894
        41.4184         32.2604         52.0004         48.0004
 -17315373.76243 -13447294.69942  21083473.8334   21083477.7794   21083473.6324
     -2006.7304      -1563.6824         49.0004         44.0004
 -15098843.24343 -11714413.29042  21453981.5954   21453985.8404   21453981.3394
      2577.0914       2008.1204         49.0004         44.0004
  -8594622.15343  -6654924.43942  23214988.5044   23214990.2624   23214988.4814
     -2880.5934      -2244.6144         44.0004         39.0004
  -7522447.70743  -5826292.17442  23215712.7014   23215715.6294   23215712.5834
      2656.3804       2069.9084         43.0004         39.0004
 -12938360.34943 -10032562.52442  21370597.0684   21370599.8554   21370596.6334
      -579.8374       -451.8214         49.0004         44.0004
   -385262.02343   -265058.94042  24127593.1724   24127597.6414   24127592.3534
      2498.2394       1946.6694         40.0004         35.0004
 04 12 27  0 24  0.0000000  0  8G15G19G 3G 1G22G11G14G20
  -2030614.92743  -1539874.96242  23268760.4344   23268764.5754   23268759.7804
     -1829.0724      -1425.2574         44.0004         39.0004
 -20033344.90743 -15574344.44742  20600375.0984   20600376.1754   20600374.3034
        21.4994         16.7444         52.0004         48.0004
 -17254925.63943 -13400192.29942  21094976.7494   21094980.6664   21094976.5214
     -2023.1194      -1576.4864         49.0004         44.0004
 -15175934.77543 -11774484.59842  21439311.4854   21439315.7564   21439311.2584
      2562.3974       1996.6734         49.0004         44.0004
  -8508169.31743  -6587558.63342  23231439.9584   23231441.6734   23231439.9734
     -2882.7504      -2246.3034         44.0004         39.0004
  -7602120.17243  -5888374.60442  23200551.4524   23200554.3574   23200551.4254
      2655.1474       2068.9544         43.0004         39.0004
 -12920655.19243 -10018766.30642  21373966.2194   21373969.0544   21373965.8114
      -600.3844       -467.8364         49.0004         44.0004
   -460104.70343   -323377.87942  24113351.0604   24113355.2744   24113350.4524
      2491.1044       1941.1114         40.0004         35.0004
 04 12 27  0 24 30.0000000  0  8G15G19G 3G 1G22G11G14G20
  -1975683.92743  -1497071.61742  23279213.4734   23279217.6974   23279212.8274
     -1833.3494      -1428.5824         44.0004         40.0004
 -20033708.13043 -15574627.48442  20600306.0004   20600307.0494   20600305.1924
         2.5804          2.0214         52.0004         48.0004
 -17193997.69443 -13352715.99842  21106570.9314   21106574.8964   21106570.7194
     -2038.6884      -1588.5954         49.0004         44.0004
 -15252589.40243 -11834215.45342  21424724.5544   21424728.8884   21424724.3034
      2547.9394       1985.4134         49.0004         44.0004
  -8421663.41343  -6520151.47542  23247901.3994   23247903.2344   23247901.4244
     -2884.1624      -2247.3984         44.0004         39.0004
  -7681757.85043  -5950429.91642  23185396.8224   23185399.7614   23185396.7864
      2654.4174       2068.3794         43.0004         39.0004
 -12902344.49743 -10004498.22742  21377450.5614   21377453.4454   21377450.2534
      -620.2034       -483.2724         49.0004         44.0004
   -534745.57943   -381539.53542  24099147.2204   24099151.5514   24099146.7094
      2484.8844       1936.2754         40.0004         36.0004
 04 12 27  0 25  0.0000000  0  8G15G19G 3G 1G22G11G14G20
  -1920610.75243  -1454157.49942  23289693.5824   23289697.9394   23289692.9834
     -1837.8594      -1432.0954         44.0004         40.0004
 -20033487.65643 -15574455.69642  20600347.9434   20600348.9874   20600347.1514
       -16.9024        -13.1674         52.0004         48.0004
 -17132591.55843 -13304867.07742  21118256.0774   21118260.1184   21118255.8994
     -2054.6034      -1600.9754         49.0004         44.0004
 -15328804.06143 -11893603.47942  21410221.3364   21410225.7034   21410221.1154
      2533.3884       1974.0654         49.0004         44.0004
  -8335105.70543  -6452703.96842  23264372.7464   23264374.7064   23264372.7154
     -2885.9444      -2248.7894         44.0004         39.0004
  -7761359.33243  -6012457.02542  23170249.1384   23170252.0684   23170249.1204
      2653.0724       2067.3324         43.0004         39.0004
