     2.10           OBSERVATION DATA    G (GPS)             RINEX VERSION / TYPE
teqc  2002Mar14     gpsodc(auto)        20040824 01:11:05UTCPGM / RUN BY / DATE
OBSERVATION MODE: IGS-Net                                   COMMENT
ULAB Ulaanbataar (ULAB)                                     MARKER NAME
24201M001                                                   MARKER NUMBER
287-U               AOA SNR-8000 ACT     3.30               REC # / TYPE / VERS
340-U               AOAD/M_T        NONE                    ANT # / TYPE
        0.0460        0.0000        0.0000                  ANTENNA: DELTA H/E/N
  -1257408.5223  4099404.3482  4707992.6225                 APPROX POSITION XYZ
  107.05232506  47.86506789  1575.5238  LonLatAlt  S/W      COMMENT
unknown             IVTAN                                   OBSERVER / AGENCY
     1     1                                                WAVELENGTH FACT L1/2
     7    L1    L2    C1    P1    P2    S1    S2            # / TYPES OF OBSERV
    30.0000                                                 INTERVAL
Linux 2.0.36|Pentium II|gcc -static|Linux|486/DX+           COMMENT
bx2rxo      unknown * Tue Aug 24 02:31:45 2004              COMMENT
  2004     8    24     0     0    0.0000000     GPS         TIME OF FIRST OBS
  2004     8    24    23    59   30.0000000     GPS         TIME OF LAST OBS
                                                            END OF HEADER
 04  8 24  0  0  0.0000000  0 10G15G 9G 6G29G18G 8G17G10G26G21
  -1925821.38505  -1500639.72105  24169906.03800  24169905.05600  24169907.22200
         8.00000         6.00000
   -277634.22505   -216338.22304  24579306.91500  24579306.80700  24579307.36400
         4.00000         3.00000
 -10208816.76806  -7954928.90806  23379153.51500  23379153.24500  23379155.26500
        30.00000        13.00000
 -18517087.24708 -14428896.44108  20760698.85800  20760698.45300  20760698.01800
       234.00000       175.00000
 -12087612.29008  -9418917.14206  22339338.67600  22339338.13400  22339336.91500
       115.00000        31.00000
  -7016441.79006  -5467354.11005  24105938.05500  24105937.22200  24105939.04000
        21.00000         7.00000
  -6407046.35306  -4992509.03706  23213851.77400  23213851.31600  23213853.76600
        24.00000        17.00000
  -6877253.48807  -5358901.18906  22952653.81000  22952653.34200  22952655.26900
        54.00000        31.00000
 -22730768.75309 -17712284.65008  19918834.05600  19918833.88900  19918833.24700
       341.00000       234.00000
 -25140627.23908 -19590098.01608  20716358.92800  20716358.33600  20716356.76500
       259.00000       139.00000
 04  8 24  0  0 30.0000000  0 10G15G 9G 6G29G18G 8G17G10G26G21
  -2036172.59705  -1586627.68005  24148906.05600  24148906.36600  24148907.80100
         6.00000         8.00000
   -396635.11005   -309066.16204  24556661.53000  24556660.55300  24556661.66400
         7.00000         3.00000
 -10118260.18606  -7884365.39305  23396386.20700  23396385.77100  23396386.89500
        24.00000         8.00000
 -18474568.49408 -14395764.95708  20768789.73800  20768789.43400  20768788.91900
       235.00000       168.00000
 -12163460.58908  -9478019.68207  22324905.76700  22324905.08300  22324903.38100
       117.00000        32.00000
  -6963857.40306  -5426379.29005  24115943.30500  24115943.25900  24115945.56200
        22.00000         7.00000
  -6302955.30906  -4911399.22506  23233660.55300  23233659.84400  23233662.71600
        23.00000        22.00000
  -6791962.17807  -5292440.49606  22968885.03900  22968883.95400  22968885.39900
        53.00000        28.00000
 -22710149.32809 -17696217.57208  19922757.77500  19922757.61500  19922757.03200
       338.00000       231.00000
 -25190629.94408 -19629061.16508  20706843.70900  20706843.25100  20706841.69800
       262.00000       143.00000
 04  8 24  0  1  0.0000000  0 11G15G 9G 6G29G18G 8G17G10G26G21G 3
  -2146403.23805  -1672521.65905  24127930.77000  24127930.33900  24127931.60900
        10.00000        10.00000
   -515616.91505   -401779.21905  24534019.46100  24534019.38800  24534020.41300
         8.00000         5.00000
 -10027477.33406  -7813625.57206  23413662.56300  23413662.31600  23413663.87000
        26.00000        11.00000
 -18431589.00808 -14362274.46608  20776967.49300  20776968.02300  20776967.57000
       237.00000       165.00000
 -12239109.47708  -9536966.83707  22310509.50800  22310509.15600  22310508.16800
       114.00000        35.00000
  -6910722.37706  -5384975.40205  24126055.12100  24126054.78700  24126056.42200
        20.00000         8.00000
  -6198590.62006  -4830076.15906  23253520.68200  23253520.35200  23253521.75800
        30.00000        16.00000
  -6706518.58807  -5225861.13806  22985144.89500  22985144.08200  22985144.80600
        59.00000        29.00000
 -22688897.97409 -17679658.07808  19926801.52700  19926801.50800  19926801.06400
       337.00000       232.00000
 -25240138.69408 -19667639.42208  20697422.89000  20697422.28400  20697420.51000
       276.00000       144.00000
    -41457.77600    -32304.21804  25144545.87300  25144549.73100  25144547.55200
          .00000         2.00000
 04  8 24  0  1 30.0000000  0 10G15G 9G 6G29G18G 8G17G10G26G21
  -2256586.74705  -1758378.93405  24106962.48100  24106962.27500  24106963.76800
         8.00000         7.00000
   -634651.88705   -494533.70105  24511366.84300  24511367.13600  24511370.03100
         8.00000         6.00000
  -9936546.74406  -7742770.65805  23430964.82100  23430964.34500  23430966.83300
        18.00000         8.00000
 -18388226.09108 -14328485.19608  20785220.17600  20785219.97300  20785219.26700
       241.00000       166.00000
 -12314633.76808  -9595816.92207  22296137.91600  22296137.43700  22296136.32900
       119.00000        37.00000
  -6857114.43606  -5343203.01905  24136257.55600  24136255.99600  24136258.23100
        17.00000         7.00000
  -6094029.59706  -4748600.11005  23273417.72700  23273417.13800  23273417.86600
        26.00000        10.00000
  -6620998.97507  -5159222.54406  23001417.61500  23001417.31100  23001418.80000
        56.00000        29.00000
 -22667091.74309 -17662666.21208  19930951.41700  19930951.28700  19930950.63300
       338.00000       231.00000
 -25289226.47808 -19705889.65608  20688081.71000  20688081.11900  20688079.28000
       272.00000       146.00000
 04  8 24  0  2  0.0000000  0 11G15G 9G 6G29G18G 8G17G10G26G21G 3
  -2366609.02906  -1844110.58505  24086026.52200  24086026.44400  24086027.28700
        13.00000         8.00000
   -753625.20505   -587240.15205  24488728.40700  24488728.88800  24488730.23300
        10.00000         6.00000
  -9845359.46606  -7671715.69005  23448317.27000  23448316.77000  23448319.04100
        18.00000         6.00000
 -18344369.71408 -14294311.40408  20793566.39300  20793565.76300  20793565.07800
       239.00000       170.00000
 -12389920.93408  -9654482.22907  22281810.01200  22281810.41200  22281809.93900
       113.00000        38.00000
  -6802923.15506  -5300976.09805  24146567.67300  24146568.14700  24146569.98100
        17.00000         6.00000
  -5989162.14706  -4666885.25206  23293373.35500  23293372.49600  23293374.87200
        20.00000        16.00000
  -6535292.40307  -5092438.27806  23017727.00600  23017726.26800  23017728.60400
        51.00000        31.00000
 -22644620.34109 -17645156.02808  19935227.44900  19935227.35300  19935226.85200
       339.00000       232.00000
 -25337779.66708 -19743723.31208  20678841.80200  20678841.39000  20678839.88100
       262.00000       145.00000
         -.74110         -.66714  25121098.80100  25121097.53200  25121097.17100
        -1.00000         3.00000
 04  8 24  0  2 30.0000000  0 10G15G 9G 6G29G18G 8G17G10G26G21
  -2476548.79506  -1929777.93305  24065105.85200  24065105.57700  24065106.59700
        15.00000         9.00000
   -872615.13406   -679959.55105  24466087.06400  24466086.01400  24466087.32500
        11.00000         5.00000
  -9753999.67206  -7600526.28505  23465702.81900  23465703.09200  23465703.21800
        21.00000         7.00000
 -18300102.74808 -14259817.67408  20801990.00400  20801989.52200  20801988.84800
       232.00000       170.00000
 -12465051.10908  -9713025.21307  22267513.42300  22267513.35900  22267512.78100
       107.00000        38.00000
  -6748231.62906  -5258359.34505  24156976.32700  24156975.65900  24156977.98800
        19.00000         6.00000
  -5884071.16906  -4584996.28606  23313372.07800  23313371.58100  23313373.29700
        26.00000        17.00000
  -6449480.65707  -5025572.03206  23034057.18600  23034056.37000  23034058.11000
        52.00000        29.00000
 -22621566.44009 -17627191.94808  19939614.39900  19939614.28600  19939613.72600
       332.00000       229.00000
 -25385877.28608 -19781201.98008  20669689.74400  20669688.98700  20669687.23200
       265.00000       147.00000
 04  8 24  0  3  0.0000000  0 10G15G 9G 6G29G18G 8G17G10G26G21
  -2586411.54706  -2015385.28505  24044199.71700  24044199.54700  24044200.90000
        17.00000         9.00000
   -991626.35305   -772695.55305  24443438.68600  24443438.58400  24443439.94900
         9.00000         5.00000
  -9662477.73106  -7529210.58905  23483120.20200  23483119.10400  23483120.63500
        12.00000        10.00000
 -18255434.68608 -14225011.40308  20810489.28700  20810489.14300  20810488.92400
       232.00000       170.00000
 -12540031.25808  -9771451.29207  22253245.24300  22253245.15300  22253244.45500
       113.00000        36.00000
  -6693048.92406  -5215359.86105  24167477.11800  24167476.65000  24167479.40100
        18.00000         6.00000
  -5778766.13306  -4502940.48206  23333411.24200  23333410.11200  23333412.38700
        22.00000        18.00000
  -6363572.22007  -4958630.46806  23050405.91700  23050405.18000  23050405.55000
        58.00000        28.00000
 -22597939.22709 -17608781.13708  19944110.59000  19944110.42200  19944109.81100
       334.00000       228.00000
 -25433524.74108 -19818329.87808  20660622.69400  20660622.00700  20660620.29200
       272.00000       149.00000
 04  8 24  0  3 30.0000000  0 10G15G 9G 6G29G18G 8G17G10G26G21
  -2696159.57906  -2100903.23305  24023315.69200  24023315.47300  24023316.60900
        16.00000        10.00000
  -1110620.42506   -865418.19405  24420794.11700  24420793.49300  24420796.03100
        11.00000         5.00000
  -9570761.48406  -7457743.47405  23500570.98900  23500571.00200  23500574.00900
        11.00000        10.00000
 -18210332.08908 -14189866.54008  20819071.80700  20819071.91000  20819071.58200
       241.00000       167.00000
 -12614825.05208  -9829732.16007  22239013.00200  22239012.61900  22239011.96400
       119.00000        37.00000
  -6637341.62606  -5171951.59905  24178078.04400  24178077.51200  24178079.61500
        15.00000         5.00000
  -5673213.39306  -4420691.64505  23353493.95000  23353494.81000  23353496.83900
        17.00000         9.00000
  -6277532.21607  -4891586.36506  23066777.68500  23066776.85600  23066778.67700
        48.00000        28.00000
 -22573704.82109 -17589897.18708  19948722.10900  19948722.16700  19948721.54200
       339.00000       228.00000
 -25480684.59108 -19855077.81808  20651647.85900  20651647.40600  20651646.07000
       259.00000       150.00000
 04  8 24  0  4  0.0000000  0 11G15G 9G 6G29G18G 8G17G10G26G21G22
  -2805837.95106  -2186366.87805  24002444.48400  24002444.35900  24002445.60400
        17.00000        10.00000
  -1229641.61306   -958161.98805  24398144.78000  24398144.96000  24398146.72800
        11.00000         4.00000
  -9478900.92106  -7386163.86905  23518052.01500  23518051.67700  23518054.15100
        13.00000         8.00000
 -18164844.03408 -14154421.31508  20827728.31900  20827728.24600  20827727.56400
       242.00000       164.00000
 -12689479.11908  -9887904.14407  22224807.23000  22224806.56900  22224805.19000
       122.00000        36.00000
  -6581159.17806  -5128173.09605  24188770.55700  24188769.20700  24188771.49300
        13.00000         6.00000
  -5567462.12906  -4338288.11806  23373620.26200  23373619.14500  23373621.94600
        19.00000        13.00000
  -6191408.77107  -4824477.24706  23083166.48600  23083165.86100  23083167.85900
        49.00000        27.00000
 -22548912.16909 -17570578.23608  19953440.33500  19953440.04300  19953439.45800
       328.00000       229.00000
 -25527402.34808 -19891481.26208  20642758.02500  20642757.37100  20642756.04000
       255.00000       153.00000
         -.96814         -.02214  24985330.26700  24985329.91000  24985328.72900
         1.00000         1.00000
 04  8 24  0  4 30.0000000  0 11G15G 9G 6G29G18G 8G17G10G26G21G 3
  -2915386.02906  -2271728.99906  23981598.15100  23981597.46100  23981599.26600
        15.00000        11.00000
  -1348628.52506  -1050879.07305  24375502.97900  24375501.94400  24375504.56800
        12.00000         5.00000
  -9386840.95006  -7314428.88405  23535571.80500  23535571.48200  23535572.38300
        14.00000         8.00000
 -18118914.06808 -14118631.74008  20836468.70800  20836468.42200  20836467.79300
       238.00000       162.00000
 -12763934.45308  -9945921.26407  22210639.36700  22210638.41400  22210636.72900
       122.00000        36.00000
  -6524444.99206  -5083980.25505  24199561.06300  24199561.19900  24199564.32300
        12.00000         7.00000
  -5461455.85906  -4255685.90906  23393792.64500  23393792.12900  23393794.44900
        23.00000        19.00000
  -6105144.39507  -4757258.31906  23099583.15200  23099582.01600  23099583.26900
        52.00000        27.00000
 -22523504.67709 -17550780.20108  19958274.94000  19958274.92400  19958274.29400
       329.00000       230.00000
 -25573617.43008 -19927493.02008  20633963.74300  20633963.27600  20633961.51200
       271.00000       154.00000
        -1.01114         -.61014  25063917.17600  25063915.63900  25063918.31700
         1.00000         2.00000
 04  8 24  0  5  0.0000000  0 10G15G 9G 6G29G18G 8G17G10G26G21
  -3024788.69206  -2356977.81306  23960780.40300  23960779.86600  23960780.98700
        14.00000        11.00000
  -1467565.17406  -1143557.00505  24352869.91100  24352869.75600  24352872.69500
        15.00000         9.00000
  -9294571.39406  -7242530.60005  23553129.39300  23553129.24300  23553130.26300
        15.00000         6.00000
 -18072531.49108 -14082489.48408  20845295.22200  20845294.64800  20845294.06200
       230.00000       162.00000
 -12838177.33708 -10003772.85607  22196510.15600  22196509.81400  22196508.92200
       119.00000        38.00000
  -6467188.15806  -5039364.61605  24210459.11500  24210457.81500  24210459.79400
        12.00000         7.00000
  -5355183.52106  -4172876.40706  23414014.96500  23414014.71900  23414017.57300
        19.00000        16.00000
  -6018726.89707  -4689920.07306  23116026.68500  23116025.76500  23116027.33000
        47.00000        24.00000
 -22497471.14909 -17530494.33708  19963229.21400  19963228.93600  19963228.45800
       331.00000       233.00000
 -25619315.10008 -19963101.60408  20625267.63100  20625267.29400  20625265.63700
       274.00000       160.00000
 04  8 24  0  5 30.0000000  0 11G15G 9G 6G29G18G 8G17G10G26G21G22
  -3134043.06905  -2442111.06705  23939989.67800  23939988.97200  23939990.21400
        10.00000         8.00000
  -1586448.00606  -1236192.95105  24330245.20200  24330245.69900  24330249.70500
        12.00000        10.00000
  -9202094.89006  -7170471.06006  23570727.26400  23570726.80100  23570728.82800
        16.00000        11.00000
 -18025697.25808 -14045995.28808  20854207.06100  20854206.86100  20854206.33300
       232.00000       160.00000
 -12912206.31908 -10061457.75107  22182422.46400  22182422.48300  22182422.44900
       115.00000        43.00000
  -6409390.13706  -4994327.22905  24221457.14000  24221456.51800  24221457.92500
        12.00000         7.00000
  -5248646.38206  -4089860.53205  23434287.73000  23434287.13900  23434289.33700
        14.00000         9.00000
  -5932156.48607  -4622462.64906  23132500.63800  23132499.77700  23132501.63400
        45.00000        27.00000
 -22470812.46509 -17509721.34108  19968301.89800  19968301.83700  19968301.48900
       330.00000       234.00000
 -25664492.43708 -19998304.72008  20616670.66800  20616670.15200  20616668.65600
       261.00000       159.00000
          .15115         -.21414  24932980.28600  24932980.15900  24932979.78300
         4.00000         2.00000
 04  8 24  0  6  0.0000000  0 12G15G 9G 6G29G18G 8G17G10G26G21G22G 3
  -3243212.29305  -2527177.97005  23919216.03700  23919215.15400  23919215.29000
        10.00000         6.00000
  -1705339.36106  -1328835.52906  24307621.07600  24307621.90500  24307625.70300
        11.00000        11.00000
  -9109479.48405  -7098303.32505  23588351.55800  23588350.58400  23588353.09900
         9.00000         9.00000
 -17978478.94208 -14009201.81008  20863192.61500  20863192.45600  20863191.76900
       237.00000       161.00000
 -12986086.11708 -10119026.41407  22168363.78500  22168363.51900  22168363.55400
       109.00000        46.00000
  -6351118.34806  -4948920.68205  24232546.62300  24232546.18800  24232547.18400
        15.00000         6.00000
  -5141911.69406  -4006690.69405  23454599.76800  23454599.13800  23454601.08400
        21.00000         8.00000
  -5845498.94307  -4554937.35806  23148991.35300  23148990.76800  23148991.41600
        50.00000        22.00000
 -22443595.79909 -17488513.55408  19973480.92700  19973480.78300  19973480.61100
       320.00000       233.00000
 -25709212.88008 -20033151.82008  20608161.01700  20608160.34100  20608158.69000
       268.00000       160.00000
    -91617.74805    -71390.80104  24915544.82400  24915544.67600  24915544.38300
         4.00000         2.00000
         -.63215         -.99610  25030647.15500  25030646.72900  25030647.23500
         7.00000          .00000
 04  8 24  0  6 30.0000000  0 11G15G 9G 6G29G18G 8G17G10G26G21G22
  -3352288.42705  -2612172.33505  23898458.12000  23898457.69200  23898458.76300
         9.00000         7.00000
  -1824230.31806  -1421477.79105  24284999.19800  24284999.22800  24285001.09300
        13.00000         7.00000
  -9016722.41806  -7026025.17305  23606002.80700  23606002.72500  23606004.56100
        14.00000         7.00000
 -17930872.30208 -13972105.74108  20872251.63800  20872251.65900  20872251.05000
       243.00000       160.00000
 -13059810.26508 -10176473.78607  22154334.61600  22154334.78400  22154334.18100
       117.00000        48.00000
  -6292368.43406  -4903141.54105  24243725.65800  24243725.44500  24243726.92600
        14.00000         7.00000
  -5034975.38306  -3923363.72106  23474949.47900  23474948.57400  23474951.40600
        17.00000        14.00000
  -5758749.48707  -4487340.42506  23165499.45300  23165498.23100  23165499.76500
        43.00000        22.00000
 -22415817.00509 -17466867.75008  19978767.14900  19978767.01800  19978766.76000
       325.00000       234.00000
 -25753468.79008 -20067636.94908  20599738.94700  20599738.62000  20599736.91400
       272.00000       159.00000
   -183221.03405   -142770.05004  24898115.63100  24898115.56300  24898113.64200
         6.00000         2.00000
 04  8 24  0  7  0.0000000  0 11G15G 9G 6G29G18G 8G17G10G26G21G22
  -3461225.60405  -2697058.38905  23877729.54600  23877728.34700  23877728.05800
         8.00000         4.00000
  -1943074.62806  -1514083.73005  24262383.76400  24262383.44100  24262385.37100
        14.00000         7.00000
  -8923783.47206  -6953605.30805  23623690.03700  23623689.26400  23623689.44300
        16.00000         4.00000
 -17882836.21308 -13934675.03208  20881392.69400  20881392.54900  20881392.17700
       237.00000       162.00000
 -13133334.62708 -10233765.47207  22140343.81500  22140343.40000  22140342.81100
       121.00000        45.00000
  -6233099.18206  -4856957.73505  24255004.53600  24255004.66800  24255004.99800
        12.00000         6.00000
  -4927796.11206  -3839847.53206  23495344.37300  23495343.93300  23495347.44000
        16.00000        19.00000
  -5671865.62407  -4419638.77606  23182032.22500  23182031.51400  23182032.90000
        42.00000        21.00000
 -22387434.79009 -17444751.74108  19984168.24600  19984168.16800  19984167.70600
       334.00000       232.00000
 -25797214.93908 -20101724.86108  20591414.18500  20591413.75700  20591412.31200
       252.00000       161.00000
   -274766.27605   -214104.00404  24880695.18900  24880694.91400  24880693.66600
         7.00000         3.00000
 04  8 24  0  7 30.0000000  0 11G15G 9G 6G29G18G 8G17G10G26G21G22
  -3570003.63406  -2781820.50805  23857028.68200  23857027.84400  23857028.96500
        12.00000         5.00000
  -2061851.14206  -1606636.82105  24239781.11800  24239780.85900  24239783.16400
        17.00000         8.00000
  -8830647.53406  -6881031.91004  23641411.08400  23641411.25900  23641411.98600
        13.00000         3.00000
 -17834354.80208 -13896897.31708  20890618.39500  20890618.16400  20890617.93800
       229.00000       162.00000
 -13206640.47008 -10290886.89707  22126394.13200  22126393.74400  22126393.29700
       131.00000        49.00000
  -6173294.78805  -4810356.95805  24266384.81200  24266385.45800  24266385.60500
        10.00000         7.00000
  -4820357.90806  -3756129.57006  23515790.40200  23515789.31500  23515791.52800
        17.00000        15.00000
  -5584830.30107  -4351819.10706  23198594.91000  23198594.34900  23198595.83000
        45.00000        24.00000
 -22358432.83409 -17422152.81908  19989686.91600  19989686.96800  19989686.57600
       328.00000       231.00000
 -25840431.39608 -20135400.01808  20583190.29900  20583189.74700  20583188.42400
       249.00000       160.00000
   -366234.50305   -285377.94205  24863288.70900  24863288.67000  24863287.12300
         8.00000         4.00000
 04  8 24  0  8  0.0000000  0 11G15G 9G 6G29G18G 8G17G10G26G21G22
  -3678706.86506  -2866524.28605  23836342.92600  23836342.48000  23836343.79700
        15.00000         6.00000
  -2180643.44406  -1699202.20105  24217176.65400  24217176.15900  24217177.32900
        21.00000         7.00000
  -8737404.64806  -6808375.18805  23659154.89300  23659154.78600  23659156.44400
        13.00000         5.00000
 -17785516.58108 -13858841.57208  20899911.99500  20899911.75900  20899911.49900
       223.00000       160.00000
 -13279813.64108 -10347904.93007  22112470.21800  22112469.80100  22112468.69400
       134.00000        48.00000
  -6113044.27605  -4763408.56405  24277848.57300  24277849.07900  24277851.06100
         7.00000         9.00000
  -4712749.21006  -3672278.71605  23536266.17900  23536265.18700  23536267.75200
        11.00000         8.00000
  -5497730.54007  -4283949.23106  23215169.33600  23215168.63900  23215169.82200
        39.00000        21.00000
 -22328899.58209 -17399139.90408  19995307.18800  19995307.05100  19995306.55100
       328.00000       227.00000
 -25883202.92308 -20168728.48808  20575051.85900  20575051.14400  20575049.31600
       264.00000       163.00000
   -457711.85905   -356658.98905  24845881.57700  24845881.47200  24845880.22400
         7.00000         5.00000
 04  8 24  0  8 30.0000000  0 11G15G 9G 6G29G18G 8G17G10G26G21G22
  -3787268.61206  -2951117.83705  23815684.05900  23815684.25500  23815684.27000
        13.00000         5.00000
  -2299384.39806  -1791727.58805  24194580.62200  24194579.96300  24194581.43700
        22.00000         6.00000
  -8643992.95006  -6735586.93605  23676932.25300  23676931.29400  23676932.82200
        17.00000         5.00000
 -17736259.09508 -13820459.12808  20909286.16800  20909285.57500  20909284.78100
       228.00000       158.00000
 -13352789.04908 -10404768.86107  22098582.91200  22098582.56600  22098581.93500
       135.00000        49.00000
  -6052284.84005  -4716063.59405  24289413.51600  24289412.70400  24289412.87500
        10.00000         8.00000
  -4604907.50106  -3588246.26605  23556788.69000  23556787.87700  23556789.59700
        13.00000         8.00000
  -5410502.97007  -4215979.72606  23231768.05800  23231767.74200  23231768.52900
        42.00000        20.00000
 -22298772.53609 -17375664.29208  20001040.52900  20001040.22600  20001039.47200
       332.00000       227.00000
 -25925463.05708 -20201658.46908  20567009.74900  20567009.22400  20567007.38900
       264.00000       163.00000
   -549133.70005   -427896.78805  24828483.79400  24828483.76700  24828482.42400
         5.00000         6.00000
 04  8 24  0  9  0.0000000  0 12G15G 9G 6G29G18G 8G17G10G26G21G22G 3
  -3895687.46106  -3035600.04305  23795053.41300  23795052.82300  23795053.69000
        18.00000         6.00000
  -2418071.44106  -1884210.99105  24171994.84700  24171995.00600  24171996.16400
        25.00000         5.00000
  -8550416.40206  -6662670.20304  23694737.54300  23694736.97600  23694739.14900
        11.00000         3.00000
 -17686585.11408 -13781752.14308  20918738.09000  20918737.96500  20918737.28400
       230.00000       155.00000
 -13425566.81308 -10461478.81007  22084734.84700  22084733.90300  22084732.04900
       144.00000        43.00000
  -5991019.24705  -4668324.21805  24301069.67000  24301070.00600  24301072.17000
         9.00000         9.00000
  -4496835.54806  -3504034.41206  23577353.06700  23577352.85800  23577356.18400
        15.00000        11.00000
  -5323149.14407  -4147911.88406  23248390.79300  23248389.95400  23248392.49600
        37.00000        24.00000
 -22268054.06809 -17351727.82608  20006885.75600  20006885.64700  20006885.11600
       330.00000       226.00000
 -25967210.66908 -20234189.08008  20559065.21500  20559064.69600  20559063.34000
       260.00000       170.00000
   -640500.19404   -499091.41505  24811096.20500  24811095.13600  24811096.19800
         3.00000         7.00000
         -.85715         -.93810  24966418.08900  24966416.50000  24966418.44800
         6.00000        -1.00000
 04  8 24  0  9 30.0000000  0 11G15G 9G 6G29G18G 8G17G10G26G21G22
  -4003975.29406  -3119980.16205  23774448.29400  23774446.61400  23774446.59400
        13.00000         4.00000
  -2536715.78806  -1976661.12305  24149417.95100  24149417.74100  24149419.42900
        21.00000        10.00000
  -8456692.20605  -6589638.43504  23712572.70200  23712573.45700  23712574.27700
         8.00000         3.00000
 -17636510.78208 -13742733.19508  20928266.64900  20928266.68600  20928266.11900
       231.00000       153.00000
 -13498160.41408 -10518045.23507  22070920.25100  22070919.85900  22070918.03600
       140.00000        42.00000
  -5929263.99106  -4620203.28905  24312821.61500  24312821.96400  24312822.85800
        12.00000         7.00000
  -4388549.57806  -3419655.85806  23597958.81200  23597959.78500  23597963.04600
        16.00000        16.00000
  -5235684.17407  -4079757.41206  23265035.19900  23265034.19500  23265036.36600
        36.00000        24.00000
 -22236760.56109 -17327343.28308  20012840.25100  20012840.35000  20012839.98500
       318.00000       222.00000
 -26008458.30608 -20266330.10108  20551216.42800  20551215.86700  20551214.11200
       276.00000       171.00000
   -731825.25405   -570253.77705  24793715.97700  24793717.91800  24793717.81700
         4.00000         8.00000
 04  8 24  0 10  0.0000000  0 11G15G 9G 6G29G18G 8G17G10G26G21G22
  -4112097.43806  -3204231.17005  23753873.49300  23753871.96300  23753871.93600
        14.00000         8.00000
  -2655282.01806  -2069050.31906  24126854.45400  24126853.90600  24126857.30000
        18.00000        14.00000
  -8362790.79405  -6516468.62704  23730442.61000  23730442.06500  23730442.66600
         6.00000         2.00000
 -17586005.68208 -13703378.58008  20937877.78000  20937877.46000  20937877.04100
       223.00000       152.00000
 -13570536.48708 -10574442.14807  22057146.36600  22057146.49500  22057145.26100
       127.00000        43.00000
  -5866989.09406  -4571677.41605  24324673.62600  24324673.39800  24324673.92000
        11.00000         5.00000
  -4280018.93206  -3335086.63506  23618613.41600  23618612.86900  23618615.05500
        13.00000        11.00000
  -5148076.09207  -4011491.44006  23281706.38200  23281706.05000  23281707.67200
        42.00000        23.00000
 -22204861.25708 -17302486.68608  20018910.79800  20018910.47800  20018910.21000
       312.00000       222.00000
 -26049171.54508 -20298054.70908  20543468.61100  20543468.30600  20543466.63900
       278.00000       175.00000
   -823075.88405   -641358.14405  24776352.74400  24776351.96900  24776352.87200
         4.00000         7.00000
 04  8 24  0 10 30.0000000  0 11G15G 9G 6G29G18G 8G17G10G26G21G22
  -4220067.68606  -3288363.79105  23733325.00200  23733324.75300  23733325.69100
        15.00000         7.00000
  -2773783.17006  -2161388.78406  24104303.35600  24104303.80400  24104306.75900
        14.00000        13.00000
  -8268731.53705  -6443175.76404  23748339.62600  23748340.95900  23748342.32500
         8.00000         2.00000
 -17535088.07808 -13663702.53508  20947567.14700  20947566.67400  20947566.45800
       219.00000       153.00000
 -13642710.69208 -10630681.76107  22043412.99300  22043412.23800  22043411.11300
       126.00000        44.00000
  -5804212.48605  -4522760.61605  24336619.34000  24336618.46100  24336620.18700
         9.00000         7.00000
  -4171261.71306  -3250340.79805  23639307.87000  23639307.90500  23639310.77400
        14.00000         9.00000
  -5060341.66207  -3943127.00406  23298402.00600  23298401.15100  23298403.20500
        39.00000        24.00000
 -22172374.29209 -17277172.17608  20025092.62400  20025092.67100  20025092.38600
       322.00000       223.00000
 -26089364.59308 -20329373.96708  20535820.53000  20535819.73000  20535818.20700
       262.00000       175.00000
   -914267.58905   -712416.60105  24759000.34200  24758999.98900  24758999.44700
         7.00000         5.00000
 04  8 24  0 11  0.0000000  0 11G15G 9G 6G29G18G 8G17G10G26G21G22
  -4327944.04406  -3372423.30005  23712796.52700  23712796.67800  23712797.33000
        16.00000         7.00000
  -2892276.55806  -2253721.23905  24081755.84100  24081755.77600  24081757.67200
        20.00000         7.00000
  -8174577.78605  -6369809.28105  23766258.62600  23766258.10400  23766259.48800
         7.00000         4.00000
 -17483820.16208 -13623753.52408  20957322.84100  20957322.73700  20957322.50900
       222.00000       154.00000
 -13714742.41408 -10686810.36407  22029705.33700  22029705.12600  22029704.13400
       133.00000        44.00000
  -5740996.66505  -4473501.58605  24348649.13000  24348648.11400  24348649.31400
         8.00000         7.00000
  -4062340.33705  -3165467.09806  23660036.80300  23660034.60400  23660038.59500
         9.00000        12.00000
  -4972542.39707  -3874712.04406  23315109.43400  23315108.90800  23315111.58200
        40.00000        26.00000
 -22139361.99409 -17251448.31408  20031374.67800  20031374.80800  20031374.42200
       326.00000       221.00000
 -26129096.02608 -20360333.52908  20528259.95000  20528259.28500  20528257.57200
       267.00000       176.00000
  -1005460.44405   -783475.96305  24741645.83100  24741645.88300  24741645.55200
         7.00000         4.00000
 04  8 24  0 11 30.0000000  0 11G15G 9G 6G29G18G 8G17G10G26G21G22
  -4435663.70206  -3456360.64805  23692298.96400  23692298.20200  23692299.62300
        16.00000        10.00000
  -3010698.47006  -2345998.06805  24059220.65700  24059220.66300  24059223.51100
        18.00000         9.00000
  -8080271.91505  -6296324.25705  23784205.49700  23784204.70300  23784205.01500
         5.00000         4.00000
 -17432143.56808 -13583486.05908  20967157.00800  20967156.66000  20967156.12500
       223.00000       151.00000
 -13786570.62308 -10742780.38307  22016037.08500  22016036.80400  22016036.00400
       132.00000        46.00000
  -5677283.50905  -4423855.00005  24360771.58200  24360771.54700  24360772.92500
        10.00000         6.00000
  -3953196.18006  -3080419.79105  23680804.77500  23680805.25800  23680807.88300
        15.00000         9.00000
  -4884618.34507  -3806199.86506  23331841.73300  23331840.56200  23331842.18300
        38.00000        20.00000
 -22105765.66109 -17225269.36708  20037768.02700  20037768.10100  20037767.51000
       322.00000       219.00000
 -26168303.52608 -20390884.83508  20520799.06800  20520798.35000  20520796.54200
       266.00000       176.00000
  -1096593.38306   -854488.64005  24724307.31600  24724306.78600  24724304.36900
        14.00000         6.00000
 04  8 24  0 12  0.0000000  0 11G15G 9G 6G29G18G 8G17G10G26G21G22
  -4543246.72006  -3540191.55406  23671826.56400  23671826.07300  23671827.22200
        18.00000        11.00000
  -3129068.31805  -2438234.25206  24036696.73000  24036695.11500  24036698.52900
         8.00000        11.00000
  -7985839.13405  -6222740.37504  23802173.75400  23802172.73100  23802174.51500
         4.00000         3.00000
 -17380082.68808 -13542919.15008  20977063.49800  20977063.34800  20977063.04700
       223.00000       151.00000
 -13858216.73308 -10798608.51907  22002403.19000  22002402.64500  22002402.21000
       133.00000        50.00000
  -5613097.27606  -4373839.81705  24372987.58800  24372986.27700  24372988.31300
        11.00000         7.00000
  -3843853.61606  -2995217.89806  23701614.71600  23701612.85600  23701615.55900
        12.00000        12.00000
  -4796592.85507  -3737608.61906  23348590.98100  23348590.87100  23348593.46300
        36.00000        24.00000
 -22071609.68109 -17198654.32708  20044267.57500  20044267.58500  20044267.14600
       321.00000       217.00000
 -26207007.65508 -20421043.90008  20513433.25000  20513432.70100  20513431.58400
       251.00000       181.00000
  -1187688.37006   -925471.67705  24706971.37000  24706971.73400  24706970.46700
        18.00000         5.00000
 04  8 24  0 12 30.0000000  0 11G15G 9G 6G29G18G 8G17G10G26G21G22
  -4650672.83906  -3623900.20106  23651383.28500  23651382.77000  23651384.55400
        18.00000        13.00000
  -3247365.12406  -2530413.51306  24014185.55500  24014185.03200  24014186.94200
        13.00000        11.00000
  -7891264.70705  -6149046.11505  23820170.90800  23820170.52600  23820172.20600
        10.00000         4.00000
 -17327621.58808 -13502040.38108  20987047.01600  20987046.52800  20987046.05200
       217.00000       148.00000
 -13929662.28108 -10854280.36007  21988807.61900  21988807.24200  21988806.47600
       149.00000        52.00000
  -5548422.20106  -4323443.69305  24385294.53700  24385293.43300  24385295.42900
        13.00000         8.00000
  -3734296.69606  -2909848.95505  23722459.13300  23722460.02300  23722463.37300
        13.00000        10.00000
  -4708448.50607  -3668924.78406  23365365.81000  23365364.96400  23365366.27200
        41.00000        20.00000
 -22036878.03209 -17171590.71008  20050876.89000  20050876.84100  20050876.43600
       319.00000       218.00000
 -26245188.65508 -20450795.33008  20506167.92000  20506167.31500  20506165.78800
       248.00000       179.00000
  -1278726.69306   -996410.62805  24689645.52800  24689645.53900  24689644.98000
        13.00000         5.00000
 04  8 24  0 13  0.0000000  0 12G15G 9G 6G29G18G 8G17G10G26G21G22G 3
  -4757929.04906  -3707476.43506  23630973.53500  23630972.85300  23630974.48000
        16.00000        13.00000
  -3365574.90806  -2622525.01205  23991689.97500  23991689.98600  23991692.37100
        19.00000        10.00000
  -7796541.38405  -6075235.80305  23838196.33500  23838196.35800  23838198.01300
         9.00000         4.00000
 -17274751.63508 -13460843.02608  20997107.75700  20997107.27400  20997106.70600
       213.00000       144.00000
 -14000895.53808 -10909786.78307  21975252.72200  21975252.20500  21975251.52200
       157.00000        56.00000
  -5483249.93206  -4272660.12905  24397694.31700  24397694.69700  24397696.84400
        13.00000         7.00000
  -3624516.66606  -2824306.16305  23743351.08700  23743350.40300  23743352.92900
        11.00000         7.00000
  -4620175.44707  -3600140.65406  23382163.62500  23382162.04900  23382164.59200
        36.00000        22.00000
 -22001562.20808 -17144071.89408  20057597.29600  20057597.30600  20057596.88300
       316.00000       219.00000
 -26282834.21408 -20480129.53708  20499004.22700  20499003.74700  20499002.12800
       258.00000       179.00000
  -1369697.43506  -1067296.92505  24672334.80000  24672335.04300  24672333.97900
        14.00000         6.00000
         -.60815         -.63110  24885751.19300  24885751.85600  24885751.11400
         6.00000        -2.00000
 04  8 24  0 13 30.0000000  0 11G15G 9G 6G29G18G 8G17G10G26G21G22
  -4865043.50806  -3790942.25606  23610590.77700  23610589.91300  23610591.13100
        17.00000        11.00000
  -3483725.55106  -2714590.43405  23969207.31600  23969207.11900  23969208.76600
        18.00000         9.00000
  -7701702.17705  -6001335.22104  23856244.84800  23856243.75800  23856246.11700
         8.00000         3.00000
 -17221505.68708 -13419352.68508  21007240.02600  21007239.68700  21007238.97900
       214.00000       141.00000
 -14071946.84608 -10965151.42407  21961731.41600  21961731.36200  21961730.44500
       159.00000        54.00000
  -5417613.56406  -4221514.96305  24410186.89600  24410185.67400  24410186.60900
        13.00000         8.00000
  -3514546.37406  -2738615.11906  23764279.33400  23764278.59400  23764280.48200
        15.00000        11.00000
  -4531805.26007  -3531280.83106  23398980.05200  23398979.11900  23398980.45200
        41.00000        19.00000
 -21965694.93808 -17116123.38208  20064422.40200  20064422.44300  20064422.29800
       313.00000       222.00000
 -26319973.27408 -20509069.06808  20491936.79400  20491936.20400  20491934.65300
       250.00000       179.00000
  -1460630.83406  -1138154.10505  24655030.11300  24655030.08500  24655030.37700
        11.00000         6.00000
 04  8 24  0 14  0.0000000  0 11G15G 9G 6G29G18G 8G17G10G26G21G22
  -4971999.43606  -3874284.53106  23590236.92600  23590236.20700  23590238.14300
        15.00000        13.00000
  -3601799.54106  -2806596.11405  23946737.82400  23946737.19700  23946739.86300
        16.00000         9.00000
  -7606736.25405  -5927335.88504  23874313.58900  23874314.57100  23874315.83500
         7.00000         3.00000
 -17167871.44408 -13377559.78508  21017446.08000  21017445.90800  21017445.24600
       217.00000       141.00000
 -14142800.98908 -11020362.42607  21948248.68800  21948248.40000  21948247.60600
       162.00000        56.00000
  -5351500.91006  -4169998.64405  24422765.72800  24422765.79400  24422768.24500
        13.00000         8.00000
  -3404373.34506  -2652766.10805  23785244.15800  23785243.14200  23785245.21100
        12.00000         8.00000
  -4443324.35707  -3462334.74406  23415816.78000  23415815.90200  23415817.42600
        35.00000        19.00000
 -21929263.72708 -17087735.43608  20071355.13500  20071355.05600  20071354.97600
       315.00000       222.00000
 -26356589.44808 -20537601.15608  20484968.91900  20484968.50100  20484966.99100
       256.00000       183.00000
  -1551512.13106  -1208970.63405  24637736.74900  24637737.26200  24637734.92000
        13.00000         5.00000
 04  8 24  0 14 30.0000000  0 11G15G 9G 6G29G18G 8G17G10G26G21G22
  -5078802.01806  -3957507.29106  23569912.05200  23569912.66400  23569914.27300
        13.00000        14.00000
  -3719801.18506  -2898545.42606  23924284.03500  23924283.65100  23924284.42200
        27.00000        11.00000
  -7511653.97904  -5853245.86805  23892408.93200  23892408.00000  23892410.53200
         3.00000         4.00000
 -17113858.24708 -13335471.59108  21027724.40800  21027724.42600  21027723.89200
       220.00000       143.00000
 -14213464.53808 -11075424.91607  21934802.51600  21934802.07000  21934800.68600
       163.00000        58.00000
  -5284921.66106  -4118118.79305  24435434.18700  24435435.09700  24435437.07600
        11.00000         8.00000
  -3294006.98105  -2566766.43105  23806246.20200  23806244.92300  23806246.66900
        10.00000         7.00000
  -4354740.87807  -3393308.73606  23432673.27600  23432673.03300  23432674.96600
        36.00000        18.00000
 -21892278.19809 -17058915.55108  20078393.05200  20078393.27800  20078392.95000
       319.00000       219.00000
 -26392688.61908 -20565730.38108  20478099.77200  20478099.24400  20478097.47000
       267.00000       183.00000
  -1642348.06006  -1279751.81404  24620451.86400  24620451.12900  24620449.65400
        18.00000         3.00000
 04  8 24  0 15  0.0000000  0 11G29G18G15G 9G 6G 8G17G10G26G22G21
 -17059461.12208 -13293084.23408  21038075.63200  21038075.67400  21038075.29500
       212.00000       141.00000
 -14283929.58608 -11130332.73207  21921392.36100  21921392.29200  21921391.34300
       149.00000        57.00000
  -5185441.92805  -4040603.28106  23549619.71300  23549619.22600  23549621.37300
        10.00000        13.00000
  -3837720.51106  -2990430.62006  23901844.96600  23901844.52100  23901845.94600
        31.00000        15.00000
  -7416451.12305  -5779061.97105  23910526.44700  23910525.23300  23910527.49800
         6.00000         4.00000
  -5217870.99906  -4065871.54005  24448195.99600  24448194.65400  24448196.36100
        12.00000         7.00000
  -3183442.39206  -2480612.30705  23827285.47200  23827284.68700  23827288.03900
        13.00000         9.00000
  -4266048.46507  -3324197.84206  23449551.35600  23449550.44200  23449552.30800
        32.00000        19.00000
 -21854733.34409 -17029659.82608  20085538.08700  20085538.02200  20085537.35500
       323.00000       215.00000
  -1733131.14606  -1350491.86305  24603176.64000  24603176.01200  24603174.82000
        25.00000         4.00000
 -26428262.28908 -20593450.13308  20471330.17300  20471329.64600  20471328.20100
       261.00000       187.00000
 04  8 24  0 15 30.0000000  0 12G29G18G15G 9G 6G 8G17G10G26G22G21G 3
 -17004664.49708 -13250385.57908  21048503.27900  21048503.03700  21048502.76500
       211.00000       140.00000
 -14354177.72208 -11185071.52207  21908024.72000  21908024.54900  21908023.79400
       145.00000        56.00000
  -5291898.98906  -4123556.82706  23529362.73400  23529361.97200  23529363.65300
        12.00000        15.00000
  -3955536.46806  -3082235.23306  23879424.19700  23879423.92100  23879425.77600
        19.00000        12.00000
  -7321113.17005  -5704772.72904  23928667.73500  23928667.28300  23928669.17300
         8.00000         1.00000
  -5150333.51306  -4013244.98405  24461046.55100  24461045.81300  24461048.58600
        13.00000         7.00000
  -3072663.69006  -2394291.32005  23848365.40300  23848365.46100  23848366.80400
        16.00000         5.00000
  -4177230.27707  -3254988.94406  23466453.17300  23466452.13800  23466454.24600
        32.00000        18.00000
 -21816613.50909 -16999956.06608  20092791.92900  20092791.94900  20092791.53500
       321.00000       219.00000
  -1823843.12206  -1421176.52504  24585915.20600  24585914.96200  24585912.82400
        29.00000         3.00000
 -26463290.57908 -20620744.90408  20464664.64000  20464664.00000  20464662.53300
       258.00000       190.00000
          .24315          .32114  24838281.61400  24838279.49200  24838280.97100
         5.00000         2.00000
 04  8 24  0 16  0.0000000  0 11G29G18G15G 9G 8G17G10G26G22G21G 3
 -16949532.44308 -13207425.55108  21058994.40900  21058994.28900  21058994.20000
       209.00000       141.00000
 -14424270.25908 -11239689.06907  21894686.22400  21894686.24200  21894685.43200
       152.00000        56.00000
  -5398233.28706  -4206414.69506  23509127.65700  23509126.98100  23509128.57400
        13.00000        15.00000
  -4073308.14206  -3174005.35605  23857012.30000  23857011.96800  23857014.64600
        20.00000         9.00000
  -5082373.76606  -3960289.39305  24473980.61200  24473979.73300  24473981.22300
        18.00000         7.00000
  -2961735.13506  -2307853.54905  23869477.58900  23869475.83000  23869476.57600
        11.00000         6.00000
  -4088349.22607  -3185731.05106  23483366.95700  23483366.19000  23483367.57400
        35.00000        18.00000
 -21777982.83309 -16969854.25008  20100143.06400  20100142.98900  20100142.86700
       318.00000       221.00000
  -1914545.69106  -1491853.83205  24568654.60200  24568654.16100  24568652.23700
        21.00000         4.00000
 -26497834.14308 -20647661.97308  20458091.08700  20458090.72400  20458089.15200
       265.00000       192.00000
    -48471.75405    -37770.09004  24829056.38000  24829055.57000  24829056.91500
         6.00000         3.00000
 04  8 24  0 16 30.0000000  0 12G29G18G15G 9G 8G17G10G26G22G21G 3G 6
 -16894022.77808 -13164171.28408  21069557.79800  21069557.59200  21069557.27400
       211.00000       139.00000
 -14494162.36508 -11294150.43707  21881386.72400  21881386.42000  21881385.83600
       160.00000        59.00000
  -5504397.80805  -4289140.26406  23488926.43100  23488924.74300  23488925.71800
         9.00000        15.00000
  -4190988.02906  -3265703.97305  23834618.75000  23834619.23700  23834620.91400
        25.00000        10.00000
  -5013949.65106  -3906971.91205  24487000.34700  24487000.55500  24487000.64800
        16.00000         6.00000
  -2850614.19005  -2221265.91805  23890620.87700  23890620.20700  23890622.81500
         9.00000         8.00000
  -3999361.55306  -3116390.09206  23500300.11000  23500299.66600  23500301.64500
        31.00000        19.00000
 -21738798.98509 -16939321.39108  20107599.55600  20107599.53300  20107599.24800
       325.00000       219.00000
  -2005194.10106  -1562488.92905  24551403.70300  24551403.63500  24551402.42500
        16.00000         5.00000
 -26531846.81008 -20674165.35508  20451618.42500  20451618.04100  20451616.64300
       257.00000       190.00000
    -96455.81605    -75160.23104  24819924.07200  24819923.96100  24819925.26700
         5.00000         2.00000
     31846.65305     24816.05605  23964999.49000  23964999.34600  23965001.82600
         8.00000         4.00000
 04  8 24  0 17  0.0000000  0 12G29G18G15G 9G 8G17G10G26G22G21G 3G 6
 -16838120.81508 -13120611.32408  21080195.98100  21080195.65700  21080195.07800
       216.00000       137.00000
 -14563836.22508 -11348441.74707  21868128.58800  21868128.01500  21868127.16500
       171.00000        58.00000
  -5610373.29206  -4371718.51106  23468758.98900  23468757.87600  23468759.57200
        11.00000        14.00000
  -4308556.11007  -3357315.49705  23812247.56200  23812247.46300  23812249.16000
        32.00000        10.00000
  -4945046.82306  -3853281.44905  24500112.48500  24500111.56300  24500112.31200
        16.00000         8.00000
  -2739286.29906  -2134517.00705  23911805.63500  23911805.29200  23911807.72800
        12.00000         9.00000
  -3910251.17907  -3046953.51606  23517258.03500  23517256.84800  23517259.31500
        34.00000        17.00000
 -21699047.37809 -16908346.11908  20115163.99600  20115164.06800  20115163.62300
       322.00000       211.00000
  -2095771.09506  -1633068.36605  24534166.87100  24534167.07100  24534166.43100
        12.00000         5.00000
 -26565310.26008 -20700240.77208  20445250.92600  20445250.42800  20445248.73900
       255.00000       192.00000
   -143933.35504   -112155.70104  24810890.07700  24810889.82200  24810890.93000
         3.00000         3.00000
    127491.65205     99344.52504  23983201.53500  23983200.96700  23983201.90900
         7.00000         2.00000
 04  8 24  0 17 30.0000000  0 11G29G18G15G 9G 8G17G10G26G22G21G 3
 -16781800.26108 -13076725.19008  21090913.25400  21090913.17500  21090912.47100
       223.00000       136.00000
 -14633262.97308 -11402540.50407  21854916.97700  21854916.70400  21854915.19300
       188.00000        54.00000
  -5716128.86706  -4454125.44206  23448633.67000  23448633.72200  23448635.28800
        15.00000        15.00000
  -4425981.00206  -3448815.41606  23789901.20500  23789900.82900  23789903.60500
        17.00000        11.00000
  -4875638.98106  -3799197.46705  24513320.19900  24513320.21900  24513321.12900
        18.00000         8.00000
  -2627724.98406  -2047586.18005  23933034.69900  23933033.96500  23933037.57000
        14.00000         7.00000
  -3820990.73007  -2977399.98406  23534243.17700  23534242.58600  23534244.80100
        32.00000        19.00000
 -21658701.93608 -16876908.11708  20122841.34400  20122841.39300  20122840.83400
       312.00000       205.00000
  -2186247.72006  -1703569.60105  24516949.06400  24516949.61100  24516949.32500
        14.00000         6.00000
 -26598194.62308 -20725864.95108  20438993.25600  20438992.78200  20438991.07000
       261.00000       191.00000
   -190874.94504   -148733.53405  24801956.51900  24801956.33000  24801957.88900
         3.00000         4.00000
 04  8 24  0 18  0.0000000  0 12G29G18G15G 9G 8G17G10G26G22G21G 3G 6
 -16725167.42608 -13032595.72008  21101690.19600  21101689.95200  21101689.42300
       215.00000       136.00000
 -14702546.06408 -11456527.31707  21841732.56800  21841732.38500  21841731.33400
       183.00000        56.00000
  -5821766.51006  -4536440.43306  23428532.01600  23428531.42700  23428532.70900
        20.00000        14.00000
  -4543363.86506  -3540282.52406  23767564.86800  23767564.02900  23767566.76000
        16.00000        13.00000
  -4805832.83506  -3744803.12705  24526603.80100  24526603.62100  24526604.48800
        15.00000         6.00000
  -2516036.86005  -1960556.57405  23954288.46400  23954288.02200  23954291.38000
        10.00000         8.00000
  -3731685.12607  -2907811.29506  23551237.40500  23551237.01800  23551239.14100
        33.00000        21.00000
 -21617869.04608 -16845090.28608  20130611.77900  20130611.69900  20130611.17700
       307.00000       205.00000
  -2276727.70606  -1774073.46105  24499733.29300  24499733.16300  24499731.38800
        21.00000         5.00000
 -26630602.27008 -20751117.67608  20432826.23300  20432825.70300  20432824.03400
       256.00000       192.00000
   -237383.49805   -184973.92604  24793107.45500  24793107.28300  24793107.46900
         4.00000         3.00000
     31957.92505     24901.77704  24019666.63700  24019667.02900  24019668.22100
        10.00000         3.00000
 04  8 24  0 18 30.0000000  0 12G29G18G15G 9G 8G17G10G26G22G21G 3G 6
 -16668168.31308 -12988180.84208  21112536.74300  21112536.50400  21112535.88000
       214.00000       135.00000
 -14771628.50008 -11510357.76607  21828586.76200  21828586.23000  21828585.51900
       172.00000        59.00000
  -5927227.63506  -4618617.93005  23408462.90400  23408462.28600  23408463.45600
        18.00000        10.00000
  -4660645.44106  -3631670.77205  23745246.39500  23745247.15200  23745246.58800
        28.00000         5.00000
  -4735574.80306  -3690056.65705  24539973.86000  24539973.12500  24539974.38900
        16.00000         7.00000
  -2404167.48405  -1873385.72505  23975576.45600  23975576.36600  23975579.42700
        10.00000         7.00000
  -3642278.87307  -2838144.15006  23568251.56500  23568250.81300  23568252.53400
        36.00000        20.00000
 -21576494.70708 -16812850.55308  20138484.74300  20138484.89100  20138484.45600
       314.00000       206.00000
  -2367154.52206  -1844535.88404  24482525.52900  24482525.05800  24482523.05400
        19.00000         3.00000
 -26662475.54908 -20775954.00208  20426760.71300  20426760.12700  20426758.83100
       244.00000       197.00000
   -283401.40405   -220831.99605  24784350.48200  24784350.28500  24784350.80300
         5.00000         4.00000
    127892.98405     99656.29704  24037923.13000  24037923.24600  24037924.62500
         9.00000         3.00000
 04  8 24  0 19  0.0000000  0 12G29G18G15G 9G 8G17G10G26G22G21G 3G 6
 -16610798.47908 -12943477.08508  21123453.70500  21123453.45700  21123453.11000
       205.00000       135.00000
 -14840502.85708 -11564026.07807  21815480.38900  21815480.02300  21815479.05300
       168.00000        58.00000
  -6032503.38806  -4700650.95606  23388430.48800  23388429.62100  23388431.65800
        24.00000        15.00000
  -4777815.88606  -3722972.46805  23722950.76100  23722950.67200  23722951.32900
        29.00000        10.00000
  -4664860.55606  -3634954.68005  24553430.80700  24553430.12500  24553431.64000
        16.00000         6.00000
  -2292112.42006  -1786070.19905  23996901.71500  23996900.98600  23996902.71600
        11.00000         7.00000
  -3552766.10807  -2768394.00606  23585284.71200  23585283.94100  23585286.38900
        32.00000        17.00000
 -21534574.50709 -16780185.47108  20146462.09400  20146462.22500  20146461.76000
       318.00000       206.00000
  -2457520.92506  -1914951.24705  24465329.60900  24465329.25300  24465326.76800
        17.00000         4.00000
 -26693806.30908 -20800367.58608  20420798.89200  20420798.34500  20420796.77200
       249.00000       199.00000
   -328920.84504   -256301.63005  24775687.26900  24775687.62600  24775689.48300
         1.00000         6.00000
    223928.02505    174488.67805  24056199.36500  24056198.65100  24056200.21400
         7.00000         4.00000
 04  8 24  0 19 30.0000000  0 11G29G18G15G 9G 8G17G10G26G22G21G 3
 -16553050.63308 -12898478.78108  21134442.74200  21134442.45900  21134442.21400
       199.00000       135.00000
 -14909158.85208 -11617524.23707  21802415.28700  21802415.05500  21802414.23400
       168.00000        60.00000
  -6137581.98106  -4782530.34505  23368434.92900  23368434.07500  23368435.09300
        28.00000         9.00000
  -4894862.87406  -3814177.87506  23700677.57900  23700676.81900  23700678.35400
        20.00000        16.00000
  -4593683.12906  -3579491.81105  24566976.04200  24566975.31600  24566976.35200
        19.00000         6.00000
  -2179864.66106  -1698604.48605  24018261.44400  24018260.26200  24018263.14200
        11.00000         7.00000
  -3463138.44207  -2698554.33706  23602341.02000  23602339.91300  23602342.22300
        35.00000        19.00000
 -21492101.26008 -16747089.44308  20154544.85900  20154544.75300  20154544.18600
       313.00000       204.00000
  -2547817.33306  -1985312.03104  24448146.97400  24448146.92100  24448146.06500
        16.00000         3.00000
 -26724583.80208 -20824350.05708  20414942.05100  20414941.56700  20414940.12400
       249.00000       201.00000
   -373931.16004   -291374.55905  24767123.91600  24767123.06600  24767125.61400
         1.00000         4.00000
 04  8 24  0 20  0.0000000  0 12G29G18G15G 9G 8G17G10G26G22G21G 3G 6
 -16494944.89808 -12853201.60308  21145499.87200  21145499.66800  21145499.29300
       205.00000       133.00000
 -14977614.04908 -11670865.94007  21789388.85000  21789388.45900  21789387.75500
       171.00000        63.00000
  -6242479.05306  -4864268.34705  23348473.16500  23348472.75400  23348472.76000
        31.00000         8.00000
  -5011801.25706  -3905298.61706  23678424.67300  23678424.52800  23678425.75700
        31.00000        19.00000
  -4522062.97806  -3523683.93705  24580605.02900  24580603.69900  24580604.79900
        17.00000         5.00000
  -2067444.03505  -1611004.08705  24039653.54200  24039652.78300  24039655.79900
        10.00000         8.00000
  -3373414.58307  -2628639.72606  23619414.46800  23619414.03000  23619416.35500
        33.00000        20.00000
 -21449095.45708 -16713578.43708  20162727.75200  20162728.09900  20162727.81900
       308.00000       201.00000
  -2638061.31306  -2055631.99405  24430973.49900  24430972.86700  24430971.98000
        17.00000         5.00000
 -26754824.35008 -20847914.12908  20409187.23400  20409186.84400  20409185.50000
       247.00000       205.00000
   -418448.96404   -326063.75104  24758653.45100  24758652.58700  24758652.93200
         2.00000         2.00000
         -.66315         -.11814  24092804.48700  24092803.86100  24092806.02300
         5.00000         1.00000
 04  8 24  0 20 30.0000000  0 10G29G18G15G 9G 8G17G10G26G22G21
 -16436470.99708 -12807637.53808  21156626.68200  21156626.85400  21156626.50900
       203.00000       129.00000
 -15045855.29308 -11724040.92507  21776403.05700  21776402.82000  21776401.67100
       180.00000        65.00000
  -6347179.70906  -4945853.24505  23328549.23300  23328548.82100  23328549.75300
        28.00000        10.00000
  -5128615.33306  -3996322.55006  23656194.81600  23656194.66900  23656196.57500
        26.00000        12.00000
  -4449990.31706  -3467523.46805  24594318.68900  24594318.51100  24594320.52000
        19.00000         6.00000
  -1954840.28605  -1523261.02605  24061079.98700  24061080.79200  24061084.08300
         9.00000         7.00000
  -3283582.61507  -2558640.87106  23636509.10600  23636508.33600  23636510.92700
        32.00000        18.00000
 -21405546.65408 -16679644.31808  20171015.19000  20171015.18000  20171014.97400
       311.00000       203.00000
  -2728239.77906  -2125900.90405  24413813.09700  24413813.16500  24413811.34100
        17.00000         6.00000
 -26784513.83808 -20871048.80308  20403537.75800  20403537.34300  20403535.93900
       256.00000       209.00000
 04  8 24  0 21  0.0000000  0 10G29G18G15G 9G 8G17G10G26G22G21
 -16377640.49708 -12761795.60708  21167822.45000  21167822.09200  21167821.54300
       202.00000       127.00000
 -15113891.31108 -11777055.98907  21763456.10500  21763455.77200  21763454.94200
       179.00000        66.00000
  -6451691.08207  -5027290.65906  23308662.13000  23308661.26100  23308662.39000
        32.00000        11.00000
  -5245311.57406  -4087254.69405  23633986.93000  23633987.82400  23633989.63000
        22.00000        10.00000
  -4377477.00506  -3411019.62605  24608118.13100  24608117.16300  24608119.28000
        15.00000         6.00000
  -1842064.96206  -1435384.26305  24082542.54900  24082541.98100  24082543.97700
        11.00000         7.00000
  -3193653.09806  -2488565.99606  23653622.25900  23653621.22400  23653624.08100
        30.00000        19.00000
 -21361466.58109 -16645296.20708  20179403.79700  20179403.65200  20179403.22200
       319.00000       205.00000
  -2818361.84906  -2196125.87905  24396663.17700  24396663.50000  24396661.49000
        13.00000         8.00000
 -26813660.20708 -20893760.26508  20397991.31800  20397990.92600  20397989.52300
       255.00000       208.00000
 04  8 24  0 21 30.0000000  0 11G29G18G15G 9G 8G17G10G26G22G21G 3
 -16318474.03308 -12715691.88208  21179081.28800  21179081.04300  21179080.65100
       201.00000       129.00000
 -15181739.74708 -11829924.88707  21750544.92800  21750544.66900  21750543.76400
       186.00000        67.00000
  -6556028.98806  -5108592.90806  23288807.03800  23288806.30300  23288806.93600
        27.00000        12.00000
  -5361905.19506  -4178106.86406  23611801.96100  23611801.33900  23611803.88300
        28.00000        17.00000
  -4304543.99006  -3354188.76605  24621996.80300  24621996.38500  24621997.04500
        15.00000         6.00000
