     2.10           OBSERVATION DATA    G (GPS)             RINEX VERSION / TYPE
teqc  2002Mar14     gpsodc(auto)        20040825 01:11:15UTCPGM / RUN BY / DATE
OBSERVATION MODE: IGS-Net                                   COMMENT
ULAB Ulaanbataar (ULAB)                                     MARKER NAME
24201M001                                                   MARKER NUMBER
287-U               AOA SNR-8000 ACT     3.30               REC # / TYPE / VERS
340-U               AOAD/M_T        NONE                    ANT # / TYPE
        0.0460        0.0000        0.0000                  ANTENNA: DELTA H/E/N
  -1257408.5311  4099404.3449  4707992.6289                 APPROX POSITION XYZ
  107.05232519  47.86506793  1575.5283  LonLatAlt  S/W      COMMENT
unknown             IVTAN                                   OBSERVER / AGENCY
     1     1                                                WAVELENGTH FACT L1/2
     7    L1    L2    C1    P1    P2    S1    S2            # / TYPES OF OBSERV
    30.0000                                                 INTERVAL
Linux 2.0.36|Pentium II|gcc -static|Linux|486/DX+           COMMENT
bx2rxo      unknown * Wed Aug 25 02:18:46 2004              COMMENT
  2004     8    25     0     0    0.0000000     GPS         TIME OF FIRST OBS
  2004     8    25    23    59   30.0000000     GPS         TIME OF LAST OBS
                                                            END OF HEADER
 04  8 25  0  0  0.0000000  0 12G18G15G 9G 6G10G17G 8G29G26G22G21G 3
 -12873701.45608 -10031454.26607  22223006.85300  22223006.66900  22223005.01100
       131.00000        41.00000
  -5535152.24306  -4313106.88806  23997946.15200  23997945.63000  23997946.88100
        16.00000        14.00000
  -1705514.70306  -1328970.84705  24394958.71200  24394958.37000  24394959.53100
        14.00000         9.00000
  -9879032.97706  -7697954.21906  23519397.24300  23519398.16600  23519400.44600
        12.00000        12.00000
  -6201545.40007  -4832373.70807  23081736.86400  23081736.36700  23081738.09500
        52.00000        33.00000
  -6486235.16006  -5054212.78606  23377685.07900  23377684.43900  23377687.11700
        22.00000        20.00000
  -6793116.08306  -5293333.08605  24192385.45800  24192385.26400  24192388.25100
        12.00000        10.00000
 -18159385.57308 -14150168.31408  20827867.40200  20827867.38800  20827866.46600
       255.00000       173.00000
 -22787215.53909 -17756270.69908  19953403.75300  19953403.76100  19953403.05300
       340.00000       241.00000
   -244838.07400   -190783.26405  24982482.76600  24982482.64200  24982481.12600
          .00000         5.00000
 -25518058.21408 -19884199.56608  20641569.74900  20641569.24400  20641567.56300
       270.00000       163.00000
   -765171.83300   -596237.33105  25073217.14900  25073216.33700  25073218.21600
        -1.00000         4.00000
 04  8 25  0  0 30.0000000  0 12G18G15G 9G 6G10G17G 8G29G26G22G21G 3
 -12948061.62008 -10089397.23507  22208856.96800  22208856.60600  22208854.82400
       131.00000        42.00000
  -5644604.13406  -4398394.03606  23977118.14600  23977117.54300  23977118.61300
        16.00000        14.00000
  -1824439.03606  -1421639.21105  24372328.30100  24372328.24300  24372329.50200
        15.00000        10.00000
  -9786898.86706  -7626161.46006  23536931.97900  23536931.19900  23536932.60400
        12.00000        12.00000
  -6115227.81607  -4765113.31607  23098163.49900  23098162.92000  23098163.64300
        54.00000        33.00000
  -6380121.00306  -4971526.53506  23397876.40100  23397876.68500  23397879.39000
        20.00000        23.00000
  -6736202.72906  -5248985.06306  24203216.85100  24203216.72300  24203219.27100
        11.00000        11.00000
 -18113377.80508 -14114318.11008  20836622.68600  20836622.40000  20836621.50300
       246.00000       171.00000
 -22761680.16109 -17736373.00308  19958262.94900  19958263.03200  19958262.26200
       342.00000       243.00000
   -336531.59904   -262232.79005  24965033.42500  24965033.56500  24965033.37800
         2.00000         4.00000
 -25564131.57508 -19920100.89708  20632802.17200  20632801.97100  20632800.04900
       288.00000       164.00000
   -824242.47800   -642266.40305  25061978.42100  25061976.75600  25061979.63400
          .00000         6.00000
 04  8 25  0  1  0.0000000  0 12G18G15G 9G 6G10G17G 8G29G26G22G21G 3
 -13022300.15808 -10147245.44007  22194729.16400  22194728.96800  22194727.77200
       125.00000        44.00000
  -5754000.87106  -4483638.22606  23956300.87700  23956300.32000  23956301.63800
        13.00000        15.00000
  -1943403.48806  -1514338.82606  24349690.46100  24349690.38800  24349691.51500
        18.00000        12.00000
  -9694646.33806  -7554276.41505  23554486.79000  23554486.47000  23554487.11300
        14.00000        10.00000
  -6028847.62607  -4697804.14706  23114600.94800  23114600.20000  23114600.72600
        49.00000        27.00000
  -6273831.73406  -4888703.84306  23418103.00200  23418102.21600  23418105.22800
        15.00000        19.00000
  -6678837.98105  -5204285.29005  24214132.38700  24214132.35200  24214133.94200
        10.00000         9.00000
 -18067007.96808 -14078185.78008  20845446.34000  20845446.18000  20845445.34800
       240.00000       170.00000
 -22735609.63109 -17716058.30608  19963224.02700  19963224.08200  19963223.43100
       347.00000       245.00000
   -428243.73004   -333696.76105  24947581.79500  24947581.60400  24947580.67500
         3.00000         6.00000
 -25609777.94508 -19955669.51108  20624116.09400  20624115.76900  20624113.93700
       285.00000       168.00000
   -882924.08104   -687992.40705  25050812.36000  25050812.29400  25050811.68600
         2.00000         5.00000
 04  8 25  0  1 30.0000000  0 12G18G15G 9G 6G10G17G 8G29G26G22G21G 3
 -13096357.46408 -10204952.42507  22180636.18300  22180636.17400  22180635.70900
       118.00000        50.00000
  -5863281.32705  -4568791.78506  23935504.76800  23935503.67600  23935505.83100
         7.00000        14.00000
  -2062346.18606  -1607021.47606  24327054.60100  24327055.06900  24327057.65600
        13.00000        15.00000
  -9602219.42406  -7482255.47606  23572074.99100  23572075.28900  23572076.51200
        17.00000        13.00000
  -5942346.63507  -4630400.81707  23131061.52800  23131060.55600  23131062.07700
        48.00000        32.00000
  -6167310.41506  -4805700.30606  23438373.36600  23438372.76400  23438374.81300
        14.00000        12.00000
  -6620964.96506  -5159189.47506  24225146.22600  24225146.11300  24225148.17600
        13.00000        11.00000
 -18020219.24208 -14041727.04408  20854349.84900  20854349.82000  20854348.91100
       245.00000       169.00000
 -22708946.76209 -17695282.05008  19968297.67600  19968297.90800  19968297.21600
       348.00000       248.00000
   -519915.10304   -405129.00405  24930137.39900  24930137.15500  24930136.50100
         3.00000         7.00000
 -25654936.25608 -19990857.80908  20615522.69400  20615522.21800  20615520.50500
       272.00000       168.00000
   -941155.87005   -733367.84105  25039728.93600  25039730.09400  25039730.62800
         5.00000         4.00000
 04  8 25  0  2  0.0000000  0 12G18G15G 9G 6G10G17G 8G29G26G22G21G 3
 -13170219.61508 -10262507.34507  22166580.77100  22166580.63500  22166580.25700
       116.00000        52.00000
  -5972430.34305  -4653842.94105  23914734.07300  23914734.03700  23914734.50100
         8.00000        10.00000
  -2181251.07706  -1699674.63506  24304428.80900  24304428.79900  24304431.74300
        11.00000        15.00000
  -9509608.11605  -7410090.91006  23589698.71200  23589698.01100  23589699.90100
        10.00000        12.00000
  -5855712.84907  -4562894.05306  23147548.03700  23147547.27300  23147547.44000
        53.00000        26.00000
  -6060545.97806  -4722507.30506  23458690.85600  23458690.41200  23458692.14300
        23.00000        14.00000
  -6562572.27506  -5113688.71406  24236259.23200  24236258.84200  24236259.13300
        15.00000        11.00000
 -17973000.52308 -14004933.25008  20863335.45800  20863335.37200  20863334.45600
       250.00000       170.00000
 -22681680.14909 -17674035.34008  19973486.29400  19973486.37600  19973485.97700
       339.00000       249.00000
   -611532.34804   -476519.11505  24912702.18800  24912702.00900  24912702.41500
         2.00000         6.00000
 -25699591.74108 -20025654.30008  20607025.26200  20607024.76100  20607022.89400
       281.00000       170.00000
   -998923.20905   -778381.38005  25028738.54100  25028738.16100  25028738.13500
         8.00000         4.00000
 04  8 25  0  2 30.0000000  0 12G18G15G 9G 6G10G17G 8G29G26G22G21G 3
 -13243887.10308 -10319910.56607  22152562.96800  22152562.80900  22152561.80600
       126.00000        53.00000
  -6081446.78105  -4738790.77406  23893989.51600  23893988.84900  23893990.17700
         8.00000        12.00000
  -2300116.24806  -1792296.87206  24281810.30400  24281810.00300  24281812.21000
        12.00000        14.00000
  -9416816.71806  -7337786.01306  23607356.98000  23607356.87000  23607357.30500
        14.00000        12.00000
  -5768948.18307  -4495285.24806  23164057.47500  23164056.91100  23164058.69100
        43.00000        28.00000
  -5953541.55406  -4639127.29106  23479053.31100  23479052.36400  23479055.22900
        17.00000        20.00000
  -6503663.62206  -5067785.86906  24247469.14600  24247468.55300  24247468.45100
        13.00000        11.00000
 -17925355.07308 -13967806.93908  20872401.73500  20872401.96700  20872401.08100
       255.00000       169.00000
 -22653812.89909 -17652320.60808  19978789.33500  19978789.43200  19978788.83600
       346.00000       246.00000
   -703096.16005   -547867.57005  24895280.20900  24895279.78600  24895278.61400
         4.00000         6.00000
 -25743743.43608 -20060058.23708  20598623.06800  20598622.91800  20598620.98700
       286.00000       170.00000
  -1056225.46505   -823032.49105  25017834.30300  25017833.73800  25017835.42500
         7.00000         5.00000
 04  8 25  0  3  0.0000000  0 12G18G15G 9G 6G10G17G 8G29G26G22G21G 3
 -13317386.13508 -10377182.51807  22138576.29400  22138576.26600  22138575.14500
       130.00000        53.00000
  -6190354.95405  -4823654.26605  23873264.85500  23873264.63900  23873264.63900
        10.00000         9.00000
  -2418965.58206  -1884906.75305  24259193.34000  24259193.46500  24259195.38600
        13.00000        10.00000
  -9323874.96106  -7265363.90405  23625043.40600  23625042.96200  23625043.79000
        13.00000         9.00000
  -5682080.37907  -4427596.11506  23180587.77500  23180587.59100  23180588.68600
        46.00000        26.00000
  -5846325.66106  -4555582.56506  23499454.16100  23499454.85700  23499458.00700
        15.00000        23.00000
  -6444267.36205  -5021503.11606  24258772.14000  24258771.86300  24258771.90300
        10.00000        11.00000
 -17877311.46308 -13930370.37208  20881544.18400  20881544.32200  20881543.64000
       252.00000       170.00000
 -22625373.39009 -17630159.95008  19984201.41900  19984201.43700  19984200.71700
       349.00000       245.00000
   -794632.63605   -619194.69105  24877861.53100  24877861.75300  24877858.75600
         7.00000         7.00000
 -25787416.31408 -20094089.05508  20590312.45500  20590312.09800  20590310.42600
       269.00000       172.00000
  -1113087.68905   -867340.70304  25007011.53900  25007012.19900  25007012.57000
         7.00000         3.00000
 04  8 25  0  3 30.0000000  0 12G18G15G 9G 6G10G17G 8G29G26G22G21G 3
 -13390679.65708 -10434294.34307  22124629.30200  22124628.78000  22124627.90600
       135.00000        54.00000
  -6299116.77506  -4908403.74006  23852568.01100  23852567.61500  23852568.76500
        12.00000        11.00000
  -2537759.83506  -1977473.73206  24236588.14000  24236587.98900  24236589.87700
        15.00000        14.00000
  -9230749.79806  -7192798.88305  23642763.22200  23642763.35000  23642764.34100
        13.00000         7.00000
  -5595074.03407  -4359799.02906  23197144.86400  23197144.31400  23197145.54900
        47.00000        28.00000
  -5738864.36106  -4471846.60006  23519904.56600  23519904.04300  23519906.53000
        17.00000        18.00000
  -6384349.77605  -4974814.13406  24270172.99700  24270172.36300  24270173.88500
         9.00000        12.00000
 -17828835.65508 -13892597.02708  20890768.86900  20890768.82200  20890768.30600
       239.00000       171.00000
 -22596327.64309 -17607526.90108  19989728.30000  19989728.42900  19989727.89500
       343.00000       242.00000
   -886105.39205   -690472.18005  24860455.10900  24860454.99200  24860453.03300
        10.00000         8.00000
 -25830572.28008 -20127717.08208  20582099.93400  20582099.69000  20582097.93800
       267.00000       171.00000
  -1169472.09905   -911276.59104  24996282.68100  24996282.35700  24996284.09500
         8.00000         3.00000
 04  8 25  0  4  0.0000000  0 12G18G15G 9G 6G10G17G 8G29G26G22G21G 3
 -13463826.24008 -10491291.66207  22110709.54500  22110709.62300  22110708.62100
       145.00000        55.00000
  -6407789.40006  -4993083.67406  23831887.60800  23831887.86900  23831888.85700
        14.00000        11.00000
  -2656555.35606  -2070041.64306  24213983.00000  24213981.94200  24213983.08600
        18.00000        13.00000
  -9137503.46906  -7120139.45605  23660507.82700  23660507.37500  23660509.08000
        11.00000         9.00000
  -5507988.95407  -4291940.56806  23213716.59200  23213715.90500  23213717.14100
        39.00000        26.00000
  -5631218.48106  -4387966.76906  23540388.46400  23540387.87700  23540389.70100
        14.00000        12.00000
  -6323971.88105  -4927766.46106  24281660.95900  24281661.68100  24281662.65300
         8.00000        12.00000
 -17779988.78108 -13854534.54308  20900063.93400  20900063.96600  20900063.47600
       233.00000       169.00000
 -22566736.27609 -17584468.69808  19995359.61200  19995359.65600  19995358.87600
       344.00000       240.00000
   -977573.15805   -761745.72805  24843049.80200  24843049.38100  24843047.52400
         7.00000        10.00000
 -25873268.67408 -20160987.00608  20573975.72100  20573975.14700  20573973.22000
       280.00000       174.00000
  -1225436.29405   -954885.08904  24985633.04700  24985632.80900  24985633.79500
         7.00000         3.00000
 04  8 25  0  4 30.0000000  0 12G18G15G 9G 6G10G17G 8G29G26G22G21G 3
 -13536744.68908 -10548111.21007  22096834.07400  22096833.63200  22096832.35900
       144.00000        54.00000
  -6516289.99906  -5077629.60005  23811241.44200  23811241.09000  23811241.21900
        13.00000        10.00000
  -2775268.65006  -2162545.51806  24191391.32600  24191391.57600  24191392.06900
        23.00000        11.00000
  -9044058.52606  -7047325.27305  23678290.39500  23678290.01700  23678290.90200
        13.00000         8.00000
  -5420745.40407  -4223958.62306  23230319.08000  23230318.65500  23230319.01600
        45.00000        26.00000
  -5523309.78006  -4303882.11106  23560923.17200  23560922.72300  23560924.69200
        13.00000        14.00000
  -6263055.53405  -4880299.22806  24293254.94000  24293254.88800  24293255.71000
        10.00000        13.00000
 -17730692.71808 -13816122.04508  20909445.39000  20909445.20200  20909444.15800
       240.00000       167.00000
 -22536521.06209 -17560924.37808  20001109.49400  20001109.53400  20001108.60900
       348.00000       239.00000
  -1068955.14404   -832952.46005  24825658.15800  24825658.75200  24825658.45800
         3.00000        10.00000
 -25915423.15308 -20193834.66008  20565953.76900  20565953.40100  20565951.32900
       275.00000       172.00000
  -1280897.82605   -998101.85104  24975079.20400  24975079.32600  24975079.07700
         8.00000         3.00000
 04  8 25  0  5  0.0000000  0 12G18G15G 9G 6G10G17G 8G29G26G22G21G 3
 -13609480.07908 -10604788.14207  22082993.04900  22082992.80300  22082990.98400
       154.00000        50.00000
  -6624661.82406  -5162075.15806  23790619.20600  23790618.41600  23790619.47000
        18.00000        11.00000
  -2893942.14106  -2255018.35606  24168808.56300  24168808.97600  24168809.85200
        26.00000        11.00000
  -8950463.75206  -6974394.33005  23696100.10500  23696100.24100  23696101.18200
        11.00000         7.00000
  -5333390.19407  -4155889.69306  23246941.76700  23246941.17100  23246942.74200
        38.00000        28.00000
  -5415185.77806  -4219629.74406  23581498.40800  23581497.99300  23581501.29600
        14.00000        18.00000
  -6201648.64805  -4832449.76406  24304938.89800  24304938.61800  24304940.84700
        10.00000        13.00000
 -17680994.77408 -13777396.39108  20918902.42100  20918902.28200  20918901.29000
       243.00000       164.00000
 -22505729.46409 -17536930.93208  20006968.92400  20006969.03500  20006968.15800
       349.00000       239.00000
  -1160296.44405   -904127.47106  24808276.99300  24808276.78900  24808275.89100
         4.00000        12.00000
 -25957079.79108 -20226294.38508  20558026.61800  20558026.29900  20558024.60800
       274.00000       179.00000
  -1335900.69305  -1040961.25404  24964613.00800  24964612.80400  24964612.92300
         6.00000         2.00000
 04  8 25  0  5 30.0000000  0 12G18G15G 9G 6G10G17G 8G29G26G22G21G 3
 -13682022.56508 -10661314.74807  22069188.53000  22069188.47600  22069186.37000
       146.00000        47.00000
  -6732893.38006  -5246411.41905  23770023.61200  23770022.12700  23770023.12500
        12.00000        10.00000
  -3012563.92306  -2347450.90106  24146236.62000  24146236.02000  24146237.20800
        24.00000        13.00000
  -8856712.91905  -6901341.76905  23713939.97300  23713940.36400  23713940.89100
         7.00000         8.00000
  -5245914.89207  -4087727.17106  23263587.32200  23263587.11600  23263588.98400
        37.00000        29.00000
  -5306839.24406  -4135203.99606  23602116.80500  23602115.65000  23602118.95100
        13.00000        19.00000
  -6139743.84506  -4784212.28606  24316719.75000  24316720.33700  24316720.63300
        11.00000        12.00000
 -17630887.91908 -13738352.10508  20928437.25200  20928437.26500  20928436.35400
       241.00000       163.00000
 -22474354.20809 -17512482.68708  20012939.34800  20012939.40600  20012938.63800
       338.00000       235.00000
  -1251587.37304   -975263.23906  24790902.92700  24790904.57700  24790904.22700
         2.00000        12.00000
 -25998227.35608 -20258357.43308  20550196.88400  20550196.46400  20550194.41500
       293.00000       181.00000
  -1390434.13805  -1083454.82804  24954235.00000  24954234.45700  24954235.74000
         4.00000         2.00000
 04  8 25  0  6  0.0000000  0 12G18G15G 9G 6G10G17G 8G29G26G22G21G 3
 -13754407.59108 -10717718.63807  22055413.84300  22055413.63400  22055412.01200
       137.00000        48.00000
  -6841018.93806  -5330665.09206  23749449.04800  23749447.65500  23749448.20600
        14.00000        12.00000
  -3131167.04206  -2439868.86306  24123665.98900  24123665.40300  24123668.55100
        19.00000        19.00000
  -8762845.33805  -6828198.26305  23731803.11200  23731803.00400  23731804.33200
         4.00000         7.00000
  -5158356.55807  -4019499.97406  23280250.51800  23280249.70400  23280250.90400
        44.00000        29.00000
  -5198308.71006  -4050634.84406  23622770.47400  23622769.45700  23622771.32100
        15.00000        15.00000
  -6077379.71605  -4735616.89006  24328588.36300  24328588.11000  24328587.71400
        10.00000        11.00000
 -17580410.63608 -13699019.17208  20938042.35000  20938042.55000  20938042.00700
       235.00000       163.00000
 -22442433.56609 -17487609.46208  20019013.49200  20019013.46900  20019012.87900
       333.00000       234.00000
  -1342863.78505  -1046387.68805  24773534.05300  24773534.86300  24773535.41700
         6.00000         9.00000
 -26038900.27008 -20290050.62108  20542456.83600  20542456.60600  20542454.68400
       295.00000       185.00000
  -1444532.75605  -1125609.60204  24943940.81600  24943940.57700  24943940.98100
         4.00000         3.00000
 04  8 25  0  6 30.0000000  0 12G18G15G 9G 6G10G17G 8G29G26G22G21G 3
 -13826589.44508 -10773964.21407  22041678.45900  22041678.03400  22041676.37000
       135.00000        50.00000
  -6948990.95006  -5414799.08506  23728901.73400  23728900.77700  23728901.12500
        16.00000        12.00000
  -3249703.59306  -2532234.89806  24101108.98000  24101108.58300  24101110.79700
        17.00000        16.00000
  -8668819.03505  -6754931.06505  23749694.58700  23749695.78600  23749696.78500
         6.00000         7.00000
  -5070670.58907  -3951173.28106  23296935.35900  23296935.15700  23296936.96500
        40.00000        29.00000
  -5089550.79406  -3965888.47106  23643464.53500  23643464.73200  23643467.42100
        13.00000        13.00000
  -6014513.60305  -4686630.35906  24340550.49400  24340549.99700  24340551.62900
         6.00000        11.00000
 -17529519.60108 -13659363.84008  20947726.78100  20947726.74700  20947726.29900
       231.00000       163.00000
 -22409924.30809 -17462277.58008  20025199.71300  20025199.85900  20025199.30700
       339.00000       236.00000
  -1434080.19605  -1117465.42405  24756177.93300  24756177.95900  24756176.97600
         9.00000         8.00000
 -26079051.68808 -20321337.44608  20534816.42600  20534815.92600  20534814.11800
       277.00000       186.00000
  -1498149.97504  -1167389.31104  24933736.69300  24933735.81000  24933737.98200
         1.00000         2.00000
 04  8 25  0  7  0.0000000  0 12G18G15G 9G 6G10G17G 8G29G26G22G21G 3
 -13898587.37008 -10830066.47607  22027976.92900  22027976.89500  22027975.99200
       137.00000        53.00000
  -7056827.10006  -5498827.26906  23708380.48800  23708379.76200  23708381.13300
        15.00000        14.00000
  -3368190.48606  -2624562.28406  24078561.55700  24078562.19000  24078563.02100
        21.00000        12.00000
  -8574656.91505  -6681558.06105  23767615.36400  23767614.74600  23767615.65400
         6.00000         6.00000
  -4982878.21607  -3882763.70906  23313641.84300  23313641.88600  23313644.20400
        42.00000        31.00000
  -4980587.34305  -3880981.98206  23664200.04800  23664199.14600  23664202.95600
         9.00000        16.00000
  -5951167.07705  -4637269.47706  24352606.17900  24352605.15700  24352606.12900
         8.00000        12.00000
 -17478236.87608 -13619403.29408  20957485.76600  20957485.66200  20957485.17500
       232.00000       163.00000
 -22376848.32009 -17436504.08608  20031493.97900  20031494.09700  20031493.47700
       342.00000       235.00000
  -1525256.18705  -1188511.64505  24738826.97100  24738827.30000  24738826.39500
         9.00000         8.00000
 -26118699.69808 -20352232.00708  20527271.48000  20527271.22000  20527269.42300
       282.00000       189.00000
  -1551304.40004  -1208808.35904  24923623.12200  24923624.95100  24923622.81300
         1.00000         3.00000
 04  8 25  0  7 30.0000000  0 12G18G15G 9G 6G10G17G 8G29G26G22G21G 3
 -13970363.54408 -10885995.94607  22014318.45700  22014318.36300  22014317.48700
       137.00000        53.00000
  -7164488.20306  -5582718.99806  23687893.03600  23687892.59400  23687894.11700
        16.00000        15.00000
  -3486587.39306  -2716819.61006  24056031.36200  24056031.32000  24056033.06800
        17.00000        13.00000
  -8480324.99505  -6608052.70205  23785565.56400  23785565.51100  23785566.60700
         5.00000         8.00000
  -4894943.00307  -3814242.80606  23330375.61300  23330375.29700  23330376.67200
        42.00000        26.00000
  -4871383.54106  -3795888.18906  23684980.94600  23684980.93100  23684984.33800
        18.00000        16.00000
  -5887305.58505  -4587507.32006  24364756.36900  24364755.90600  24364757.30500
         9.00000        11.00000
 -17426527.50408 -13579110.30108  20967325.95300  20967325.84500  20967325.09500
       236.00000       161.00000
 -22343170.51209 -17410261.64908  20037902.43800  20037902.72900  20037902.03600
       335.00000       231.00000
  -1616354.00606  -1259496.93606  24721493.84900  24721493.40400  24721491.85200
        16.00000        11.00000
 -26157805.73008 -20382704.25508  20519830.02100  20519829.62400  20519827.73300
       279.00000       189.00000
  -1603956.96204  -1249836.32404  24913603.67100  24913602.73000  24913602.75000
         2.00000         3.00000
 04  8 25  0  8  0.0000000  0 12G18G15G 9G 6G10G17G 8G29G26G22G21G 3
 -14041985.87108 -10941805.54207  22000689.24600  22000689.00400  22000688.59900
       140.00000        58.00000
  -7272040.27706  -5666525.80006  23667427.01600  23667426.00300  23667427.99200
        17.00000        16.00000
  -3604960.12405  -2809058.00106  24033505.55400  24033504.81600  24033508.20700
         7.00000        16.00000
  -8385895.06504  -6534471.01705  23803534.31800  23803534.69600  23803535.91600
         3.00000         9.00000
  -4806934.44307  -3745664.75806  23347123.14500  23347123.04900  23347124.97800
        41.00000        29.00000
  -4762009.85606  -3710662.03806  23705795.50400  23705794.16300  23705796.92600
        13.00000        15.00000
  -5823000.38106  -4537399.41706  24376993.73200  24376993.48600  24376995.48500
        12.00000        13.00000
 -17374462.25208 -13538539.99508  20977233.28100  20977233.36500  20977232.85300
       234.00000       160.00000
 -22308961.41209 -17383605.21808  20044412.51200  20044412.57600  20044411.79900
       339.00000       229.00000
  -1707442.13706  -1330474.64905  24704159.95400  24704159.88700  24704157.73400
        17.00000        10.00000
 -26196436.34608 -20412806.04308  20512478.34200  20512478.02700  20512476.75100
       261.00000       195.00000
  -1656174.91505  -1290525.68304  24903667.04900  24903666.24700  24903667.08100
         5.00000         2.00000
 04  8 25  0  8 30.0000000  0 12G18G15G 9G 6G10G17G 8G29G26G22G21G 3
 -14113414.87708 -10997464.49307  21987096.90800  21987096.65700  21987095.88300
       151.00000        60.00000
  -7379442.19106  -5750215.57706  23646988.52200  23646988.14500  23646989.62500
        17.00000        16.00000
  -3723266.73106  -2901244.83706  24010993.76200  24010993.50300  24010995.17300
        13.00000        17.00000
  -8291331.23305  -6460784.97505  23821529.22600  23821530.32800  23821531.15800
         6.00000         6.00000
  -4718814.32307  -3676999.79206  23363893.30100  23363892.40900  23363893.29200
        45.00000        26.00000
  -4652429.68206  -3625274.95906  23726645.55600  23726646.82400  23726648.80000
        13.00000        14.00000
  -5758214.58706  -4486917.01706  24389322.54300  24389321.97900  24389323.45600
        15.00000        12.00000
 -17322004.40408 -13497663.77308  20987216.00500  20987215.86100  20987215.23000
       230.00000       158.00000
 -22274184.44409 -17356506.28808  20051030.23300  20051030.44800  20051029.70200
       337.00000       230.00000
  -1798481.06406  -1401414.06705  24686833.21600  24686833.82000  24686833.86900
        12.00000         9.00000
 -26234551.12708 -20442505.88008  20505225.70100  20505225.22700  20505223.54600
       261.00000       191.00000
  -1707917.76605  -1330844.82404  24893820.80100  24893820.63700  24893820.43200
         7.00000         3.00000
 04  8 25  0  9  0.0000000  0 12G18G15G 9G 6G10G17G 8G29G26G22G21G 3
 -14184608.20508 -11052939.79707  21973549.46300  21973549.34100  21973548.39400
       167.00000        62.00000
  -7486649.95406  -5833754.07306  23626587.60300  23626587.51200  23626588.37000
        16.00000        16.00000
  -3841462.38406  -2993345.27506  23988501.00400  23988500.89600  23988502.68200
        20.00000        16.00000
  -8196594.82805  -6386964.44105  23839556.96900  23839557.71500  23839559.46500
         6.00000         8.00000
  -4630541.86907  -3608216.10106  23380690.29900  23380689.36000  23380691.27100
        39.00000        27.00000
  -4542603.19906  -3539695.96206  23747547.19500  23747546.11500  23747548.32100
        11.00000        13.00000
  -5692908.33006  -4436029.06606  24401748.85000  24401748.71800  24401750.17800
        13.00000        13.00000
 -17269114.26008 -13456450.69808  20997280.73800  20997280.58700  20997279.62500
       225.00000       153.00000
 -22238799.80709 -17328933.85508  20057763.89700  20057763.98800  20057763.32700
       337.00000       234.00000
  -1889428.90106  -1472282.51305  24669527.41600  24669527.41700  24669526.85900
        13.00000        10.00000
 -26272106.46408 -20471769.79708  20498079.04800  20498078.85700  20498077.00700
       272.00000       190.00000
  -1759142.30105  -1370760.04604  24884072.45700  24884071.36100  24884072.56300
         5.00000         3.00000
 04  8 25  0  9 30.0000000  0 12G18G15G 9G 6G10G17G 8G29G26G22G21G 3
 -14255626.78508 -11108278.93707  21960035.19100  21960035.00000  21960033.81800
       173.00000        62.00000
  -7593722.94706  -5917187.56806  23606212.58600  23606212.14100  23606213.21900
        18.00000        16.00000
  -3959605.64706  -3085404.89506  23966019.72600  23966019.25000  23966020.47300
        20.00000        14.00000
  -8101750.48105  -6313059.83205  23857606.07900  23857605.56200  23857607.34600
         4.00000         8.00000
  -4542179.17407  -3539362.10506  23397505.21700  23397504.84700  23397505.58200
        44.00000        23.00000
  -4432594.06906  -3453974.62406  23768481.07300  23768480.66600  23768482.67500
        16.00000        15.00000
  -5627145.78706  -4384785.56706  24414264.54500  24414263.72900  24414264.59300
        14.00000        13.00000
 -17215855.45708 -13414950.34908  21007415.58100  21007415.39300  21007414.45400
       223.00000       150.00000
 -22202871.18809 -17300937.54108  20064600.71000  20064600.81800  20064600.41300
       331.00000       237.00000
  -1980346.45806  -1543127.34505  24652225.71100  24652226.08400  24652225.35500
        12.00000        10.00000
 -26309162.20708 -20500644.41208  20491027.58500  20491027.11400  20491025.49100
       262.00000       191.00000
  -1809908.67805  -1410318.26804  24874411.19100  24874411.54900  24874411.30500
         4.00000         2.00000
 04  8 25  0 10  0.0000000  0 12G18G15G 9G 6G10G17G 8G29G26G22G21G 3
 -14326472.79608 -11163483.59607  21946553.87900  21946553.57300  21946552.08400
       171.00000        61.00000
  -7700662.12706  -6000516.77006  23585861.88900  23585861.51700  23585863.02200
        14.00000        17.00000
  -4077696.79106  -3177423.90306  23943546.24200  23943546.48900  23943547.48800
        18.00000        13.00000
  -8006804.58805  -6239076.08805  23875672.12300  23875673.00300  23875674.05200
         8.00000         8.00000
  -4453730.55607  -3470441.15406  23414336.97000  23414335.94800  23414336.83400
        39.00000        23.00000
  -4322407.24006  -3368114.82406  23789448.56300  23789448.26400  23789450.54100
        11.00000        14.00000
  -5560932.66705  -4333190.97206  24426861.91100  24426862.10800  24426865.18000
        10.00000        13.00000
 -17162233.24308 -13373166.82908  21017619.67600  21017619.47600  21017618.49100
       228.00000       150.00000
 -22166403.87009 -17272521.46308  20071540.23500  20071540.31600  20071539.88100
       335.00000       235.00000
  -2071236.79306  -1613950.93005  24634930.48300  24634930.75100  24634929.07700
        13.00000        10.00000
 -26345719.85308 -20529130.90108  20484071.09000  20484070.60400  20484068.91400
       269.00000       193.00000
  -1860218.66805  -1449520.90505  24864838.78300  24864837.90600  24864838.27500
         4.00000         4.00000
 04  8 25  0 10 30.0000000  0 12G18G15G 9G 6G10G17G 8G29G26G22G21G 3
 -14397106.45308 -11218522.79307  21933112.67900  21933112.38400  21933110.92100
       171.00000        61.00000
  -7807426.09506  -6083709.43906  23565545.08400  23565545.12500  23565546.88000
        13.00000        20.00000
  -4195693.55606  -3269369.37306  23921093.76700  23921093.39100  23921093.76200
        26.00000        16.00000
  -7911720.95804  -6164985.00905  23893766.82700  23893766.34600  23893768.57200
         3.00000         8.00000
  -4365157.70207  -3401423.39606  23431191.15500  23431190.47100  23431191.80400
        39.00000        23.00000
  -4212006.05505  -3282088.00706  23810457.40700  23810456.72700  23810458.89400
        10.00000        12.00000
  -5494232.01406  -4281216.50306  24439554.98100  24439555.29400  24439556.50800
        11.00000        12.00000
 -17108210.66608 -13331071.33608  21027899.51800  21027899.62700  21027898.96000
       229.00000       152.00000
 -22129360.77209 -17243656.72308  20078589.31200  20078589.49000  20078588.81800
       337.00000       231.00000
  -2162060.15906  -1684722.35205  24617647.68500  24617647.49900  24617646.00000
        17.00000        10.00000
 -26381738.71108 -20557197.55108  20477217.24900  20477216.76100  20477214.75500
       280.00000       194.00000
  -1910031.74605  -1488336.34705  24855359.25400  24855359.19700  24855359.39200
         4.00000         4.00000
 04  8 25  0 11  0.0000000  0 12G18G15G 9G 6G10G17G 8G29G26G22G21G 3
 -14467573.61908 -11273432.25807  21919702.69900  21919702.48100  21919701.52100
       158.00000        63.00000
  -7914058.72306  -6166799.75506  23545253.97800  23545253.91900  23545255.07900
        12.00000        18.00000
  -4313639.08507  -3361274.91906  23898649.53900  23898649.40600  23898650.63400
        32.00000        20.00000
  -7816548.72104  -6090824.91505  23911878.48400  23911877.60800  23911878.98400
         3.00000         7.00000
  -4276507.58407  -3332345.42706  23448060.35500  23448059.68400  23448061.78400
        34.00000        23.00000
  -4101438.63406  -3195931.66006  23831497.45700  23831497.10300  23831499.76800
        14.00000        14.00000
  -5427092.28206  -4228899.84706  24452331.64300  24452332.34900  24452332.89200
        12.00000        12.00000
 -17053836.10108 -13288701.56408  21038246.63900  21038246.63000  21038246.04500
       221.00000       152.00000
 -22091790.27709 -17214381.02008  20085739.14700  20085739.07700  20085738.18400
       342.00000       229.00000
  -2252862.36606  -1755477.32905  24600369.30400  24600369.10900  24600367.70700
        25.00000         9.00000
 -26417263.26508 -20584879.02908  20470456.61700  20470456.37100  20470454.81600
       273.00000       199.00000
  -1959392.28005  -1526799.12505  24845965.73900  24845966.18400  24845967.37200
         4.00000         5.00000
 04  8 25  0 11 30.0000000  0 12G18G15G 9G 6G10G17G 8G29G26G22G21G 3
 -14537816.63708 -11328167.05707  21906335.76400  21906335.59800  21906334.63000
       152.00000        62.00000
  -8020500.81106  -6249741.62206  23524998.77400  23524998.51000  23525000.25200
        12.00000        21.00000
  -4431473.42306  -3453093.78906  23876224.95300  23876224.59100  23876226.50100
        18.00000        17.00000
  -7721234.27905  -6016554.02005  23930016.82800  23930016.50100  23930017.17900
         8.00000         8.00000
  -4187724.17107  -3263163.59806  23464955.33900  23464954.54600  23464956.49200
        33.00000        23.00000
  -3990650.18306  -3109603.02005  23852579.61400  23852579.43200  23852581.14000
        14.00000        10.00000
  -5359458.88006  -4176198.55806  24465201.83700  24465201.58800  24465203.90300
        14.00000        13.00000
 -16999054.79808 -13246014.85308  21048671.07500  21048671.05300  21048670.66300
       220.00000       151.00000
 -22053637.57409 -17184651.65508  20092999.02400  20092999.21400  20092998.61400
       339.00000       232.00000
  -2343586.15306  -1826171.19305  24583105.51900  24583105.72200  24583103.04800
        26.00000         9.00000
 -26452235.14908 -20612129.84808  20463802.00200  20463801.46100  20463799.82100
       270.00000       203.00000
  -2008242.24305  -1564864.05005  24836670.53200  24836669.67100  24836671.77500
         5.00000         5.00000
 04  8 25  0 12  0.0000000  0 12G18G15G 9G 6G10G17G 8G29G26G22G21G 3
 -14607850.01008 -11382738.49607  21893008.65100  21893008.59800  21893007.66500
       158.00000        61.00000
  -8126765.59806  -6332545.32706  23504778.15300  23504777.11000  23504778.22800
        12.00000        19.00000
  -4549209.05706  -3544835.76406  23853819.41200  23853819.82800  23853821.22900
        19.00000        13.00000
  -7625796.30005  -5942186.78705  23948176.54800  23948176.68700  23948178.94700
         9.00000         7.00000
  -4098823.50107  -3193890.40206  23481872.85300  23481872.36400  23481873.43400
        36.00000        23.00000
  -3879658.19105  -3023115.79206  23873700.91300  23873699.89000  23873702.99600
         9.00000        12.00000
  -5291349.91606  -4123126.66506  24478163.42100  24478163.25000  24478163.75600
        18.00000        12.00000
 -16943884.38608 -13203024.94108  21059169.44300  21059169.67300  21059169.23100
       221.00000       149.00000
 -22014920.45109 -17154482.48208  20100366.55500  20100366.67100  20100366.38300
       336.00000       233.00000
  -2434246.66706  -1896815.70905  24565853.94500  24565853.33400  24565850.40400
        16.00000         9.00000
 -26486668.09208 -20638960.72308  20457249.77400  20457249.32900  20457247.56200
       279.00000       207.00000
  -2056595.96605  -1602542.29605  24827470.49200  24827469.05800  24827470.11000
         6.00000         5.00000
 04  8 25  0 12 30.0000000  0 12G18G15G 9G 6G10G17G 8G29G26G22G21G 3
 -14677678.27908 -11437150.11707  21879721.06100  21879720.91300  21879720.05600
       169.00000        63.00000
  -8232855.94506  -6415213.09006  23484590.67700  23484589.66400  23484590.04700
        11.00000        20.00000
  -4666848.14706  -3636502.54606  23831434.28400  23831434.95800  23831435.91600
        26.00000        14.00000
  -7530243.08105  -5867729.79305  23966359.27600  23966360.05300  23966361.61100
         8.00000         7.00000
  -4009812.07107  -3124530.91906  23498811.27700  23498810.37600  23498812.33200
        32.00000        24.00000
  -3768470.23206  -2936475.91406  23894859.45000  23894858.80000  23894861.71200
        11.00000        13.00000
  -5222773.04306  -4069690.17706  24491212.02900  24491212.69300  24491213.51400
        17.00000        12.00000
 -16888332.23208 -13159737.57208  21069741.25700  21069741.07300  21069740.46000
       222.00000       149.00000
 -21975646.26909 -17123879.23708  20107840.53200  20107840.50500  20107839.91200
       343.00000       229.00000
  -2524848.77606  -1967414.72605  24548610.39300  24548610.77700  24548610.00400
        12.00000         9.00000
 -26520565.76608 -20665374.49908  20450798.78500  20450798.51200  20450796.92900
       270.00000       205.00000
  -2104457.29005  -1639836.84105  24818361.46900  24818360.81400  24818362.32900
         5.00000         6.00000
 04  8 25  0 13  0.0000000  0 12G18G15G 9G 6G10G17G 8G29G26G22G21G 3
 -14747314.82408 -11491412.35007  21866470.23600  21866469.76600  21866468.65900
       183.00000        64.00000
  -8338783.00206  -6497753.60606  23464432.33200  23464431.50700  23464433.20700
        12.00000        19.00000
  -4784401.24907  -3728102.33306  23809066.40200  23809065.98700  23809066.57600
        33.00000        14.00000
  -7434591.12805  -5793195.86505  23984563.57900  23984563.02400  23984563.00400
         7.00000         8.00000
  -3920704.09907  -3055096.21306  23515768.22000  23515767.36900  23515769.04400
        34.00000        23.00000
  -3657101.78206  -2849695.35706  23916052.09000  23916052.06300  23916053.79000
        14.00000        13.00000
  -5153744.01806  -4015901.38506  24504349.13700  24504349.27800  24504350.09400
        18.00000        13.00000
 -16832414.18908 -13116165.09008  21080382.40800  21080382.18000  21080381.36800
       227.00000       145.00000
 -21935830.92409 -17092854.30708  20115416.98400  20115417.15200  20115416.39300
       336.00000       224.00000
  -2615405.46906  -2037978.36105  24531377.84000  24531378.04700  24531377.67800
        13.00000         8.00000
 -26553940.18408 -20691380.54808  20444448.16700  20444447.80500  20444446.01000
       270.00000       205.00000
  -2151838.29805  -1676757.09805  24809344.04300  24809343.73800  24809345.98800
         4.00000         7.00000
 04  8 25  0 13 30.0000000  0 12G18G15G 9G 6G10G17G 8G29G26G22G21G 3
 -14816781.34708 -11545542.09507  21853250.99500  21853250.75400  21853249.15300
       195.00000        62.00000
  -8444567.07806  -6580182.73806  23444301.78900  23444301.78600  23444303.13500
        15.00000        22.00000
  -4901888.10606  -3819650.48306  23786708.68800  23786708.74200  23786710.17500
        19.00000        18.00000
  -7338866.15205  -5718605.03805  24002777.48300  24002778.02200  24002779.77200
         7.00000         8.00000
  -3831523.05107  -2985604.54106  23532738.64500  23532738.03900  23532739.60800
        32.00000        23.00000
  -3545577.59406  -2762793.39606  23937274.07200  23937273.69100  23937276.01700
        15.00000        12.00000
  -5084288.47006  -3961780.23006  24517566.19800  24517566.16700  24517566.57200
        16.00000        13.00000
 -16776154.86208 -13072326.67108  21091087.79400  21091087.96900  21091087.10100
       234.00000       144.00000
 -21895499.26709 -17061427.04908  20123091.65900  20123091.84700  20123091.08300
       328.00000       218.00000
  -2705939.19906  -2108524.10105  24514149.85900  24514150.21300  24514149.72600
        16.00000        10.00000
 -26586812.39308 -20716995.26308  20438192.78100  20438192.41100  20438190.53900
       273.00000       203.00000
  -2198760.23504  -1713319.64505  24800414.62900  24800415.25100  24800417.07100
         3.00000         7.00000
 04  8 25  0 14  0.0000000  0 12G18G15G 9G 6G10G17G 8G29G26G22G21G 3
 -14886026.52708 -11599499.36807  21840074.10700  21840073.86000  21840072.44100
       193.00000        63.00000
  -8550155.23506  -6662459.19306  23424209.03500  23424209.01500  23424209.94600
        22.00000        18.00000
  -5019255.22606  -3911105.26906  23764374.35500  23764374.07600  23764375.63500
        18.00000        18.00000
  -7243020.91105  -5643920.49305  24021015.62900  24021015.77600  24021018.48000
         7.00000         7.00000
  -3742219.47207  -2916017.41006  23549732.89200  23549732.11400  23549733.43000
        35.00000        24.00000
  -3433849.33706  -2675732.47206  23958535.77800  23958534.94800  23958538.31200
        11.00000        13.00000
  -5014357.73906  -3907288.79605  24530872.87900  24530873.57600  24530873.56700
        16.00000        10.00000
 -16719506.00508 -13028184.72408  21101867.74000  21101867.75600  21101867.16300
       226.00000       147.00000
 -21854602.74809 -17029559.64208  20130874.23600  20130874.21400  20130873.53000
       323.00000       220.00000
  -2796398.73206  -2179012.02405  24496937.38700  24496937.42000  24496935.91400
        17.00000        10.00000
 -26619130.33608 -20742178.09008  20432042.79200  20432042.45200  20432040.64200
       266.00000       204.00000
  -2245171.33405  -1749484.10005  24791583.90900  24791583.51200  24791585.27900
         5.00000         7.00000
 04  8 25  0 14 30.0000000  0 12G18G15G 9G 6G10G17G 8G29G26G22G21G 3
 -14955074.04708 -11653302.61607  21826934.65700  21826934.32800  21826933.11500
       181.00000        66.00000
  -8655569.34206  -6744600.05306  23404149.32600  23404149.06100  23404149.78900
        20.00000        15.00000
  -5136523.31207  -4002482.97405  23742058.90800  23742059.25700  23742058.20100
        32.00000        10.00000
  -7147082.09305  -5569163.05005  24039272.78200  24039272.90200  24039275.29200
         8.00000         8.00000
  -3652817.84007  -2846353.88006  23566745.97500  23566745.09200  23566746.65800
        37.00000        24.00000
  -3321943.02305  -2588532.78806  23979831.32800  23979830.38900  23979832.95700
        10.00000        12.00000
  -4943977.96706  -3852447.45406  24544266.85900  24544266.11000  24544267.22700
        16.00000        11.00000
 -16662493.69308 -12983759.56708  21112717.03400  21112716.94900  21112716.14900
       224.00000       145.00000
 -21813167.75709 -16997272.65208  20138758.78600  20138758.99200  20138758.46000
       329.00000       220.00000
  -2886807.79506  -2249460.62905  24479732.38200  24479732.24100  24479730.90700
        17.00000         8.00000
 -26650916.43608 -20766946.48808  20425993.97300  20425993.55600  20425991.98900
       256.00000       206.00000
  -2291094.14105  -1785268.10205  24782846.61100  24782845.73600  24782846.82900
         4.00000         9.00000
 04  8 25  0 15  0.0000000  0 12G18G29G15G 9G 6G10G17G 8G26G22G21G 3
 -15023887.17208 -11706923.21807  21813839.81000  21813839.54800  21813838.35900
       178.00000        65.00000
 -16605084.54308 -12939025.18108  21123641.41000  21123641.39600  21123640.77000
       214.00000       144.00000
  -8760771.37806  -6826575.64206  23384130.81800  23384130.20600  23384131.55200
        27.00000        19.00000
  -5253653.68506  -4093753.41306  23719770.42600  23719770.17800  23719769.96900
        29.00000        13.00000
  -7051017.47405  -5494307.58005  24057554.78100  24057553.79000  24057555.82300
         9.00000         6.00000
  -3563283.50106  -2776586.93806  23583783.12200  23583782.27300  23583783.97900
        31.00000        21.00000
  -3209825.35506  -2501168.40106  24001167.57300  24001166.52600  24001168.50100
        11.00000        12.00000
  -4873116.81506  -3797231.04606  24557751.41100  24557751.52400  24557752.66900
        17.00000        11.00000
 -21771161.09309 -16964540.19808  20146752.69600  20146752.69700  20146752.09400
       331.00000       219.00000
  -2977130.49806  -2319841.93305  24462546.37600  24462545.83000  24462542.26100
        14.00000         7.00000
 -26682133.73408 -20791271.66708  20420053.71100  20420053.28400  20420051.51700
       263.00000       209.00000
  -2336492.09604  -1820643.08305  24774205.23900  24774205.52100  24774208.64400
         1.00000         9.00000
 04  8 25  0 15 30.0000000  0 12G18G29G15G 9G 6G10G17G 8G26G22G21G 3
 -15092500.20308 -11760387.90507  21800782.96600  21800782.89300  21800781.76900
       178.00000        66.00000
 -16547315.72508 -12894010.53508  21134634.30500  21134634.28000  21134633.82300
       211.00000       144.00000
  -8865793.94506  -6908411.37406  23364145.44900  23364144.82800  23364146.06100
        30.00000        14.00000
  -5370678.66206  -4184941.61606  23697500.37000  23697500.33000  23697501.36300
        20.00000        22.00000
  -6954865.12005  -5419383.72905  24075851.17500  24075851.59300  24075851.81200
         6.00000         5.00000
  -3473652.35607  -2706744.55506  23600839.51700  23600839.19100  23600840.79200
        36.00000        24.00000
  -3097533.43705  -2413668.25406  24022534.50300  24022534.08600  24022536.84900
        10.00000        12.00000
  -4801811.69206  -3741668.65506  24571320.35500  24571320.18000  24571321.59700
        18.00000        11.00000
 -21728619.79609 -16931391.14808  20154847.98800  20154848.17000  20154847.37300
       331.00000       214.00000
  -3067401.22406  -2390182.70805  24445367.71600  24445367.12100  24445365.60200
        15.00000         8.00000
 -26712815.62608 -20815179.64408  20414214.89900  20414214.68500  20414213.13200
       264.00000       217.00000
  -2381398.91700  -1855635.36605  24765661.42300  24765661.25900  24765662.73400
          .00000         8.00000
 04  8 25  0 16  0.0000000  0 12G18G29G15G 9G 6G10G17G 8G26G22G21G 3
 -15160938.37208 -11813716.33607  21787759.40900  21787759.34700  21787758.63100
       181.00000        70.00000
 -16489215.18008 -12848737.40208  21145690.66400  21145690.65400  21145689.99800
       217.00000       142.00000
  -8970660.51307  -6990125.61306  23344189.98100  23344189.65600  23344190.12100
        32.00000        14.00000
  -5487620.45807  -4276065.00806  23675247.82300  23675247.92100  23675248.62300
        35.00000        24.00000
  -6858653.78005  -5344413.94205  24094159.08900  24094158.67600  24094161.03700
         4.00000         5.00000
  -3383950.62807  -2636847.21006  23617909.35300  23617909.01000  23617910.78700
        36.00000        24.00000
  -2985095.01705  -2326053.91706  24043929.99500  24043929.92900  24043933.41400
         9.00000        11.00000
  -4730090.40006  -3685781.98005  24584968.49200  24584967.58100  24584969.66500
        16.00000        10.00000
 -21685572.04409 -16897847.46108  20163039.29800  20163039.65500  20163039.03800
       323.00000       212.00000
  -3157645.30606  -2460502.76705  24428194.37200  24428193.92000  24428192.57100
        14.00000         9.00000
 -26742986.28108 -20838689.25408  20408473.65000  20408473.31400  20408471.86300
       262.00000       220.00000
  -2425838.78204  -1890263.83105  24757204.64500  24757203.90100  24757205.52200
         2.00000         5.00000
 04  8 25  0 16 30.0000000  0 12G18G29G15G 9G 6G10G17G 8G26G22G21G 3
 -15229159.86308 -11866875.93107  21774777.60800  21774777.40400  21774776.17500
       186.00000        72.00000
 -16430744.14008 -12803175.56508  21156817.20800  21156817.32900  21156816.59100
       213.00000       138.00000
  -9075327.83906  -7071684.54406  23324272.19200  23324272.06700  23324273.38400
        28.00000        16.00000
  -5604435.24906  -4367089.48406  23653018.57900  23653018.16000  23653019.02400
        30.00000        18.00000
  -6762345.63505  -5269368.69605  24112485.54400  24112484.95800  24112488.22500
         4.00000         5.00000
  -3294138.54207  -2566863.82206  23634999.90700  23634999.24400  23635001.20600
        32.00000        22.00000
  -2872471.38705  -2238295.29306  24065362.31400  24065363.00300  24065364.58000
        10.00000        11.00000
  -4657915.04406  -3629541.49605  24598703.36300  24598702.75000  24598703.82200
        18.00000        10.00000
 -21641979.18709 -16863879.01608  20171335.14900  20171335.21000  20171334.50500
       327.00000       212.00000
  -3247821.37306  -2530769.79905  24411034.50000  24411034.18700  24411032.74500
        15.00000        10.00000
 -26772603.46808 -20861767.59008  20402838.04200  20402837.60500  20402835.94600
       269.00000       220.00000
  -2469769.87305  -1924495.85205  24748844.31200  24748843.48800  24748846.85200
         6.00000         4.00000
 04  8 25  0 17  0.0000000  0 12G18G29G15G 9G 6G10G17G 8G26G22G21G 3
 -15297152.79508 -11919857.42407  21761838.92200  21761838.80300  21761837.65100
       191.00000        72.00000
 -16371893.35908 -12757317.83008  21168016.48200  21168016.32000  21168015.37000
       211.00000       134.00000
  -9179781.92006  -7153077.33806  23304395.29900  23304395.16100  23304396.29200
        31.00000        16.00000
  -5721108.31006  -4458003.54406  23630814.50100  23630814.85500  23630816.71400
        20.00000        14.00000
  -6665932.33704  -5194241.51405  24130834.07700  24130833.57800  24130833.86300
         3.00000         4.00000
  -3204205.56907  -2496786.24206  23652113.49400  23652112.76700  23652114.94800
        32.00000        23.00000
  -2759653.34006  -2150385.13906  24086831.71500  24086831.51500  24086832.87600
        11.00000        11.00000
  -4585276.09406  -3572939.76305  24612525.81200  24612525.05000  24612526.10300
        15.00000        10.00000
 -21597832.16209 -16829478.74408  20179736.11100  20179736.30100  20179735.63200
       339.00000       216.00000
  -3337917.66606  -2600974.68306  24393888.53900  24393889.04100  24393888.27400
        12.00000        12.00000
 -26801654.43608 -20884404.71508  20397309.57600  20397309.34500  20397307.68300
       269.00000       220.00000
  -2513179.46405  -1958321.49504  24740584.37100  24740583.76200  24740584.13600
         9.00000         3.00000
 04  8 25  0 17 30.0000000  0 12G18G29G15G 9G 6G10G17G 8G26G22G21G 3
 -15364960.09908 -11972694.26607  21748935.89300  21748935.53900  21748934.46900
       195.00000        73.00000
 -16312708.61108 -12711199.86208  21179278.71400  21179278.66300  21179278.14200
       211.00000       137.00000
  -9284064.04106  -7234336.12606  23284552.07900  23284551.23900  23284551.07100
        27.00000        16.00000
  -5837680.25306  -4548838.78906  23608633.00700  23608632.92000  23608634.67700
        31.00000        22.00000
  -6569460.25104  -5119068.54304  24149191.59400  24149192.59000  24149191.79300
         1.00000         3.00000
  -3114195.94206  -2426648.94606  23669241.25900  23669241.15500  23669243.16100
        31.00000        22.00000
  -2646686.44705  -2062359.02306  24108328.83900  24108328.58200  24108330.91700
         9.00000        12.00000
  -4512220.00406  -3516013.00105  24626428.58000  24626427.62100  24626428.66700
        14.00000         9.00000
 -21553176.61609 -16794682.22808  20188233.74000  20188233.92300  20188233.32300
       336.00000       218.00000
  -3427977.25405  -2671150.94106  24376750.33400  24376750.54700  24376750.34100
         8.00000        11.00000
 -26830180.73608 -20906633.01008  20391881.06300  20391880.75700  20391879.36000
       259.00000       220.00000
  -2556109.92005  -1991773.81405  24732416.24200  24732415.31900  24732414.88100
         8.00000         4.00000
 04  8 25  0 18  0.0000000  0 12G18G29G15G 9G 6G10G17G 8G26G22G21G 3
 -15432545.20808 -12025357.97607  21736074.80200  21736074.51600  21736073.21900
       195.00000        71.00000
 -16253156.05608 -12664795.29608  21190611.31200  21190611.23900  21190610.74200
       209.00000       138.00000
  -9388136.02206  -7315431.15506  23264746.85900  23264746.56700  23264747.95400
        24.00000        20.00000
  -5954112.16406  -4639564.89706  23586476.89600  23586476.36700  23586478.41300
        26.00000        25.00000
  -6472896.84300  -5043824.44004  24167568.15100  24167567.91900  24167567.23900
          .00000         3.00000
  -3024074.70306  -2356424.68206  23686391.58100  23686391.00900  23686392.68100
        30.00000        21.00000
  -2533537.02205  -1974190.69906  24129859.47700  24129859.27500  24129862.12600
        10.00000        13.00000
  -4438713.35506  -3458735.13405  24640415.04200  24640415.49800  24640416.64200
        15.00000        10.00000
 -21507979.22509 -16759463.50208  20196834.54400  20196834.55200  20196834.16000
       329.00000       216.00000
  -3517963.81705  -2741270.28905  24359626.67900  24359626.12700  24359625.88500
         9.00000        10.00000
 -26858145.63408 -20928423.84408  20386559.94700  20386559.44800  20386557.63900
       263.00000       218.00000
  -2598524.31105  -2024823.97705  24724343.44800  24724342.47600  24724343.21600
         4.00000         4.00000
 04  8 25  0 18 30.0000000  0 11G18G29G15G 9G10G17G 8G26G22G21G 3
 -15499925.64308 -12077862.19307  21723252.37700  21723252.31500  21723251.21200
       193.00000        74.00000
 -16193256.42408 -12618120.28108  21202009.66800  21202009.67700  21202009.08500
       203.00000       135.00000
  -9492013.84906  -7396374.89706  23244979.48100  23244979.12800  23244979.55500
        26.00000        18.00000
  -6070419.24006  -4730193.72306  23564343.72500  23564343.57400  23564345.11100
        27.00000        20.00000
  -2933860.55406  -2286128.00006  23703558.46800  23703557.69300  23703560.04000
        28.00000        22.00000
  -2420225.54605  -1885896.12506  24151421.32300  24151421.81400  24151425.10200
         9.00000        11.00000
  -4364776.63706  -3401122.18505  24654483.44300  24654484.15000  24654487.33000
        11.00000         9.00000
 -21462260.68109 -16723838.67508  20205534.75200  20205534.61400  20205534.06800
       328.00000       214.00000
  -3607895.38506  -2811346.82805  24342515.37700  24342515.04600  24342511.71900
        19.00000         8.00000
 -26885565.60908 -20949790.06508  20381341.98400  20381341.52500  20381339.82400
       262.00000       219.00000
  -2640439.71505  -2057485.30704  24716367.29400  24716367.06600  24716366.86200
         4.00000         3.00000
 04  8 25  0 19  0.0000000  0 12G18G29G15G 9G10G17G 8G26G22G21G 3G 6
 -15567106.86308 -12130211.17507  21710468.29900  21710468.15300  21710467.18900
       194.00000        74.00000
 -16133017.99308 -12571181.26808  21213472.67500  21213472.82000  21213472.27300
       207.00000       136.00000
  -9595701.28706  -7477170.27906  23225248.46100  23225247.98000  23225249.22600
        25.00000        23.00000
  -6186604.67106  -4820727.80306  23542232.87600  23542233.42800  23542235.78600
        20.00000        19.00000
  -2843560.78606  -2215764.61006  23720741.89800  23720741.25200  23720743.27900
        25.00000        20.00000
  -2306760.50905  -1797481.83205  24173014.21900  24173013.50800  24173015.66400
         8.00000         8.00000
  -4290419.49206  -3343181.62905  24668635.88700  24668634.66800  24668636.39900
        13.00000         9.00000
 -21416029.53809 -16687814.42508  20214331.86300  20214332.07500  20214331.58100
       336.00000       214.00000
  -3697777.54106  -2881384.86905  24325410.45300  24325410.53800  24325408.31300
        15.00000        10.00000
 -26912445.78608 -20970735.66708  20376226.54900  20376226.30400  20376224.62400
       261.00000       218.00000
  -2681861.35704  -2089761.91804  24708484.33800  24708483.42000  24708484.85700
         3.00000         3.00000
     32231.69600     25115.39204  24204355.79800  24204356.73200  24204356.06200
        -2.00000         1.00000
 04  8 25  0 19 30.0000000  0 11G18G29G15G 9G10G17G 8G26G22G21G 3
 -15634081.89508 -12182399.49807  21697723.70400  21697723.38700  21697722.00200
       194.00000        72.00000
 -16072436.93608 -12523975.25708  21225000.71200  21225000.93700  21225000.57900
       203.00000       137.00000
  -9699189.67506  -7557810.56606  23205554.52000  23205554.54300  23205555.83800
        23.00000        23.00000
  -6302659.19806  -4911159.83006  23520149.04400  23520149.22100  23520151.26100
        27.00000        20.00000
  -2753170.04006  -2145330.32206  23737943.28500  23737942.58100  23737944.68000
        27.00000        20.00000
  -2193137.97705  -1708944.85305  24194636.09800  24194635.88200  24194637.60600
        10.00000         8.00000
  -4215638.11606  -3284910.47905  24682864.45700  24682864.61800  24682866.91800
        14.00000         8.00000
 -21369281.97809 -16651387.76708  20223227.77300  20223227.94800  20223227.34500
       339.00000       213.00000
  -3787603.90105  -2951379.38706  24308316.83900  24308316.56700  24308315.08800
         8.00000        12.00000
 -26938778.57008 -20991254.72508  20371215.86700  20371215.50400  20371213.82200
       270.00000       225.00000
  -2722781.84804  -2121648.06005  24700699.41000  24700698.06300  24700699.37000
         1.00000         4.00000
 04  8 25  0 20  0.0000000  0 11G18G29G15G 9G10G17G 8G26G22G21G 3
 -15700850.22808 -12234426.76807  21685017.70500  21685017.65500  21685016.56800
       191.00000        74.00000
 -16011515.43208 -12476503.97708  21236594.06000  21236593.89000  21236593.63400
       197.00000       136.00000
