     2.10           OBSERVATION DATA    G (GPS)             RINEX VERSION / TYPE
teqc  2002Mar14     gpsodc(auto)        20040826 01:11:42UTCPGM / RUN BY / DATE
OBSERVATION MODE: IGS-Net                                   COMMENT
ULAB Ulaanbataar (ULAB)                                     MARKER NAME
24201M001                                                   MARKER NUMBER
287-U               AOA SNR-8000 ACT     3.30               REC # / TYPE / VERS
340-U               AOAD/M_T        NONE                    ANT # / TYPE
        0.0460        0.0000        0.0000                  ANTENNA: DELTA H/E/N
  -1257408.5410  4099404.3504  4707992.6294                 APPROX POSITION XYZ
  107.05232529  47.86506788  1575.5341  LonLatAlt  S/W      COMMENT
unknown             IVTAN                                   OBSERVER / AGENCY
     1     1                                                WAVELENGTH FACT L1/2
     7    L1    L2    C1    P1    P2    S1    S2            # / TYPES OF OBSERV
    30.0000                                                 INTERVAL
Linux 2.0.36|Pentium II|gcc -static|Linux|486/DX+           COMMENT
bx2rxo      unknown * Thu Aug 26 02:18:43 2004              COMMENT
  2004     8    26     0     0    0.0000000     GPS         TIME OF FIRST OBS
  2004     8    26    23    59   30.0000000     GPS         TIME OF LAST OBS
                                                            END OF HEADER
 04  8 26  0  0  0.0000000  0 12G18G17G 6G15G29G 9G10G26G22G 8G21G 3
 -13491249.18908 -10512660.97207  22109016.41500  22109016.11400  22109015.29300
       145.00000        56.00000
  -5593658.85706  -4358701.81906  23544340.17100  23544340.12400  23544342.22500
        13.00000        11.00000
  -9014044.94406  -7023939.83905  23662050.23100  23662050.41400  23662051.94800
        12.00000         9.00000
  -6368995.80906  -4962855.49006  23827471.00300  23827470.73600  23827472.23400
        13.00000        11.00000
 -17811056.20908 -13878743.66808  20900274.65600  20900274.61600  20900274.55500
       234.00000       168.00000
  -2577431.99806  -2008386.15506  24211039.08000  24211038.30000  24211039.73900
        21.00000        12.00000
  -5479112.60907  -4269443.13806  23212203.04400  23212202.26900  23212203.87400
        41.00000        26.00000
 -22464957.87609 -17505161.87108  19995496.07500  19995496.07500  19995495.66400
       346.00000       239.00000
  -1253137.87205   -976471.29505  24840240.04300  24840239.53500  24840237.75600
         7.00000         9.00000
  -6315383.03305  -4921074.67006  24285301.41600  24285301.14500  24285303.28400
         8.00000        12.00000
 -25896476.00708 -20179073.09808  20572966.79000  20572966.28000  20572964.58500
       278.00000       173.00000
  -1353838.80305  -1054939.44405  24983599.99300  24983600.43600  24983601.16200
         9.00000         4.00000
 04  8 26  0  0 30.0000000  0 12G18G17G 6G15G29G 9G10G26G22G 8G21G 3
 -13564132.19208 -10569452.89407  22095147.19700  22095146.92400  22095145.83300
       144.00000        52.00000
  -5485708.70806  -4274584.89006  23564883.02100  23564882.12300  23564885.52200
        13.00000        13.00000
  -8920585.12406  -6951114.06805  23679835.91400  23679835.41200  23679836.52000
        15.00000         8.00000
  -6477455.33606  -5047369.40905  23806831.55700  23806831.55000  23806832.09600
        14.00000         9.00000
 -17761743.20608 -13840317.96208  20909659.07200  20909658.97300  20909658.50300
       242.00000       166.00000
  -2696141.11606  -2100886.64505  24188448.22100  24188448.29800  24188450.00300
        22.00000        10.00000
  -5391877.16607  -4201467.52406  23228803.19400  23228802.86200  23228804.04300
        45.00000        25.00000
 -22434676.92609 -17481566.32508  20001258.35900  20001258.44200  20001257.98000
       351.00000       239.00000
  -1344501.33304  -1047663.59805  24822851.41900  24822852.82600  24822851.66300
         3.00000        10.00000
  -6254334.72805  -4873504.60706  24296918.60600  24296918.81800  24296921.07000
        10.00000        13.00000
 -25938547.26608 -20211855.88508  20564960.42500  20564960.23400  20564958.54900
       277.00000       173.00000
  -1409206.97705  -1098083.52704  24973064.64200  24973064.09300  24973065.18400
         8.00000         2.00000
 04  8 26  0  1  0.0000000  0 12G18G17G 6G15G29G 9G10G26G22G 8G21G 3
 -13636834.37908 -10626103.94207  22081312.30800  22081311.98100  22081310.93000
       149.00000        51.00000
  -5377545.94106  -4190302.31506  23585465.92100  23585465.45200  23585469.11800
        14.00000        20.00000
  -8826978.11106  -6878173.60005  23697648.14500  23697647.36000  23697649.27400
        13.00000         8.00000
  -6585787.92906  -5131784.40106  23786217.24000  23786216.94800  23786217.38600
        17.00000        11.00000
 -17712030.90508 -13801581.11908  20919119.09400  20919118.88200  20919118.27100
       243.00000       163.00000
  -2814812.76606  -2193357.98105  24165865.44200  24165866.00600  24165867.04600
        25.00000        10.00000
  -5304532.27407  -4133406.64206  23245423.88400  23245423.34200  23245426.35900
        39.00000        28.00000
 -22403822.24409 -17457523.71208  20007129.78900  20007129.86700  20007129.53500
       348.00000       239.00000
  -1435826.47304  -1118826.05406  24805474.44200  24805474.10900  24805474.25900
         3.00000        12.00000
  -6192799.03006  -4825554.77006  24308628.55600  24308628.75700  24308630.44200
        11.00000        13.00000
 -25980122.67908 -20244252.30108  20557049.05700  20557048.64800  20557047.28300
       278.00000       180.00000
  -1464118.62405  -1140871.83804  24962614.24500  24962614.13700  24962615.23800
         7.00000         3.00000
 04  8 26  0  1 30.0000000  0 12G18G17G 6G15G29G 9G10G26G22G 8G21G 3
 -13709388.33408 -10682639.47507  22067505.32500  22067505.18900  22067504.00100
       141.00000        47.00000
  -5269205.69706  -4105881.48906  23606082.48100  23606082.35000  23606085.78100
        11.00000        19.00000
  -8733260.05005  -6805146.58805  23715481.90200  23715481.91000  23715482.96300
         9.00000         7.00000
  -6694024.61406  -5216124.67005  23765620.92900  23765620.06600  23765620.27800
        13.00000        10.00000
 -17661954.68208 -13762560.69408  20928647.85800  20928647.87800  20928647.57000
       242.00000       163.00000
  -2933476.83406  -2285823.42106  24143285.06600  24143284.94900  24143286.95000
        23.00000        15.00000
  -5217111.65507  -4065286.74206  23262059.43200  23262059.18100  23262061.75500
        39.00000        28.00000
 -22372428.76009 -17433061.25808  20013103.51700  20013103.62200  20013103.33700
       337.00000       235.00000
  -1527145.80104  -1189983.98006  24788095.22300  24788095.16800  24788095.70900
         3.00000        11.00000
  -6130810.82906  -4777252.28806  24320424.82800  24320425.58100  24320426.35400
        11.00000        11.00000
 -26021233.42508 -20276286.65308  20549226.04800  20549225.73100  20549224.07100
       296.00000       183.00000
  -1518605.35404  -1183329.06304  24952246.79200  24952246.83900  24952247.30800
         3.00000         3.00000
 04  8 26  0  2  0.0000000  0 12G18G17G 6G15G29G 9G10G26G22G 8G21G 3
 -13781715.00708 -10738997.89607  22053741.93800  22053741.83900  22053740.62500
       135.00000        48.00000
  -5160611.57006  -4021262.80406  23626749.07500  23626747.88800  23626749.89800
        15.00000        14.00000
  -8639355.66905  -6731974.42505  23733351.95000  23733351.06700  23733353.71900
         5.00000         6.00000
  -6802084.83206  -5300327.41606  23745057.89600  23745056.59900  23745057.51900
        13.00000        13.00000
 -17611437.92908 -13723196.99008  20938260.97700  20938260.77400  20938260.71300
       236.00000       162.00000
  -3052051.97806  -2378219.51806  24120720.41900  24120719.87600  24120723.22800
        17.00000        19.00000
  -5129537.83007  -3997047.48006  23278725.06300  23278724.74900  23278726.86300
        46.00000        29.00000
 -22340419.96509 -17408119.33908  20019194.43200  20019194.51700  20019194.41300
       333.00000       235.00000
  -1618380.69105  -1261076.11306  24770733.85900  24770733.99300  24770735.48100
         5.00000        11.00000
  -6068293.84805  -4728537.79506  24332321.91000  24332321.41700  24332322.81500
        10.00000        11.00000
 -26061799.48108 -20307896.56608  20541506.48100  20541506.18100  20541504.68900
       288.00000       186.00000
  -1572587.10904  -1225392.84704  24941974.86800  24941974.66300  24941976.02300
         3.00000         2.00000
 04  8 26  0  2 30.0000000  0 12G18G17G 6G15G29G 9G10G26G22G 8G21G 3
 -13853854.95608 -10795210.81907  22040014.92800  22040014.24500  22040013.19000
       133.00000        50.00000
  -5051807.16205  -3936480.21906  23647451.35000  23647451.29200  23647455.29800
        10.00000        15.00000
  -8545309.60805  -6658691.82105  23751246.65800  23751248.06200  23751248.29100
         7.00000         7.00000
  -6910007.71606  -5384423.13406  23724520.29400  23724519.53600  23724520.47200
        17.00000        12.00000
 -17560524.29608 -13683524.03508  20947949.14100  20947949.26800  20947949.27000
       232.00000       163.00000
  -3170576.66006  -2470576.28706  24098164.80600  24098164.99900  24098167.68000
        15.00000        15.00000
  -5041853.16607  -3928721.81106  23295409.90100  23295409.80900  23295412.43300
        39.00000        28.00000
 -22307839.46509 -17382731.93608  20025394.27500  20025394.49000  20025394.41100
       338.00000       233.00000
  -1709572.06605  -1332134.35405  24753383.00600  24753382.29900  24753381.47300
         8.00000         9.00000
  -6005291.88905  -4679445.40806  24344310.84800  24344310.38900  24344312.36500
         7.00000        12.00000
 -26101860.27808 -20339112.77008  20533883.23000  20533882.80500  20533881.36100
       277.00000       187.00000
  -1626103.64104  -1267094.15504  24931788.44800  24931791.13300  24931788.25300
         1.00000         2.00000
 04  8 26  0  3  0.0000000  0 12G18G17G 6G15G29G 9G10G26G22G 8G21G 3
 -13925812.94308 -10851281.95607  22026320.77700  22026320.65500  22026320.18400
       134.00000        51.00000
  -4942799.68506  -3851539.46306  23668196.00900  23668195.02700  23668198.82200
        12.00000        16.00000
  -8451130.28705  -6585305.40305  23769170.92300  23769170.13700  23769171.57000
         5.00000         7.00000
  -7017796.33606  -5468414.27006  23704007.78300  23704007.58900  23704009.17400
        13.00000        14.00000
 -17509221.31308 -13643547.69908  20957712.09900  20957712.03100  20957711.99800
       232.00000       162.00000
  -3289053.28506  -2562895.67406  24075619.98200  24075620.52100  24075621.60900
        22.00000        11.00000
  -4954063.93207  -3860314.68806  23312115.84700  23312115.86500  23312119.35700
        45.00000        31.00000
 -22274694.74409 -17356904.88808  20031701.51700  20031701.80300  20031701.60100
       340.00000       231.00000
  -1800725.08006  -1403162.69005  24736036.59700  24736037.03900  24736035.71000
        11.00000         9.00000
  -5941812.16705  -4629980.71005  24356390.20400  24356390.18400  24356390.55400
         9.00000        10.00000
 -26141419.65908 -20369938.26308  20526355.29700  20526355.01500  20526353.43300
       284.00000       188.00000
  -1679158.99900  -1308435.94304  24921695.27900  24921694.43800  24921693.82600
          .00000         3.00000
 04  8 26  0  3 30.0000000  0 11G18G17G 6G15G29G 9G10G26G22G 8G21
 -13997590.06608 -10907212.17207  22012662.17800  22012661.96000  22012661.55100
       136.00000        52.00000
  -4833593.17706  -3766443.58006  23688976.16900  23688976.47400  23688980.31000
        14.00000        15.00000
  -8356822.48005  -6511818.86205  23787116.52400  23787117.14100  23787117.76900
         5.00000         7.00000
  -7125450.25606  -5552300.42506  23683523.05800  23683522.22900  23683523.45700
        17.00000        14.00000
 -17457532.83908 -13603270.97808  20967548.39600  20967548.17900  20967547.84500
       236.00000       161.00000
  -3407480.60906  -2655176.66506  24053083.30000  24053083.89900  24053086.92800
        13.00000        13.00000
  -4866172.56707  -3791827.95606  23328842.04800  23328841.26200  23328843.09600
        41.00000        24.00000
 -22240989.27609 -17330640.89208  20038115.36400  20038115.69600  20038115.44100
       337.00000       229.00000
  -1891841.03706  -1474162.11805  24718699.55900  24718699.33500  24718697.83800
        16.00000        10.00000
  -5877859.15305  -4580147.24106  24368559.60700  24368558.81200  24368561.41500
        10.00000        12.00000
 -26180477.50008 -20400372.95608  20518922.69800  20518922.47600  20518920.98300
       278.00000       190.00000
 04  8 26  0  4  0.0000000  0 12G18G17G 6G15G29G 9G10G26G22G 8G21G 3
 -14069175.04308 -10962992.66107  21999039.49200  21999039.78800  21999039.79600
       141.00000        58.00000
  -4724178.69506  -3681185.67406  23709799.64200  23709798.97200  23709801.37700
        12.00000        15.00000
  -8262378.44004  -6438226.20105  23805087.01200  23805087.34300  23805090.54900
         3.00000         8.00000
  -7232956.27506  -5636071.34606  23663064.69600  23663064.47100  23663066.31600
        18.00000        17.00000
 -17405450.26408 -13562687.15808  20977458.96000  20977459.00100  20977458.93200
       234.00000       159.00000
  -3525844.96505  -2747408.52106  24030559.50700  24030558.52900  24030562.80300
         6.00000        17.00000
  -4778169.07707  -3723253.84606  23345588.36500  23345587.80500  23345590.37400
        40.00000        28.00000
 -22206714.60709 -17303933.35808  20044638.07900  20044637.99000  20044637.65500
       337.00000       228.00000
  -1982908.67806  -1545123.91505  24701369.48900  24701369.20200  24701367.27400
        16.00000        10.00000
  -5813423.85406  -4529937.96006  24380821.33900  24380821.08500  24380823.87200
        12.00000        13.00000
 -26219021.53808 -20430407.27808  20511587.68600  20511587.41400  20511586.49900
       260.00000       193.00000
    -17322.90005    -13498.07904  24901768.41900  24901767.79500  24901768.57600
         5.00000         2.00000
 04  8 26  0  4 30.0000000  0 12G18G17G 6G15G29G 9G10G26G22G 8G21G 3
 -14140533.53508 -11018596.66407  21985461.59100  21985461.01100  21985460.37600
       155.00000        59.00000
  -4614524.80506  -3595741.20206  23730663.85000  23730664.21900  23730667.65300
        12.00000        14.00000
  -8167767.74905  -6364503.65405  23823091.98700  23823091.50000  23823094.20800
         7.00000         6.00000
  -7340278.78906  -5719699.25706  23642642.16300  23642641.67200  23642642.88800
        18.00000        18.00000
 -17352941.78108 -13521771.46308  20987451.26100  20987451.12800  20987450.94100
       228.00000       156.00000
  -3644109.65706  -2839562.69306  24008055.81700  24008055.71400  24008057.46100
        17.00000        18.00000
  -4690020.82107  -3654566.96006  23362363.91100  23362362.80200  23362364.16800
        43.00000        25.00000
 -22171838.89509 -17276757.47408  20051274.54800  20051274.74300  20051274.39300
       339.00000       231.00000
  -2073893.85606  -1616021.49805  24684053.02800  24684053.56900  24684053.18200
        14.00000         9.00000
  -5748475.40906  -4479328.80206  24393180.42400  24393179.86000  24393182.30500
        14.00000        13.00000
 -26257016.20408 -20460013.51408  20504358.04200  20504357.60100  20504356.14500
       265.00000       189.00000
    -68935.14905    -53715.45404  24891946.77700  24891945.84600  24891947.08100
         7.00000         2.00000
 04  8 26  0  5  0.0000000  0 12G18G17G 6G15G29G 9G10G26G22G 8G21G 3
 -14211747.69508 -11074088.20407  21971909.54500  21971909.62900  21971908.86500
       168.00000        61.00000
  -4504716.47806  -3510176.38206  23751562.52500  23751561.33500  23751563.42600
        14.00000        14.00000
  -8073076.50005  -6290718.27705  23841111.47500  23841111.04300  23841113.74900
         7.00000         8.00000
  -7447498.53506  -5803247.09306  23622239.69800  23622238.74000  23622239.54100
        19.00000        15.00000
 -17300092.83708 -13480590.47508  20997508.07300  20997508.02600  20997507.57100
       228.00000       154.00000
  -3762354.52006  -2931701.48606  23985553.79500  23985553.79600  23985555.93300
        21.00000        16.00000
  -4601811.78307  -3585832.68606  23379148.43000  23379147.34900  23379150.26300
        39.00000        27.00000
 -22136447.38309 -17249179.67108  20058009.53600  20058009.49000  20058009.30400
       332.00000       235.00000
  -2164879.48106  -1686919.42605  24666738.92000  24666739.73800  24666739.78600
        12.00000        10.00000
  -5683099.15706  -4428386.29806  24405621.41500  24405620.39700  24405622.21000
        12.00000        11.00000
 -26294542.61308 -20489254.87908  20497216.91400  20497216.59600  20497215.08200
       270.00000       190.00000
   -120120.41205    -93600.11204  24882205.47200  24882205.26000  24882205.66800
         6.00000         3.00000
 04  8 26  0  5 30.0000000  0 12G18G17G 6G15G29G 9G10G26G22G 8G21G 3
 -14282755.54908 -11129418.97207  21958397.55800  21958397.36900  21958396.45800
       172.00000        60.00000
  -4394694.73006  -3424445.28006  23772498.07100  23772498.05300  23772500.31900
        15.00000        15.00000
  -7978246.53505  -6216824.88805  23859156.56500  23859157.14300  23859159.77300
         8.00000         8.00000
  -7554551.99706  -5886665.39706  23601866.96400  23601866.56300  23601868.32400
        18.00000        18.00000
 -17246844.03608 -13439097.90908  21007640.92400  21007640.88200  21007640.44100
       227.00000       151.00000
  -3880515.52706  -3023774.93306  23963069.01700  23963069.05200  23963070.05600
        19.00000        13.00000
  -4513481.38007  -3517003.83906  23395957.20900  23395956.52500  23395958.69800
        43.00000        23.00000
 -22100481.09209 -17221154.00108  20064853.52000  20064853.54700  20064853.57800
       330.00000       237.00000
  -2255803.81006  -1757769.54205  24649437.97500  24649437.82200  24649437.12600
        11.00000        10.00000
  -5617236.29306  -4377064.62506  24418155.34200  24418154.57700  24418156.24900
        12.00000        14.00000
 -26331538.53208 -20518082.87208  20490176.69200  20490176.19100  20490174.96800
       259.00000       190.00000
   -170816.16005   -133103.32304  24872557.83200  24872558.95500  24872558.82300
         4.00000         2.00000
 04  8 26  0  6  0.0000000  0 12G18G17G 6G15G29G 9G10G26G22G 8G21G 3
 -14353533.58108 -11184570.66507  21944928.96800  21944928.85400  21944927.61700
       175.00000        60.00000
  -4284438.40006  -3338531.38406  23793478.66900  23793478.48000  23793480.99800
        13.00000        12.00000
  -7883257.91905  -6142807.85305  23877232.20600  23877232.18400  23877234.18900
         7.00000         8.00000
  -7661413.65606  -5969934.21006  23581531.78000  23581530.97300  23581533.23400
        15.00000        19.00000
 -17193174.66708 -13397277.63208  21017854.30000  21017853.94100  21017853.42100
       231.00000       151.00000
  -3998566.67306  -3115762.77906  23940603.09400  23940603.44100  23940605.61000
        18.00000        14.00000
  -4425007.56307  -3448063.23506  23412792.63700  23412792.11300  23412794.17300
        38.00000        22.00000
 -22063918.79309 -17192663.90808  20071810.98200  20071811.11800  20071811.10200
       333.00000       234.00000
  -2346643.31606  -1828553.53305  24632151.31800  24632151.44900  24632149.95700
        15.00000        10.00000
  -5550865.42106  -4325347.11706  24430781.71600  24430783.26100  24430786.43500
        11.00000        13.00000
 -26367978.72108 -20546477.83008  20483242.62100  20483242.15400  20483240.72000
       270.00000       195.00000
   -220997.95304   -172206.04904  24863009.65500  24863009.65800  24863010.06400
         3.00000         2.00000
 04  8 26  0  6 30.0000000  0 12G18G17G 6G15G29G 9G10G26G22G 8G21G 3
 -14424142.38208 -11239590.48607  21931492.21600  21931492.13000  21931491.09000
       168.00000        62.00000
  -4174010.79705  -3252484.03006  23814492.88400  23814492.25800  23814495.21100
        10.00000        14.00000
  -7788174.67904  -6068717.05105  23895326.45800  23895325.61800  23895328.03500
         2.00000         7.00000
  -7768142.42106  -6053099.45806  23561219.99000  23561220.40300  23561223.11300
        12.00000        17.00000
 -17139148.01508 -13355178.94808  21028134.78800  21028134.84100  21028134.68500
       230.00000       153.00000
  -4116565.83806  -3207710.12706  23918150.70400  23918150.46900  23918151.45000
        31.00000        19.00000
  -4336452.02007  -3379058.96506  23429644.03300  23429643.90600  23429646.51100
        39.00000        23.00000
 -22026823.87309 -17163758.78108  20078869.91800  20078870.10100  20078869.88200
       337.00000       230.00000
  -2437458.76806  -1899318.80505  24614870.60300  24614870.31100  24614868.71800
        21.00000         9.00000
  -5484050.54506  -4273283.60606  24443498.67200  24443497.89700  24443499.59200
        13.00000        11.00000
 -26403922.59008 -20574486.04508  20476402.90200  20476402.51100  20476400.83300
       281.00000       196.00000
   -270725.21105   -210954.51604  24853546.69900  24853547.09900  24853547.05400
         4.00000         3.00000
 04  8 26  0  7  0.0000000  0 12G18G17G 6G15G29G 9G10G26G22G 8G21G 3
 -14494561.34408 -11294462.37307  21918091.87600  21918091.60200  21918091.10900
       153.00000        64.00000
  -4063394.03806  -3166289.30106  23835541.65400  23835541.98100  23835545.27200
        14.00000        12.00000
  -7692980.23005  -5994539.70005  23913441.80600  23913441.87100  23913443.34200
         4.00000         7.00000
  -7874716.24306  -6136143.98106  23540941.02900  23540940.94800  23540942.59500
        12.00000        18.00000
 -17084746.27608 -13312787.98808  21038486.84900  21038486.95300  21038486.86900
       222.00000       151.00000
  -4234490.27706  -3299599.25006  23895709.91100  23895709.82300  23895711.34400
        29.00000        20.00000
  -4247795.88807  -3309976.32106  23446514.75200  23446514.30400  23446516.80400
        35.00000        22.00000
 -21989178.65009 -17134424.84208  20086033.69100  20086033.88900  20086033.39900
       341.00000       228.00000
  -2528229.78606  -1970049.49505  24597598.62400  24597598.07700  24597596.24200
        26.00000         9.00000
  -5416774.42506  -4220860.67406  24456300.09000  24456299.67500  24456301.73900
        13.00000        11.00000
 -26439348.89608 -20602090.96108  20469661.11200  20469660.86000  20469659.60800
       273.00000       201.00000
   -319976.74005   -249332.35505  24844174.58500  24844174.46000  24844176.30000
         5.00000         6.00000
 04  8 26  0  7 30.0000000  0 12G18G17G 6G15G29G 9G10G26G22G 8G21G 3
 -14564790.34208 -11349186.23107  21904727.48100  21904727.27800  21904726.67900
       152.00000        62.00000
  -3952591.22706  -3079949.53305  23856628.43100  23856627.42400  23856629.42200
        16.00000         9.00000
  -7597678.39305  -5920278.60205  23931577.47700  23931577.47000  23931578.56300
         8.00000         7.00000
  -7981133.35706  -6219066.38506  23520691.38600  23520690.93900  23520692.67800
        12.00000        21.00000
 -17029972.38808 -13270107.04308  21048909.81100  21048909.90500  21048910.01300
       221.00000       150.00000
  -4352337.75306  -3391428.35906  23873282.31100  23873282.85700  23873284.69100
        16.00000        15.00000
  -4159040.77207  -3240816.53306  23463404.91300  23463403.92100  23463406.44600
        34.00000        23.00000
 -21950985.99709 -17104664.34808  20093301.24400  20093301.58100  20093301.46000
       337.00000       229.00000
  -2618956.82206  -2040745.89305  24580333.28000  24580333.22300  24580330.84700
        25.00000         9.00000
  -5349039.56306  -4168080.31106  24469190.55600  24469189.99600  24469192.31300
        15.00000        12.00000
 -26474256.86508 -20629291.97108  20463018.53100  20463018.11100  20463016.82100
       274.00000       204.00000
   -368751.96804   -287339.00905  24834892.06900  24834892.13600  24834892.99400
         3.00000         6.00000
 04  8 26  0  8  0.0000000  0 12G18G17G 6G15G29G 9G10G26G22G 8G21G 3
 -14634786.61608 -11403728.74907  21891407.17200  21891407.53800  21891406.83500
       162.00000        63.00000
  -3841561.79105  -2993433.21906  23877756.54600  23877755.43300  23877759.23400
        10.00000        14.00000
  -7502229.97505  -5845903.21205  23949739.55600  23949739.31900  23949741.51200
         7.00000         8.00000
  -8087349.18406  -6301831.94806  23500480.33200  23500478.88900  23500479.76300
        11.00000        18.00000
 -16974786.12408 -13227104.76308  21059411.29000  21059411.57500  21059411.62000
       219.00000       149.00000
  -4470062.81006  -3483162.12006  23850879.70000  23850880.28800  23850882.51300
        19.00000        13.00000
  -4070145.05507  -3171547.20006  23480321.62500  23480320.89900  23480322.25200
        35.00000        22.00000
 -21912205.56209 -17074445.84008  20100681.05900  20100681.22200  20100681.26200
       338.00000       233.00000
  -2709597.09306  -2111374.62705  24563085.14800  24563084.54300  24563082.47200
        17.00000         8.00000
  -5280806.19706  -4114911.46906  24482175.07400  24482175.00100  24482175.59800
        19.00000        11.00000
 -26508602.12608 -20656054.50608  20456483.03200  20456482.57500  20456481.08800
       280.00000       205.00000
   -417006.96605   -324940.30405  24825711.17600  24825710.34500  24825712.53400
         7.00000         7.00000
 04  8 26  0  8 30.0000000  0 12G18G17G 6G15G29G 9G10G26G22G 8G21G 3
 -14704601.32508 -11458129.80807  21878122.77100  21878122.50900  21878121.75200
       173.00000        63.00000
  -3730359.79905  -2906782.45506  23898916.02100  23898916.11800  23898919.04700
        10.00000        12.00000
  -7406689.64905  -5771456.26905  23967919.76500  23967919.87100  23967922.04800
         6.00000         8.00000
  -8193413.14405  -6384479.14606  23480296.11600  23480295.29800  23480296.94700
        10.00000        21.00000
 -16919241.32908 -13183823.11708  21069981.73300  21069981.66400  21069981.42100
       222.00000       146.00000
  -4587714.00206  -3574838.32706  23828492.15900  23828492.60900  23828494.56300
        28.00000        15.00000
  -3981161.38806  -3102209.33106  23497254.28200  23497253.34200  23497255.94800
        30.00000        24.00000
 -21872891.60109 -17043811.59608  20108162.70900  20108162.60900  20108162.43200
       340.00000       229.00000
  -2800201.78206  -2181975.66205  24545841.72400  24545842.11900  24545842.45600
        12.00000         9.00000
  -5212128.46106  -4061396.37706  24495243.65700  24495243.85800  24495245.06400
        16.00000        12.00000
 -26542434.91908 -20682417.72008  20450044.50200  20450044.18600  20450042.84700
       270.00000       202.00000
   -464792.14205   -362175.48205  24816618.54700  24816617.26200  24816617.16700
         4.00000         6.00000
 04  8 26  0  9  0.0000000  0 12G18G17G 6G15G29G 9G10G26G22G 8G21G 3
 -14774215.31208 -11512374.45007  21864875.55300  21864875.35100  21864874.84300
       186.00000        65.00000
  -3618969.26306  -2819984.79206  23920113.98400  23920113.37400  23920116.10000
        14.00000        14.00000
  -7311042.56705  -5696926.14305  23986123.54000  23986122.38600  23986123.80400
         8.00000         8.00000
  -8299305.15806  -6466992.36606  23460146.28600  23460145.69700  23460146.37600
        15.00000        18.00000
 -16863322.35008 -13140249.89308  21080623.32500  21080622.96500  21080622.50300
       227.00000       144.00000
  -4705270.37006  -3666440.66706  23806123.90400  23806123.30700  23806125.40500
        30.00000        17.00000
  -3892072.69107  -3032789.63206  23514207.75700  23514206.74100  23514209.48400
        35.00000        22.00000
 -21833028.22809 -17012749.23508  20115748.16600  20115748.32800  20115748.04000
       337.00000       223.00000
  -2890752.83506  -2252534.88605  24528609.72100  24528609.67300  24528610.62900
        13.00000        10.00000
  -5142991.38606  -4007523.36406  24508400.42600  24508400.56200  24508401.83700
        18.00000        14.00000
 -26575736.13708 -20708366.72008  20443707.85100  20443707.34200  20443705.75700
       268.00000       202.00000
   -512088.55204   -399029.77305  24807616.20500  24807614.43000  24807618.34500
         2.00000         7.00000
 04  8 26  0  9 30.0000000  0 12G18G17G 6G15G29G 9G10G26G22G 8G21G 3
 -14843595.42908 -11566436.86007  21851673.03900  21851672.89000  21851671.57100
       198.00000        63.00000
  -3507359.80606  -2733016.47306  23941352.03400  23941352.08200  23941355.48500
        13.00000        13.00000
  -7215259.25405  -5622289.85805  24004347.89700  24004348.39400  24004350.47700
         8.00000         6.00000
  -8404990.01406  -6549344.17506  23440033.87800  23440033.60900  23440035.81400
        16.00000        22.00000
 -16806998.54708 -13096361.21708  21091340.88500  21091340.96700  21091340.50500
       233.00000       144.00000
  -4822696.36506  -3757941.37506  23783776.47700  23783776.72900  23783779.53900
        16.00000        19.00000
  -3802847.15607  -2963263.29406  23531186.62600  23531186.01200  23531188.30400
        34.00000        24.00000
 -21792584.96909 -16981235.00808  20123444.21700  20123444.29600  20123443.93900
       324.00000       218.00000
  -2981216.97506  -2323026.40105  24511395.36700  24511395.71500  24511395.59200
        19.00000        10.00000
  -5073363.94906  -3953268.26206  24521650.50900  24521650.06400  24521651.17800
        16.00000        12.00000
 -26608471.06808 -20733874.46008  20437478.48600  20437478.15800  20437476.46000
       274.00000       202.00000
   -558861.90304   -435476.51605  24798715.76200  24798715.78100  24798717.78300
         3.00000         7.00000
 04  8 26  0 10  0.0000000  0 12G18G17G 6G15G29G 9G10G26G22G 8G21G 3
 -14912815.08908 -11620374.23207  21838501.25300  21838500.91100  21838499.71400
       193.00000        62.00000
  -3395607.16006  -2645936.63106  23962619.04700  23962618.17100  23962621.31200
        13.00000        12.00000
  -7119416.52905  -5547607.25505  24022585.47700  24022586.58500  24022589.27000
         8.00000         7.00000
  -8510539.33906  -6631590.37506  23419948.11700  23419948.56600  23419950.08400
        24.00000        17.00000
 -16750345.95908 -13052216.34808  21102121.15400  21102121.39100  21102121.17500
       227.00000       145.00000
  -4940062.71106  -3849395.55906  23761443.48000  23761442.97300  23761445.48200
        20.00000        16.00000
  -3713559.58707  -2893688.63206  23548178.00000  23548176.77100  23548179.17100
        34.00000        25.00000
 -21751637.91009 -16949328.21508  20131236.28600  20131236.31000  20131236.05600
       322.00000       218.00000
  -3071667.73106  -2393507.50305  24494184.55700  24494184.63500  24494182.55800
        19.00000         9.00000
  -5003322.78706  -3898690.74705  24534977.18400  24534978.08000  24534979.09100
        16.00000        10.00000
 -26640712.31208 -20758997.51108  20431343.09800  20431342.66400  20431341.17800
       263.00000       203.00000
   -605184.93905   -471572.32205  24789901.37000  24789900.74200  24789902.67100
         5.00000         7.00000
 04  8 26  0 10 30.0000000  0 12G18G17G 6G15G29G 9G10G26G22G 8G21G 3
 -14981826.20208 -11674149.10407  21825368.56700  21825368.32400  21825367.26800
       180.00000        65.00000
  -3283666.42206  -2558710.20406  23983920.57300  23983919.68000  23983922.30000
        12.00000        12.00000
  -7023470.42905  -5472844.10005  24040844.85900  24040844.76900  24040846.71100
        10.00000         6.00000
  -8615903.64806  -6713692.40606  23399898.00800  23399897.63000  23399898.87000
        22.00000        15.00000
 -16693319.77808 -13007780.37108  21112973.30100  21112973.18600  21112972.94700
       223.00000       145.00000
  -5057318.99907  -3940764.11005  23739130.02400  23739130.28300  23739130.12900
        34.00000        10.00000
  -3624163.40807  -2824029.35306  23565189.59000  23565188.94900  23565191.23500
        37.00000        25.00000
 -21710142.28609 -16916993.97808  20139132.50400  20139132.59100  20139132.41200
       330.00000       219.00000
  -3162057.45706  -2463941.03505  24476983.76000  24476983.56500  24476980.91700
        16.00000         6.00000
  -4932823.13406  -3843755.97706  24548395.04400  24548393.88600  24548395.56900
        15.00000        11.00000
 -26672411.23908 -20783697.97608  20425310.73900  20425310.33500  20425309.17700
       257.00000       209.00000
   -651009.04904   -507279.39305  24781182.00200  24781181.15900  24781182.05000
         3.00000         9.00000
 04  8 26  0 11  0.0000000  0 12G18G17G 6G15G29G 9G10G26G22G 8G21G 3
 -15050614.29408 -11727750.19207  21812278.59100  21812278.40000  21812277.30800
       179.00000        66.00000
  -3171525.92406  -2471328.12206  24005261.04900  24005260.52300  24005262.80200
        11.00000        11.00000
  -6927410.07505  -5397991.93205  24059124.99800  24059124.91000  24059126.66100
         7.00000         7.00000
  -8721066.61106  -6795637.53506  23379887.03200  23379886.29300  23379888.36100
        26.00000        18.00000
 -16635908.08708 -12963043.99508  21123898.09500  21123898.10100  21123897.96900
       214.00000       144.00000
  -5174448.66506  -4032033.99506  23716841.36600  23716841.21700  23716842.06300
        24.00000        16.00000
  -3534645.66707  -2754275.31506  23582223.54400  23582222.77100  23582225.35000
        32.00000        21.00000
 -21668086.35809 -16884223.13008  20147135.68000  20147135.71400  20147135.45300
       333.00000       217.00000
  -3252372.04306  -2534316.01205  24459798.71100  24459798.36600  24459794.51500
        13.00000         7.00000
  -4861854.10406  -3788455.45006  24561899.31000  24561899.25000  24561900.84500
        18.00000        11.00000
 -26703552.26508 -20807963.71508  20419385.11700  20419384.70800  20419383.16000
       265.00000       211.00000
   -696319.18104   -542585.95105  24772558.07700  24772558.27300  24772561.02900
         2.00000        10.00000
 04  8 26  0 11 30.0000000  0 12G18G17G 6G15G29G 9G10G26G22G 8G21G 3
 -15119211.56408 -11781202.59207  21799224.86100  21799224.60700  21799223.57700
       178.00000        66.00000
  -3059220.50705  -2383817.50906  24026630.52900  24026630.09400  24026633.99700
         9.00000        11.00000
  -6831271.26905  -5323078.63605  24077419.43300  24077418.37100  24077420.66800
         5.00000         4.00000
  -8826058.81306  -6877449.62106  23359907.56600  23359906.80500  23359907.88800
        30.00000        13.00000
 -16578145.98708 -12918034.57408  21134889.83100  21134889.80900  21134889.72200
       212.00000       143.00000
  -5291481.24406  -4123228.11906  23694570.45500  23694570.43000  23694572.06200
        20.00000        23.00000
  -3445039.92807  -2684452.72106  23599274.67700  23599274.84200  23599277.32200
        36.00000        23.00000
 -21625505.29509 -16851043.09208  20155238.27600  20155238.62900  20155238.35400
       332.00000       213.00000
  -3342643.59006  -2604657.44005  24442618.74500  24442619.07900  24442617.68100
        14.00000         8.00000
  -4790450.33506  -3732816.17106  24575487.46600  24575486.98700  24575488.41300
        18.00000        11.00000
 -26734166.61508 -20831819.05308  20413559.22000  20413558.89000  20413557.68600
       264.00000       218.00000
   -741146.76400   -577516.48005  24764026.14300  24764028.73300  24764029.69000
          .00000         7.00000
 04  8 26  0 12  0.0000000  0 12G18G17G 6G15G29G 9G10G26G22G 8G21G 3
 -15187604.96008 -11834496.12207  21786209.67900  21786209.58600  21786209.12200
       178.00000        71.00000
  -2946740.10905  -2296170.55806  24048033.69200  24048033.88700  24048038.73400
         9.00000        12.00000
  -6735044.90204  -5248097.09405  24095730.17500  24095730.52700  24095732.44700
         3.00000         6.00000
  -8930865.69806  -6959117.33906  23339963.18700  23339962.25200  23339964.22100
        30.00000        14.00000
 -16520023.24908 -12872744.13908  21145950.25000  21145950.39600  21145950.09500
       216.00000       142.00000
  -5408401.22307  -4214334.54006  23672321.80800  23672322.02200  23672323.15700
        36.00000        24.00000
  -3355334.88607  -2614552.78906  23616345.35400  23616345.14000  23616347.82100
        35.00000        23.00000
 -21582388.98609 -16817445.97408  20163443.03900  20163443.15500  20163443.06800
       322.00000       212.00000
  -3432859.51906  -2674955.55005  24425452.58300  24425452.28100  24425449.57400
        14.00000         8.00000
  -4718602.27706  -3676830.69006  24589159.45700  24589159.41900  24589161.27300
        19.00000        11.00000
 -26764240.79208 -20855253.48008  20407836.28700  20407835.91800  20407834.70300
       262.00000       219.00000
   -785478.50904   -612060.71305  24755592.60000  24755592.02400  24755593.97400
         2.00000         5.00000
 04  8 26  0 12 30.0000000  0 12G18G17G 6G15G29G 9G10G26G22G 8G21G 3
 -15255828.14208 -11887657.02707  21773227.44600  21773227.13700  21773226.66000
       185.00000        73.00000
  -2834121.17005  -2208415.65505  24069466.98900  24069465.96800  24069469.61100
        10.00000        10.00000
  -6638768.47904  -5173076.55105  24114050.56800  24114050.55800  24114053.46100
         3.00000         5.00000
  -9035519.23206  -7040665.51206  23320048.40600  23320048.15000  23320049.65000
        30.00000        15.00000
 -16461576.55708 -12827201.27108  21157072.23600  21157072.38400  21157072.12200
       214.00000       137.00000
  -5525240.19106  -4305377.87106  23650087.12700  23650087.23800  23650089.48200
        25.00000        16.00000
  -3265565.65407  -2544602.79506  23633427.72700  23633427.20700  23633430.27700
        33.00000        22.00000
 -21538774.16309 -16783460.39708  20171742.97800  20171742.94400  20171742.75500
       327.00000       214.00000
  -3523053.87506  -2745236.84206  24408287.53900  24408287.99900  24408287.38200
        16.00000        11.00000
  -4646346.88006  -3620527.78306  24602908.84800  24602909.11900  24602910.28500
        18.00000        11.00000
 -26793807.56708 -20878292.53208  20402209.92300  20402209.66900  20402208.40200
       270.00000       222.00000
   -829347.41005   -646244.30705  24747244.64500  24747245.11500  24747245.84000
         7.00000         5.00000
 04  8 26  0 13  0.0000000  0 12G18G17G 6G15G29G 9G10G26G22G 8G21G 3
 -15323800.68508 -11940622.63007  21760292.39400  21760292.42200  21760291.63600
       189.00000        72.00000
  -2721286.05506  -2120492.28106  24090938.54700  24090938.35500  24090941.08200
        12.00000        12.00000
  -6542365.23604  -5097957.21205  24132397.19900  24132396.52700  24132397.70100
         2.00000         4.00000
  -9139937.03406  -7122030.00706  23300178.19100  23300178.05800  23300179.15800
        31.00000        15.00000
 -16402728.19808 -12781345.41508  21168270.98200  21168270.86500  21168270.50300
       211.00000       135.00000
  -5641915.20806  -4396293.48806  23627883.78100  23627884.16400  23627886.98200
        23.00000        15.00000
  -3175653.22706  -2474541.23306  23650537.57700  23650537.00700  23650539.89200
        31.00000        22.00000
 -21494583.30309 -16749025.96108  20180152.03900  20180152.30200  20180152.11700
       337.00000       216.00000
  -3613146.20306  -2815438.64106  24391143.98900  24391144.13200  24391143.17000
        12.00000        12.00000
  -4573606.66906  -3563847.11705  24616751.22600  24616750.88600  24616752.56300
        15.00000         9.00000
 -26822785.62608 -20900872.84208  20396695.49400  20396695.33100  20396694.03300
       266.00000       221.00000
   -872672.67705   -680004.30005  24739001.17000  24739000.09300  24739002.10400
         7.00000         4.00000
 04  8 26  0 13 30.0000000  0 12G18G17G 6G15G29G 9G10G26G22G 8G21G 3
 -15391570.50308 -11993430.26307  21747396.54400  21747396.33400  21747395.55100
       194.00000        73.00000
  -2608285.64505  -2032440.12106  24112442.09800  24112441.17000  24112444.99200
         9.00000        13.00000
  -6445886.96104  -5022779.38405  24150755.60100  24150755.63400  24150757.80100
         1.00000         4.00000
  -9244165.50106  -7203246.97606  23280345.08800  23280344.19200  23280344.94900
        27.00000        17.00000
 -16343529.15608 -12735216.29208  21179536.13400  21179536.03600  21179535.91100
       211.00000       138.00000
  -5758471.82507  -4487116.81806  23605705.03400  23605704.84000  23605707.68700
        33.00000        23.00000
  -3085647.27306  -2404406.81506  23667664.78200  23667664.96600  23667667.74900
        29.00000        23.00000
 -21449867.64709 -16714182.60308  20188661.35700  20188661.40500  20188661.25100
       334.00000       217.00000
  -3703185.16305  -2885598.80606  24374009.54200  24374009.17000  24374009.44900
         6.00000        11.00000
  -4500433.27306  -3506828.88205  24630676.08700  24630675.35400  24630675.76600
        15.00000         9.00000
 -26851222.26808 -20923031.26608  20391284.23400  20391283.89300  20391282.66600
       259.00000       219.00000
   -915502.00605   -713377.84305  24730851.48400  24730850.56100  24730849.74200
         7.00000         4.00000
 04  8 26  0 14  0.0000000  0 12G18G17G 6G15G29G 9G10G26G22G 8G21G 3
 -15459144.58608 -12046085.37907  21734537.72400  21734537.48900  21734536.58600
       196.00000        72.00000
  -2495129.78005  -1944266.85106  24133974.48500  24133974.62000  24133977.92500
        10.00000        13.00000
  -6349344.38900  -4947551.47004  24169128.39800  24169127.71400  24169128.82100
          .00000         2.00000
  -9348209.96906  -7284320.53306  23260545.76200  23260545.05000  23260546.28400
        27.00000        21.00000
 -16283989.42608 -12688821.70908  21190865.85000  21190865.94600  21190865.98000
       206.00000       137.00000
  -5874914.85306  -4577851.62206  23583547.59800  23583546.93400  23583548.62200
        26.00000        24.00000
  -2995556.18106  -2334206.04506  23684809.41400  23684808.96700  23684811.37200
        30.00000        21.00000
 -21404637.06909 -16678938.00108  20197268.38300  20197268.38600  20197268.38200
       327.00000       215.00000
  -3793177.75705  -2955722.88006  24356884.96600  24356884.18900  24356884.03500
        10.00000        11.00000
  -4426836.68306  -3449480.90505  24644681.38500  24644680.60000  24644682.15800
        14.00000         9.00000
 -26879123.85408 -20944772.76808  20385974.87000  20385974.48000  20385973.02700
       263.00000       218.00000
   -957841.50705   -746369.68605  24722793.01900  24722793.62700  24722793.70600
         5.00000         4.00000
 04  8 26  0 14 30.0000000  0 12G18G17G 6G15G29G 9G10G26G22G 8G21G 3
 -15526486.48308 -12098559.56007  21721722.45400  21721722.42400  21721721.87400
       188.00000        73.00000
  -2381784.61805  -1855946.05005  24155541.76000  24155542.46300  24155546.75900
         9.00000        10.00000
  -6252704.50000  -4872247.72004  24187514.92000  24187514.81600  24187519.48300
          .00000         2.00000
  -9452032.08206  -7365220.85806  23240787.86600  23240787.78600  23240789.11300
        23.00000        20.00000
 -16224074.89008 -12642135.06808  21202267.51900  21202267.31000  21202267.28900
       202.00000       136.00000
  -5991205.18706  -4668467.45206  23561417.27800  23561416.69600  23561418.46400
        26.00000        19.00000
  -2905344.93506  -2263911.63506  23701976.11800  23701975.27000  23701978.53100
        27.00000        23.00000
 -21358857.90309 -16643265.92908  20205979.93600  20205979.92800  20205979.82900
       328.00000       213.00000
  -3883087.50806  -3025782.40705  24339778.04500  24339777.62500  24339774.16700
        16.00000         9.00000
  -4352783.33906  -3391777.01605  24658770.99300  24658771.63500  24658774.06500
        11.00000         9.00000
 -26906452.95808 -20966068.17908  20380774.10800  20380773.83500  20380772.42600
       261.00000       217.00000
   -999654.05805   -778950.92105  24714836.53900  24714837.08200  24714836.97200
         5.00000         4.00000
 04  8 26  0 15  0.0000000  0 11G29G18G17G15G 9G10G26G22G 8G21G 3
 -16163855.57408 -12595210.94308  21213726.63000  21213726.84600  21213726.75200
       208.00000       137.00000
 -15593662.94308 -12150904.84007  21708939.70400  21708939.39100  21708938.62300
       191.00000        71.00000
  -2268319.86205  -1767532.02205  24177134.71600  24177134.55600  24177137.47100
         8.00000         8.00000
  -9555697.12006  -7445998.76206  23221061.95700  23221061.50900  23221062.58600
        28.00000        22.00000
  -6107407.05006  -4759014.37406  23539301.69200  23539302.91500  23539307.10700
        18.00000        19.00000
  -2815081.67106  -2193576.72106  23719151.93100  23719151.54200  23719154.26100
        27.00000        19.00000
 -21312600.07709 -16607220.88208  20214782.31600  20214782.52300  20214782.39800
       335.00000       210.00000
  -3972981.77006  -3095829.86206  24322669.00900  24322670.22800  24322668.10500
        13.00000        11.00000
  -4278343.78506  -3333772.18305  24672939.03600  24672937.54100  24672939.87600
        14.00000         9.00000
 -26933275.95508 -20986969.21508  20375670.03900  20375669.61600  20375668.27000
       263.00000       220.00000
  -1041006.19904   -811173.40205  24706966.97700  24706966.90300  24706968.90700
         1.00000         4.00000
 04  8 26  0 15 30.0000000  0 11G29G18G17G15G 9G10G26G22G 8G21G 3
 -16103225.05208 -12547966.38608  21225264.27800  21225264.44300  21225264.46900
       203.00000       136.00000
 -15660564.65108 -12203036.04207  21696208.68000  21696208.49800  21696207.31800
       193.00000        72.00000
  -2154629.11805  -1678941.89705  24198770.19800  24198769.28400  24198772.94900
         9.00000        10.00000
  -9659094.05006  -7526567.76906  23201385.55300  23201384.75800  23201386.90800
        23.00000        24.00000
  -6223408.93106  -4849405.43506  23517229.50700  23517229.39100  23517232.07800
        27.00000        20.00000
  -2724658.62906  -2123117.30006  23736359.33400  23736359.25000  23736362.26100
        28.00000        21.00000
 -21265757.57609 -16570720.23408  20223696.36300  20223696.45400  20223696.23700
       335.00000       211.00000
  -4062751.48605  -3165780.22906  24305587.17900  24305587.16000  24305585.42200
         9.00000        13.00000
  -4203412.03206  -3275383.80205  24687195.70400  24687196.02800  24687198.77300
        12.00000         9.00000
 -26959482.53808 -21007389.93808  20370683.05500  20370682.79700  20370681.44300
       270.00000       225.00000
  -1081788.20704   -842951.63405  24699207.86900  24699205.73000  24699209.16300
         1.00000         5.00000
 04  8 26  0 16  0.0000000  0 11G29G18G17G15G 9G10G26G22G 8G21G 3
 -16042251.86408 -12500454.81908  21236867.13600  21236867.20500  21236867.31200
       198.00000       135.00000
 -15727257.22608 -12255004.28007  21683517.46700  21683517.19900  21683516.52500
       192.00000        75.00000
  -2040781.20405  -1590229.32805  24220434.71400  24220433.66700  24220437.07000
         8.00000        10.00000
  -9762287.19506  -7606977.97306  23181748.33400  23181748.18400  23181749.78700
        27.00000        24.00000
  -6339274.15207  -4939690.05806  23495182.25200  23495181.62900  23495184.02800
        33.00000        21.00000
  -2634143.33906  -2052586.00806  23753584.44500  23753583.64000  23753586.48800
        29.00000        19.00000
 -21218399.18909 -16533817.59208  20232708.27100  20232708.29900  20232708.18000
       329.00000       212.00000
  -4152462.74706  -3235685.05406  24288515.49300  24288515.80300  24288514.09100
        12.00000        11.00000
  -4128057.07206  -3216665.67505  24701535.74300  24701534.98900  24701538.06300
        12.00000         8.00000
 -26985138.34308 -21027381.48308  20365801.05400  20365800.73300  20365799.40000
       270.00000       228.00000
  -1122065.66200   -874336.69405  24691542.48100  24691539.95700  24691543.95100
          .00000         6.00000
 04  8 26  0 16 30.0000000  0 11G29G18G17G15G 9G10G26G22G 8G21G 3
 -15980943.07408 -12452681.74408  21248533.99800  21248534.01600  21248533.87900
       203.00000       129.00000
 -15793744.55108 -12306812.57807  21670865.02700  21670865.09500  21670864.62500
       198.00000        79.00000
  -1926782.90005  -1501399.55506  24242128.34600  24242127.75600  24242130.19100
         9.00000        11.00000
  -9865278.46406  -7687230.85906  23162149.63400  23162149.11400  23162151.08500
        24.00000        25.00000
  -6455004.22606  -5029869.32106  23473158.24800  23473157.69500  23473161.81400
        20.00000        25.00000
  -2543541.00206  -1981986.85106  23770824.95700  23770824.20400  23770826.74700
        25.00000        18.00000
 -21170531.94609 -16496518.44508  20241816.68000  20241816.93000  20241817.07100
       323.00000       211.00000
  -4242119.52406  -3305547.44306  24271454.79200  24271454.52700  24271452.49400
        12.00000        13.00000
  -4052285.82206  -3157623.15005  24715954.72100  24715954.46900  24715956.93800
        12.00000         8.00000
 -27010246.74108 -21046946.47808  20361023.26600  20361022.88900  20361021.36800
       271.00000       230.00000
  -1161842.37200   -905331.55105  24683972.25000  24683971.63000  24683975.32400
          .00000         8.00000
 04  8 26  0 17  0.0000000  0 11G29G18G17G15G 9G10G26G22G 8G21G 3
 -15919372.60108 -12404704.76308  21260250.48200  21260250.37800  21260250.03800
       200.00000       123.00000
 -15860098.04608 -12358516.59207  21658238.30400  21658238.43600  21658237.52400
       204.00000        77.00000
  -1812708.16205  -1412510.20406  24263833.79800  24263834.03100  24263838.64500
         7.00000        13.00000
  -9968137.28706  -7767380.54406  23142575.95200  23142575.60800  23142577.76200
        23.00000        27.00000
  -6570667.98606  -5119996.91006  23451148.49400  23451148.88200  23451150.78400
        27.00000        20.00000
  -2452924.35606  -1911376.56806  23788068.61100  23788068.48500  23788070.96600
        28.00000        18.00000
 -21122230.07309 -16458880.62708  20251008.67900  20251008.77800  20251008.56900
       327.00000       207.00000
  -4331793.39206  -3375423.14006  24254388.71100  24254388.81700  24254388.16300
        12.00000        12.00000
  -3976172.87805  -3098314.38705  24730438.90000  24730438.34300  24730440.23000
         9.00000         6.00000
 -27034877.44008 -21066139.23708  20356336.19400  20356335.70400  20356334.42800
       268.00000       234.00000
  -1201189.06804   -935991.26105  24676486.37000  24676486.71200  24676487.05100
         2.00000         7.00000
 04  8 26  0 17 30.0000000  0 11G29G18G17G15G 9G10G26G22G 8G21G 3
 -15857404.23908 -12356417.73508  21272042.79500  21272042.60200  21272042.26200
       197.00000       124.00000
 -15926178.52408 -12410007.87507  21645663.90900  21645663.69300  21645662.84300
       202.00000        78.00000
  -1698420.58505  -1323455.03106  24285583.72000  24285582.61200  24285587.53700
         6.00000        14.00000
 -10070722.71406  -7847317.22106  23123055.26200  23123055.02200  23123056.82400
        25.00000        28.00000
  -6686123.78506  -5209962.51706  23429177.98100  23429178.38900  23429179.59400
        31.00000        16.00000
  -2362155.68606  -1840647.82606  23805342.51100  23805341.50900  23805343.51200
        26.00000        19.00000
 -21073357.57809 -16420798.15908  20260309.26400  20260309.10100  20260308.63700
       329.00000       203.00000
  -4421345.70406  -3445204.13006  24237348.35300  24237348.46200  24237347.34000
        14.00000        13.00000
  -3899582.71505  -3038633.75105  24745012.27500  24745012.42600  24745015.47700
         8.00000         6.00000
 -27058891.04208 -21084851.14808  20351766.39200  20351765.93200  20351764.75900
       258.00000       235.00000
  -1239965.96605   -966207.03205  24669104.74900  24669105.94200  24669106.73700
         6.00000         7.00000
 04  8 26  0 18  0.0000000  0 11G29G18G17G15G 9G10G26G22G 8G21G 3
 -15795087.46608 -12307859.22008  21283901.30300  21283901.12600  21283900.98800
       197.00000       126.00000
 -15992032.32008 -12461322.51407  21633132.20000  21633132.05200  21633131.28100
       206.00000        82.00000
  -1583969.87005  -1234272.72506  24307364.52800  24307363.43000  24307366.28800
         6.00000        11.00000
 -10173079.70906  -7927075.87306  23103577.23900  23103576.80500  23103578.72100
        25.00000        28.00000
  -6801415.78506  -5299800.45206  23407237.94000  23407238.28800  23407241.06900
        29.00000        20.00000
  -2271283.18706  -1769838.15406  23822633.72300  23822633.47800  23822636.07200
        26.00000        16.00000
 -21023964.27509 -16382309.87008  20269708.31400  20269708.25300  20269707.88600
       332.00000       201.00000
  -4510822.84506  -3514926.57006  24220320.34700  24220321.08100  24220321.93100
        11.00000        16.00000
  -3822564.99605  -2978619.95505  24759668.36300  24759669.42900  24759671.28500
         9.00000         6.00000
 -27082333.69708 -21103118.16208  20347305.28300  20347304.87600  20347303.69200
       259.00000       234.00000
  -1278219.53506   -996015.01605  24661828.43200  24661827.31700  24661827.97000
        11.00000         7.00000
 04  8 26  0 18 30.0000000  0 11G29G18G17G15G 9G10G26G22G 8G21G 3
 -15732455.93108 -12259055.43208  21295819.34600  21295819.35100  21295819.41200
       190.00000       124.00000
 -16057690.34408 -12512484.59907  21620637.86300  21620637.79000  21620636.91500
       205.00000        82.00000
  -1469389.56405  -1144989.43206  24329166.86800  24329166.78400  24329170.05300
         7.00000        11.00000
 -10275237.44606  -8006679.28306  23084137.67500  23084136.83100  23084138.22500
        27.00000        22.00000
  -6916572.14907  -5389532.69506  23385324.60400  23385325.33700  23385327.99900
        34.00000        26.00000
  -2180339.35006  -1698972.91206  23839940.63200  23839939.85400  23839942.54900
        27.00000        18.00000
 -20974083.96609 -16343442.10608  20279199.81200  20279199.86400  20279199.89200
       323.00000       203.00000
  -4600256.01406  -3584614.72906  24203302.15600  24203302.45900  24203302.81600
        16.00000        19.00000
  -3745154.12305  -2918299.81905  24774400.58100  24774399.99800  24774401.44400
         7.00000         5.00000
 -27105235.65408 -21120963.85508  20342947.38500  20342946.94000  20342945.60500
       259.00000       234.00000
  -1315980.32106  -1025439.03905  24654642.16500  24654641.83200  24654641.54100
        15.00000         7.00000
 04  8 26  0 19  0.0000000  0 11G29G18G17G15G 9G10G26G22G 8G21G 3
 -15669497.06008 -12209996.57708  21307800.38600  21307800.06700  21307800.05100
       185.00000       123.00000
 -16123136.77608 -12563481.80807  21608184.43700  21608184.10500  21608182.91800
       208.00000        83.00000
  -1354667.06605  -1055595.33206  24350998.92100  24350997.81200  24351000.85200
         5.00000        11.00000
 -10377178.52406  -8086113.87106  23064738.97300  23064737.98200  23064739.77200
        27.00000        25.00000
  -7031575.00807  -5479145.30306  23363441.18700  23363441.21300  23363443.63800
        33.00000        23.00000
  -2089309.75906  -1628040.84806  23857263.02300  23857262.28300  23857265.21100
        24.00000        18.00000
 -20923704.17409 -16304185.13108  20288786.72800  20288786.94400  20288787.05100
       317.00000       208.00000
  -4689629.88306  -3654256.63806  24186294.79200  24186294.44100  24186294.51300
        16.00000        17.00000
  -3667337.42705  -2857663.45405  24789206.59900  24789207.04600  24789209.19600
         8.00000         6.00000
 -27127580.87708 -21138375.72908  20338695.25700  20338694.69300  20338693.49300
       255.00000       235.00000
  -1353232.42106  -1054466.67605  24647554.01600  24647553.19900  24647555.19600
        18.00000        10.00000
 04  8 26  0 19 30.0000000  0 11G29G18G17G15G 9G10G26G22G 8G21G 3
 -15606157.16708 -12160640.82308  21319853.21400  21319853.31100  21319853.17000
       190.00000       123.00000
 -16188315.34508 -12614270.29307  21595781.08600  21595780.93400  21595779.83200
       208.00000        84.00000
  -1239748.54805   -966048.51006  24372866.04500  24372865.96100  24372869.51500
         5.00000        12.00000
 -10478844.76906  -8165334.29606  23045391.39500  23045391.34700  23045392.83000
        28.00000        23.00000
  -7146365.37906  -5568592.36906  23341598.45400  23341597.85700  23341599.21200
        31.00000        20.00000
  -1998139.52006  -1556999.16406  23874612.80800  23874611.81100  23874614.04300
        25.00000        18.00000
 -20872771.67809 -16264497.46708  20298479.18800  20298479.15800  20298479.13800
       320.00000       206.00000
  -4778888.14006  -3723808.52006  24169310.08400  24169310.41100  24169309.28600
        21.00000        18.00000
  -3589062.09305  -2796669.70605  24804104.72500  24804103.32100  24804105.21200
         7.00000         5.00000
 -27149312.19608 -21155309.23308  20334559.90900  20334559.42300  20334558.10600
       259.00000       234.00000
  -1389918.99606  -1083053.64105  24640571.21400  24640571.37300  24640574.35100
        13.00000         8.00000
 04  8 26  0 20  0.0000000  0 11G29G18G17G15G 9G10G26G22G 8G21G 3
 -15542539.63608 -12111068.72908  21331959.21700  21331959.36200  21331959.23400
       190.00000       122.00000
 -16253326.61008 -12664928.40207  21583409.81600  21583409.58900  21583408.81100
       205.00000        85.00000
  -1124737.80705   -876429.80905  24394751.49300  24394750.59000  24394754.56300
         8.00000        10.00000
 -10580334.97207  -8244417.54906  23026079.23200  23026079.17300  23026079.76100
        32.00000        23.00000
  -7261041.64207  -5657950.48506  23319774.85900  23319774.86800  23319777.29600
        32.00000        25.00000
  -1906930.86906  -1485927.57806  23891967.68200  23891967.33200  23891970.74000
        22.00000        19.00000
 -20821390.20609 -16224459.95608  20308255.96500  20308256.52100  20308256.58600
       325.00000       199.00000
  -4868131.76806  -3793348.96306  24152326.65900  24152327.29000  24152327.68900
        21.00000        22.00000
  -3510431.82305  -2735399.38105  24819065.73900  24819065.64600  24819067.91700
         7.00000         5.00000
 -27170529.50908 -21171842.21908  20330522.20700  20330521.95800  20330520.61100
       263.00000       233.00000
  -1426140.54105  -1111278.26205  24633678.98000  24633678.52000  24633680.51300
         9.00000         7.00000
