     2.10           OBSERVATION DATA    G (GPS)             RINEX VERSION / TYPE
teqc  2002Mar14     gpsodc(auto)        20040827 01:10:39UTCPGM / RUN BY / DATE
OBSERVATION MODE: IGS-Net                                   COMMENT
ULAB Ulaanbataar (ULAB)                                     MARKER NAME
24201M001                                                   MARKER NUMBER
287-U               AOA SNR-8000 ACT     3.30               REC # / TYPE / VERS
340-U               AOAD/M_T        NONE                    ANT # / TYPE
        0.0460        0.0000        0.0000                  ANTENNA: DELTA H/E/N
  -1257408.5301  4099404.3441  4707992.6265                 APPROX POSITION XYZ
  107.05232518  47.86506793  1575.5257  LonLatAlt  S/W      COMMENT
unknown             IVTAN                                   OBSERVER / AGENCY
     1     1                                                WAVELENGTH FACT L1/2
     7    L1    L2    C1    P1    P2    S1    S2            # / TYPES OF OBSERV
    30.0000                                                 INTERVAL
Linux 2.0.36|Pentium II|gcc -static|Linux|486/DX+           COMMENT
bx2rxo      unknown * Fri Aug 27 02:18:27 2004              COMMENT
  2004     8    27     0     0    0.0000000     GPS         TIME OF FIRST OBS
  2004     8    27    23    59   30.0000000     GPS         TIME OF LAST OBS
                                                            END OF HEADER
 04  8 27  0  0  0.0000000  0 12G18G15G 6G17G 9G29G10G26G22G 8G21G 3
 -14033650.95708 -10935308.60707  21997475.33900  21997475.51000  21997475.20700
       142.00000        60.00000
  -7306361.91006  -5693269.89206  23658587.21000  23658586.55100  23658588.18600
        18.00000        18.00000
  -8345211.48504  -6502770.95605  23806812.34400  23806813.41700  23806815.27200
         3.00000         8.00000
  -4626154.61106  -3604803.97306  23713782.39200  23713782.56900  23713785.23200
        14.00000        14.00000
  -3526014.27605  -2747542.51206  24027810.69100  24027810.33800  24027814.02700
         8.00000        18.00000
 -17359747.41808 -13527072.95508  20977767.33200  20977767.43400  20977766.91700
       237.00000       158.00000
  -4671074.06907  -3639798.03606  23343965.27800  23343965.09700  23343967.24800
        41.00000        29.00000
 -22187468.65009 -17288933.33608  20044976.71500  20044976.73500  20044976.18000
       338.00000       231.00000
  -1798897.73506  -1401738.03905  24698629.90000  24698630.28800  24698629.04100
        14.00000         9.00000
  -5777394.69706  -4501865.72406  24384494.37400  24384493.74000  24384495.49600
        14.00000        12.00000
 -26207578.12708 -20421485.79308  20510684.32600  20510684.07500  20510682.82300
       260.00000       192.00000
  -1824975.24105  -1422058.37604  24899739.94700  24899739.08600  24899739.79900
         5.00000         2.00000
 04  8 27  0  0 30.0000000  0 12G18G15G 6G17G 9G29G10G26G22G 8G21G 3
 -14104993.05408 -10990899.83207  21983900.07600  21983899.73500  21983899.09400
       154.00000        59.00000
  -7413658.06606  -5776877.26106  23638168.80400  23638168.37900  23638170.02200
        17.00000        17.00000
  -8250605.14805  -6429051.83105  23824816.43600  23824816.47700  23824818.36200
         6.00000         9.00000
  -4516484.51306  -3519346.83005  23734651.23800  23734651.00700  23734654.31700
        11.00000        10.00000
  -3644291.76406  -2839706.66906  24005304.86600  24005304.55500  24005306.38200
        20.00000        16.00000
 -17307241.27108 -13486159.08708  20987759.21800  20987759.08400  20987758.49100
       230.00000       157.00000
  -4582955.04507  -3571133.93906  23360735.19900  23360734.20800  23360736.00400
        44.00000        26.00000
 -22152545.99609 -17261720.88408  20051622.16100  20051622.39700  20051621.84700
       342.00000       232.00000
  -1889883.82206  -1472636.29505  24681315.25900  24681315.10000  24681314.85600
        13.00000        10.00000
  -5712342.28206  -4451175.55906  24396870.89700  24396871.39400  24396874.33000
        12.00000        12.00000
 -26245503.80808 -20451038.28008  20503467.55800  20503467.33300  20503465.65400
       265.00000       188.00000
  -1876510.18005  -1462215.45604  24889932.56000  24889933.02200  24889933.71900
         7.00000         3.00000
 04  8 27  0  1  0.0000000  0 12G18G15G 6G17G 9G29G10G26G22G 8G21G 3
 -14176178.89208 -11046369.29207  21970353.91400  21970353.85400  21970352.66400
       169.00000        60.00000
  -7520838.93606  -5860394.80806  23617774.02600  23617773.21400  23617773.71300
        19.00000        15.00000
  -8155906.76105  -6355260.93305  23842836.58200  23842836.59500  23842839.49900
         7.00000         9.00000
  -4406648.36706  -3433760.30706  23755555.46300  23755554.10000  23755555.48900
        15.00000        13.00000
  -3762537.39706  -2931846.04306  23982802.41400  23982802.15600  23982804.26600
        21.00000        15.00000
 -17254382.67308 -13444970.58308  20997817.64400  20997817.62300  20997816.98400
       226.00000       152.00000
  -4494763.13407  -3502413.02406  23377516.80100  23377515.98700  23377518.40100
        41.00000        26.00000
 -22117095.90609 -17234097.43808  20058368.34600  20058368.29200  20058367.89200
       333.00000       237.00000
  -1980858.26906  -1543525.45806  24664002.41300  24664002.55600  24664003.52200
        12.00000        11.00000
  -5646850.37006  -4400142.93906  24409335.38800  24409334.77900  24409337.29700
        13.00000        13.00000
 -26282949.26308 -20480216.56108  20496342.17600  20496341.76300  20496340.03300
       266.00000       189.00000
  -1927605.80305  -1502030.21204  24880208.53600  24880209.46500  24880209.26500
         6.00000         2.00000
 04  8 27  0  1 30.0000000  0 12G18G15G 6G17G 9G29G10G26G22G 8G21G 3
 -14247156.14208 -11101676.20907  21956847.45700  21956847.36100  21956846.20400
       173.00000        61.00000
  -7627850.27506  -5943780.27906  23597409.86200  23597409.63300  23597410.53200
        18.00000        18.00000
  -8061067.32205  -6281360.18705  23860884.33400  23860884.38600  23860887.28900
         7.00000        10.00000
  -4296596.59906  -3348005.78006  23776496.41200  23776495.33900  23776497.98800
        13.00000        13.00000
  -3880696.22606  -3023917.77706  23960316.91800  23960317.03100  23960318.91300
        19.00000        12.00000
 -17201122.11208 -13403468.85708  21007952.81200  21007952.69400  21007952.07700
       224.00000       151.00000
  -4406447.12807  -3433595.41006  23394322.96800  23394322.43200  23394324.04800
        43.00000        23.00000
 -22081068.57809 -17206024.20608  20065223.78300  20065223.91200  20065223.75800
       332.00000       238.00000
  -2071768.65106  -1614364.67206  24646704.17600  24646704.15300  24646702.50000
        11.00000        11.00000
  -5580869.66006  -4348729.43806  24421889.98800  24421890.68300  24421893.52900
        12.00000        13.00000
 -26319860.85608 -20508978.85008  20489317.63300  20489317.48400  20489315.95200
       261.00000       191.00000
  -1978208.98405  -1541461.31304  24870579.04500  24870579.82100  24870579.94800
         4.00000         3.00000
 04  8 27  0  2  0.0000000  0 11G18G15G 6G17G 9G29G10G26G22G 8G21
 -14317924.34408 -11156820.23607  21943380.59300  21943380.48300  21943379.12500
       173.00000        60.00000
  -7734690.51206  -6027032.38406  23577077.66100  23577077.62900  23577079.22300
        14.00000        18.00000
  -7966090.55405  -6207352.40605  23878956.86600  23878957.06500  23878960.06200
         7.00000         8.00000
  -4186331.50906  -3262085.01006  23797477.81600  23797477.72500  23797480.50100
        12.00000        12.00000
  -3998765.58206  -3115919.78306  23937849.02400  23937848.89500  23937851.10500
        20.00000        14.00000
 -17147461.95508 -13361655.75708  21018164.18800  21018164.07200  21018163.33100
       229.00000       151.00000
  -4318008.49607  -3364682.22006  23411151.92400  23411151.15000  23411153.02700
        37.00000        23.00000
 -22044466.59109 -17177503.18508  20072188.90500  20072189.04500  20072188.70900
       336.00000       234.00000
  -2162615.02306  -1685153.99705  24629416.56900  24629416.44700  24629414.54400
        14.00000         9.00000
  -5514402.92005  -4296937.23406  24434536.26100  24434538.07700  24434540.34500
        10.00000        12.00000
 -26356237.83808 -20537324.55608  20482395.82200  20482395.48300  20482393.74000
       274.00000       195.00000
 04  8 27  0  2 30.0000000  0 12G18G15G 6G17G 9G29G10G26G22G 8G21G 3
 -14388469.96508 -11211790.82707  21929955.77700  21929955.87600  21929954.57900
       164.00000        62.00000
  -7841344.15106  -6110139.08406  23556781.13900  23556781.64900  23556783.93800
        11.00000        18.00000
  -7870966.70104  -6133229.99705  23897059.44500  23897059.54900  23897061.47200
         3.00000         7.00000
  -4075842.22106  -3175989.54406  23818504.85300  23818504.46400  23818506.44800
        13.00000        14.00000
  -4116729.80807  -3207839.87606  23915402.42100  23915402.29700  23915403.39300
        32.00000        19.00000
 -17093391.46608 -13319522.91608  21028453.30500  21028453.31900  21028452.97400
       226.00000       154.00000
  -4229435.05407  -3295664.01706  23428006.49900  23428006.27900  23428008.50200
        40.00000        24.00000
 -22007279.21709 -17148526.01408  20079265.32700  20079265.64800  20079265.09400
       338.00000       228.00000
  -2253384.19506  -1755883.18705  24612144.35300  24612144.30700  24612141.91500
        22.00000         9.00000
  -5447439.62206  -4244758.07306  24447282.44200  24447281.17800  24447282.58400
        12.00000        11.00000
 -26392065.53508 -20565242.24908  20475578.33900  20475577.86700  20475575.99300
       280.00000       197.00000
         -.28915         -.40215  24851605.48500  24851606.37800  24851605.48200
         4.00000         5.00000
 04  8 27  0  3  0.0000000  0 12G18G15G 6G17G 9G29G10G26G22G 8G21G 3
 -14458838.15208 -11266623.15507  21916565.29800  21916565.07100  21916564.31800
       153.00000        63.00000
  -7947854.86106  -6193134.42506  23536514.28600  23536514.77300  23536515.85700
        12.00000        20.00000
  -7775744.40405  -6059030.97205  23915180.34600  23915179.59000  23915181.88600
         5.00000         8.00000
  -3965176.79306  -3089756.84206  23839562.49700  23839562.82900  23839565.98900
        16.00000        11.00000
  -4234631.22506  -3299711.03306  23892965.90500  23892965.89600  23892967.85800
        29.00000        21.00000
 -17038958.64908 -13277107.74608  21038811.22500  21038811.32100  21038811.00700
       221.00000       151.00000
  -4140773.43307  -3226577.07706  23444878.05500  23444877.82900  23444880.21300
        35.00000        23.00000
 -21969554.28409 -17119129.96308  20086444.26400  20086444.61400  20086443.85800
       344.00000       227.00000
  -2344121.58406  -1826587.64205  24594878.60100  24594878.27600  24594876.15500
        27.00000         9.00000
  -5380027.77806  -4192229.39306  24460109.32400  24460109.35600  24460111.21000
        12.00000        12.00000
 -26427387.74508 -20592766.05608  20468856.28700  20468856.02200  20468854.49400
       274.00000       201.00000
    -49138.47405    -38289.95005  24842255.24700  24842255.02800  24842255.84900
         6.00000         5.00000
 04  8 27  0  3 30.0000000  0 12G18G15G 6G17G 9G29G10G26G22G 8G21G 3
 -14529024.20608 -11321313.57107  21903208.80900  21903208.85300  21903207.92300
       153.00000        60.00000
  -8054216.18506  -6276013.34106  23516274.30800  23516274.52500  23516276.06600
        13.00000        21.00000
  -7680422.72205  -5984754.41605  23933319.16500  23933319.22900  23933320.92400
         8.00000         7.00000
  -3854332.97906  -3003385.06205  23860656.43500  23860655.72700  23860657.98500
        15.00000        10.00000
  -4352462.93506  -3391527.83406  23870541.50200  23870542.20200  23870544.74200
        16.00000        17.00000
 -16984161.45108 -13234408.64308  21049238.69800  21049238.84800  21049238.52400
       220.00000       149.00000
  -4052020.38507  -3157418.90906  23461767.42100  23461766.97600  23461769.44300
        35.00000        24.00000
 -21931289.84609 -17089313.52508  20093725.65300  20093725.90600  20093725.57700
       336.00000       230.00000
  -2434822.62206  -1897263.76405  24577617.64600  24577618.12300  24577616.09800
        24.00000         8.00000
  -5312165.86206  -4139350.03106  24473023.41900  24473023.42800  24473024.86400
        16.00000        11.00000
 -26462198.80008 -20619891.55708  20462232.19400  20462231.75800  20462230.20700
       277.00000       205.00000
    -97807.83004    -76214.14005  24832992.22500  24832992.38100  24832995.31900
         3.00000         6.00000
 04  8 27  0  4  0.0000000  0 12G18G15G 6G17G 9G29G10G26G22G 8G21G 3
 -14599028.05908 -11375862.01007  21889887.76300  21889887.82000  21889886.92500
       164.00000        63.00000
  -8160426.70406  -6358774.76706  23496064.55300  23496063.36400  23496064.11700
        12.00000        19.00000
  -7585005.67805  -5910403.52605  23951475.44100  23951475.36300  23951479.25300
         6.00000         8.00000
  -3743313.76705  -2916876.67206  23881782.82500  23881781.91000  23881785.41200
        10.00000        13.00000
  -4470222.70506  -3483288.62506  23848131.70200  23848132.78100  23848135.08100
        19.00000        13.00000
 -16929002.91108 -13191427.97408  21059735.03200  21059735.25200  21059734.89900
       221.00000       149.00000
  -3963177.31907  -3088190.60406  23478674.80500  23478674.15700  23478675.32900
        37.00000        23.00000
 -21892488.82109 -17059078.96808  20101109.47100  20101109.54900  20101109.27900
       338.00000       233.00000
  -2525487.56106  -1967911.72405  24560364.43000  24560364.59000  24560363.11300
        16.00000         9.00000
  -5243856.73606  -4086122.15506  24486022.44800  24486022.30200  24486022.90400
        16.00000        12.00000
 -26496498.10408 -20646618.29708  20455705.21600  20455704.91700  20455703.17400
       282.00000       204.00000
   -146007.52405   -113772.36705  24823822.06300  24823821.28500  24823822.28300
         6.00000         7.00000
 04  8 27  0  4 30.0000000  0 12G18G15G 6G17G 9G29G10G26G22G 8G21G 3
 -14668779.00208 -11430213.38407  21876614.73500  21876614.83100  21876613.70500
       171.00000        63.00000
  -8266413.88406  -6441362.13606  23475895.39400  23475894.26800  23475895.76000
        11.00000        20.00000
  -7489426.22005  -5835926.12105  23969663.29000  23969663.55200  23969666.28800
         6.00000         8.00000
  -3632051.39606  -2830178.80906  23902954.31100  23902954.11200  23902956.69200
        11.00000        13.00000
  -4587837.51506  -3574936.47906  23825751.88400  23825752.34200  23825755.16100
        31.00000        16.00000
 -16873414.96108 -13148112.70708  21070313.54000  21070313.47100  21070312.94800
       222.00000       147.00000
  -3874175.29507  -3018838.42206  23495610.97400  23495610.13000  23495612.28000
        32.00000        25.00000
 -21853083.38809 -17028373.44108  20108608.33200  20108608.27900  20108607.84700
       342.00000       229.00000
  -2616045.94606  -2038476.66305  24543130.39400  24543131.00000  24543130.88200
        12.00000         9.00000
  -5175032.88606  -4032493.23506  24499119.94000  24499119.22100  24499120.65500
        16.00000        13.00000
 -26530213.71108 -20672890.20708  20449289.13200  20449288.90800  20449287.29500
       273.00000       204.00000
   -193665.97105   -150908.86505  24814754.02200  24814752.63500  24814752.45300
         5.00000         6.00000
 04  8 27  0  5  0.0000000  0 12G18G15G 6G17G 9G29G10G26G22G 8G21G 3
 -14738358.44908 -11484431.11707  21863374.60300  21863374.40900  21863373.56500
       186.00000        65.00000
  -8372257.41206  -6523837.60106  23455754.72600  23455753.93400  23455754.71900
        16.00000        21.00000
  -7393769.39205  -5761388.45605  23987868.44000  23987868.05100  23987869.80200
         6.00000         8.00000
  -3520629.89606  -2743356.93906  23924157.06700  23924157.19800  23924160.13000
        13.00000        13.00000
  -4705385.99706  -3666532.64806  23803384.51500  23803384.03900  23803386.59500
        28.00000        17.00000
 -16817481.86608 -13104528.49208  21080957.84200  21080957.52500  21080956.67400
       230.00000       144.00000
  -3785097.05407  -2949426.86606  23512562.00500  23512561.23300  23512563.47000
        35.00000        23.00000
 -21813157.89109 -16997262.67108  20116205.51100  20116205.75900  20116205.19000
       335.00000       221.00000
  -2706579.56506  -2109022.30405  24525901.99100  24525902.67500  24525902.71900
        14.00000        10.00000
  -5105778.76806  -3978529.02606  24512298.38900  24512298.21500  24512299.73800
        17.00000        14.00000
 -26563426.16508 -20698770.05108  20442969.30800  20442968.96400  20442967.11700
       271.00000       202.00000
   -240864.22904   -187686.74605  24805771.04300  24805770.63400  24805772.03600
         2.00000         7.00000
 04  8 27  0  5 30.0000000  0 12G18G15G 6G17G 9G29G10G26G22G 8G21G 3
 -14807766.07208 -11538514.97107  21850166.65400  21850166.61800  21850165.29100
       193.00000        61.00000
  -8477955.15506  -6606199.43806  23435640.21300  23435639.83400  23435641.16800
        18.00000        22.00000
  -7298038.51705  -5686793.07305  24006083.55800  24006084.19100  24006086.35100
         8.00000         6.00000
  -3409051.52906  -2656412.78306  23945390.57100  23945389.99000  23945393.55500
        11.00000        14.00000
  -4822865.44906  -3758074.97506  23781027.30100  23781027.55400  23781030.45600
        16.00000        19.00000
 -16761206.02608 -13060677.19508  21091666.26400  21091666.36900  21091665.64800
       234.00000       145.00000
  -3695943.54607  -2879956.63506  23529527.75100  23529526.98000  23529528.55300
        35.00000        24.00000
 -21772714.57109 -16965748.39608  20123901.80700  20123901.83500  20123901.26500
       326.00000       218.00000
  -2797088.12806  -2179548.43306  24508678.81400  24508679.85900  24508679.91500
        20.00000        11.00000
  -5036097.06906  -3924231.64706  24525558.89700  24525558.74400  24525559.60700
        15.00000        11.00000
 -26596134.27708 -20724256.90508  20436745.23400  20436744.86400  20436743.05200
       273.00000       204.00000
   -287600.86705   -224104.94505  24796878.67700  24796877.70600  24796878.01600
         4.00000         7.00000
 04  8 27  0  6  0.0000000  0 12G18G15G 6G17G 9G29G10G26G22G 8G21G 3
 -14876934.30008 -11592412.29607  21837004.74600  21837004.42800  21837003.00100
       187.00000        62.00000
  -8583438.38006  -6688394.16506  23415566.63700  23415567.01800  23415568.00100
        22.00000        17.00000
  -7202170.04605  -5612090.46205  24024326.57700  24024327.01800  24024329.88800
         9.00000         7.00000
  -3297251.77406  -2569296.19006  23966665.41500  23966664.82500  23966668.20700
        12.00000        13.00000
  -4940206.37806  -3849509.34006  23758698.75300  23758698.23500  23758700.92700
        21.00000        16.00000
 -16704522.93608 -13016508.56008  21102452.38100  21102452.64700  21102452.17500
       229.00000       147.00000
  -3606649.09707  -2810376.60806  23546519.69100  23546518.95700  23546520.83700
        35.00000        25.00000
 -21731689.20509 -16933780.58208  20131708.70600  20131708.72200  20131708.20900
       325.00000       219.00000
  -2887504.45606  -2250002.67405  24491474.00700  24491474.66400  24491473.19600
        19.00000         9.00000
  -4965923.66406  -3869551.11706  24538911.27900  24538911.45200  24538912.71300
        17.00000        11.00000
 -26628269.81908 -20749297.60008  20430629.68400  20430629.41800  20430627.80400
       265.00000       204.00000
   -333808.36304   -260110.75605  24788083.57400  24788084.16000  24788085.30200
         3.00000         7.00000
 04  8 27  0  6 30.0000000  0 12G18G15G 6G17G 9G29G10G26G22G 8G21G 3
 -14945870.26208 -11646128.61507  21823886.40500  21823886.17400  21823884.89900
       178.00000        65.00000
  -8688712.16806  -6770425.68406  23395534.44600  23395533.60700  23395534.95300
        24.00000        18.00000
  -7106174.61405  -5537288.91205  24042594.35400  24042595.11000  24042597.17700
         9.00000         7.00000
  -3185240.23906  -2482014.53106  23987981.03200  23987980.52000  23987983.22200
        11.00000        12.00000
  -5057413.13107  -3940839.27505  23736394.86100  23736395.38400  23736395.23500
        36.00000        10.00000
 -16647442.24508 -12972030.11108  21113314.87900  21113314.85800  21113314.23700
       227.00000       146.00000
  -3517221.95307  -2740693.18106  23563537.65500  23563537.08000  23563538.69200
        39.00000        25.00000
 -21690091.42109 -16901366.73108  20139624.53300  20139624.50800  20139624.01600
       331.00000       218.00000
  -2977835.82306  -2320390.73405  24474285.39300  24474285.33800  24474282.34600
        17.00000         7.00000
  -4895268.22606  -3814494.98606  24552358.84800  24552357.57100  24552358.40200
        15.00000        11.00000
 -26659838.53008 -20773896.60108  20424622.05200  20424621.90900  20424620.58800
       259.00000       211.00000
   -379492.64905   -295708.91205  24779390.44300  24779390.71300  24779391.51600
         4.00000         9.00000
 04  8 27  0  7  0.0000000  0 12G18G15G 6G17G 9G29G10G26G22G 8G21G 3
 -15014649.57008 -11699722.86307  21810798.22100  21810797.86900  21810796.67600
       177.00000        65.00000
  -8793850.52606  -6852351.64606  23375527.61600  23375527.11200  23375528.28100
        29.00000        18.00000
  -7010131.66105  -5462450.37705  24060871.80800  24060871.72000  24060874.09500
         7.00000         7.00000
  -3073095.66806  -2394629.20506  24009321.25700  24009320.54400  24009323.90200
        12.00000        11.00000
  -5174559.25406  -4032121.93106  23714102.77700  23714102.71900  23714103.77800
        22.00000        16.00000
 -16590042.76708 -12927303.25708  21124237.40800  21124237.42700  21124236.93800
       217.00000       145.00000
  -3427739.63206  -2670966.73306  23580565.04000  23580563.99900  23580566.21000
        31.00000        22.00000
 -21648000.17409 -16868568.35908  20147634.21400  20147634.31700  20147633.74100
       332.00000       217.00000
  -3068158.26306  -2390771.81805  24457098.55500  24457098.28700  24457095.49900
        14.00000         7.00000
  -4824210.35306  -3759125.25506  24565879.51100  24565879.32400  24565880.48300
        17.00000        11.00000
 -26690915.94108 -20798112.77908  20418708.84300  20418708.40900  20418706.73100
       267.00000       214.00000
   -424729.00604   -330958.04105  24770780.41600  24770782.87600  24770785.29000
         1.00000         9.00000
 04  8 27  0  7 30.0000000  0 12G18G15G 6G17G 9G29G10G26G22G 8G21G 3
 -15083241.68608 -11753171.25107  21797745.54700  21797745.16700  21797743.95300
       175.00000        66.00000
  -8898821.27307  -6934147.03006  23355552.33900  23355551.69700  23355551.95800
        33.00000        11.00000
  -6914014.28605  -5387553.83405  24079161.13300  24079161.56500  24079164.33500
         4.00000         4.00000
  -2960790.22305  -2307118.52506  24030690.91500  24030690.49300  24030694.69500
        10.00000        11.00000
  -5291611.47306  -4123331.31306  23691828.15900  23691828.37600  23691830.56800
        24.00000        23.00000
 -16532296.69108 -12882306.33208  21135226.04100  21135226.05400  21135225.65300
       213.00000       141.00000
  -3338172.74607  -2601174.41006  23597608.22500  23597608.68200  23597610.58400
        37.00000        21.00000
 -21605387.55809 -16835363.73208  20155742.73400  20155743.14400  20155742.62500
       328.00000       213.00000
  -3158441.40206  -2461122.30205  24439916.40100  24439916.72400  24439915.51900
        16.00000         8.00000
  -4752722.21806  -3703420.26705  24579483.40300  24579482.93500  24579484.49000
        17.00000        10.00000
 -26721470.04908 -20821921.18408  20412894.30200  20412894.09400  20412892.67600
       266.00000       219.00000
   -469486.50100   -365834.01905  24762262.75500  24762266.71600  24762266.24100
          .00000         7.00000
 04  8 27  0  8  0.0000000  0 12G18G15G 6G17G 9G29G10G26G22G 8G21G 3
 -15151616.16408 -11806450.04507  21784734.04800  21784733.88300  21784732.91100
       180.00000        69.00000
  -9003592.43406  -7015786.90106  23335614.11500  23335613.93200  23335615.46000
        29.00000        16.00000
  -6817796.11405  -5312578.72305  24097470.60700  24097470.26400  24097474.73200
         4.00000         6.00000
  -2848296.45305  -2219461.11206  24052097.65800  24052097.79200  24052101.73700
         9.00000        12.00000
  -5408537.25607  -4214442.20606  23669578.80800  23669578.81800  23669580.39400
        37.00000        22.00000
 -16474176.43708 -12837017.84008  21146286.00800  21146286.10300  21146285.54300
       215.00000       141.00000
  -3248492.54807  -2531293.81106  23614674.42800  23614674.33800  23614676.23600
        36.00000        22.00000
 -21562226.42609 -16801731.68808  20163956.25300  20163956.24400  20163955.90000
       320.00000       212.00000
  -3248655.10806  -2531418.66205  24422750.58600  24422750.24000  24422747.99800
        15.00000         9.00000
  -4680776.70506  -3647358.87406  24593174.62200  24593174.18600  24593175.65000
        18.00000        11.00000
 -26751469.99008 -20845297.77508  20407185.62300  20407185.27700  20407183.79700
       264.00000       220.00000
   -513734.16004   -400312.71505  24753844.54800  24753845.10700  24753846.89800
         3.00000         4.00000
 04  8 27  0  8 30.0000000  0 12G18G15G 6G17G 9G29G10G26G22G 8G21G 3
 -15219768.40708 -11859555.68107  21771764.99200  21771764.72300  21771764.26500
       183.00000        72.00000
  -9108157.72707  -7097266.33206  23315716.68100  23315716.37100  23315718.09000
        32.00000        17.00000
  -6721476.30605  -5237524.41405  24115799.85900  24115799.60600  24115803.39500
         4.00000         4.00000
  -2735612.48606  -2131655.48406  24073542.58900  24073541.63700  24073545.06000
        12.00000        11.00000
  -5525329.62106  -4305449.17006  23647352.83700  23647352.80500  23647355.37700
        26.00000        15.00000
 -16415680.38808 -12791436.52108  21157417.37500  21157417.49800  21157416.94100
       212.00000       137.00000
  -3158696.17507  -2461322.66306  23631762.02000  23631761.43200  23631764.05100
        33.00000        23.00000
 -21518515.05009 -16767670.88108  20172274.50600  20172274.41900  20172273.98000
       329.00000       213.00000
  -3338795.13506  -2601657.61606  24405596.46200  24405597.13800  24405595.70700
        16.00000        12.00000
  -4608372.34106  -3590939.93106  24606953.01600  24606952.00600  24606954.11500
        16.00000        11.00000
 -26780910.68608 -20868238.58908  20401583.30100  20401582.97900  20401581.47100
       271.00000       221.00000
   -557466.87405   -434390.23205  24745524.25500  24745524.33200  24745524.58000
         8.00000         4.00000
 04  8 27  0  9  0.0000000  0 12G18G15G 6G17G 9G29G10G26G22G 8G21G 3
 -15287722.21208 -11912506.68507  21758833.55900  21758833.60500  21758832.72600
       188.00000        71.00000
  -9212539.23806  -7178602.56406  23295854.16600  23295853.48900  23295854.49400
        30.00000        16.00000
  -6625082.38504  -5162412.39205  24134145.23900  24134145.31800  24134147.14400
         2.00000         4.00000
  -2622765.14006  -2043722.54206  24095016.43900  24095016.36400  24095018.96100
        12.00000        11.00000
  -5642010.04306  -4396368.92806  23625148.65100  23625149.19000  23625151.11100
        23.00000        15.00000
 -16356835.20808 -12745583.14908  21168615.51200  21168615.37400  21168614.78300
       209.00000       134.00000
  -3068808.91207  -2391280.69906  23648867.21300  23648866.77800  23648868.91900
        32.00000        21.00000
 -21474280.43209 -16733202.35108  20180691.78100  20180692.10900  20180691.66200
       338.00000       216.00000
  -3428885.71005  -2671858.04406  24388452.45600  24388452.86300  24388452.49100
        10.00000        12.00000
  -4535536.19206  -3534184.55105  24620813.02000  24620812.00000  24620813.53500
        14.00000         9.00000
 -26809814.82708 -20890761.31008  20396082.98700  20396082.69100  20396081.20900
       266.00000       219.00000
   -600707.96805   -468084.63405  24737295.49300  24737294.63400  24737296.57500
         9.00000         4.00000
 04  8 27  0  9 30.0000000  0 12G18G15G 6G17G 9G29G10G26G22G 8G21G 3
 -15355483.81208 -11965307.91607  21745939.36000  21745939.23900  21745938.11500
       194.00000        72.00000
  -9316741.45906  -7259799.08106  23276025.49300  23276024.42500  23276025.25900
        25.00000        19.00000
  -6528624.32600  -5087250.37505  24152499.21600  24152499.90500  24152503.05200
          .00000         4.00000
  -2509763.28105  -1955669.21406  24116520.35000  24116519.22300  24116522.56100
         9.00000        12.00000
  -5758582.04507  -4487204.17706  23602966.79700  23602966.73300  23602969.35600
        34.00000        23.00000
 -16297650.10308 -12699464.89808  21179877.94400  21179877.82300  21179877.53900
       209.00000       137.00000
  -2978838.18306  -2321173.71106  23665987.62900  23665987.65600  23665989.89700
        31.00000        21.00000
 -21429531.66709 -16698333.19308  20189207.36900  20189207.48700  20189207.02400
       332.00000       215.00000
  -3518933.26405  -2742024.90706  24371316.18300  24371315.88700  24371316.56000
         6.00000        12.00000
  -4462278.12706  -3477100.37905  24634753.44800  24634752.58500  24634754.20400
        13.00000         9.00000
 -26838188.08308 -20912870.35208  20390683.86500  20390683.44300  20390681.90600
       263.00000       219.00000
   -643463.08505   -501400.35205  24729160.43900  24729159.59900  24729160.77800
         7.00000         4.00000
 04  8 27  0 10  0.0000000  0 12G18G15G 6G17G 9G29G10G26G22G 8G21G 3
 -15423017.43308 -12017931.50507  21733088.61700  21733088.10000  21733086.78800
       195.00000        72.00000
  -9420726.91806  -7340826.66306  23256237.32900  23256236.55600  23256237.69900
        27.00000        22.00000
  -6432070.17600  -5012013.45904  24170873.81400  24170873.90600  24170875.85200
          .00000         3.00000
  -2396574.06205  -1867469.89606  24138057.91100  24138057.93700  24138062.40700
         9.00000        12.00000
  -5875007.59106  -4577925.27806  23580812.05600  23580811.38300  23580813.50600
        26.00000        23.00000
 -16238091.80208 -12653055.84908  21191211.41200  21191211.45000  21191211.16000
       207.00000       137.00000
  -2888750.00106  -2250975.19306  23683131.70300  23683131.29300  23683133.00600
        30.00000        20.00000
 -21384235.98409 -16663037.86408  20197826.97700  20197826.90800  20197826.57500
       328.00000       213.00000
  -3608902.09106  -2812130.44505  24354197.09800  24354196.55500  24354194.90900
        12.00000        10.00000
  -4388565.29906  -3419661.86605  24648779.63500  24648779.91700  24648781.88600
        12.00000        10.00000
 -26865993.60108 -20934536.99908  20385392.44700  20385392.14700  20385390.57400
       266.00000       216.00000
   -685695.94305   -534309.09105  24721122.42600  24721122.75500  24721122.23300
         5.00000         5.00000
 04  8 27  0 10 30.0000000  0 11G18G15G17G 9G29G10G26G22G 8G21G 3
 -15490347.48708 -12070396.46407  21720275.60600  21720275.43100  21720274.39400
       189.00000        73.00000
  -9524518.38406  -7421703.13306  23236484.86700  23236484.91300  23236486.06700
        21.00000        22.00000
  -2283224.86205  -1779145.91305  24159626.87800  24159627.12700  24159631.68500
         9.00000        10.00000
  -5991308.84906  -4668549.55406  23558679.57500  23558679.54400  23558681.12600
        27.00000        18.00000
 -16178187.94808 -12606377.53808  21202610.95500  21202610.80800  21202610.42900
       202.00000       135.00000
  -2798570.40006  -2180705.43706  23700291.98800  23700291.64200  23700293.98200
        27.00000        23.00000
 -21338421.01909 -16627337.90408  20206545.13000  20206545.25600  20206544.78600
       330.00000       212.00000
  -3698816.91406  -2882193.93005  24337089.07400  24337088.38100  24337085.20800
        18.00000        10.00000
  -4314425.15706  -3361890.38605  24662888.21400  24662887.69600  24662890.07400
        11.00000         9.00000
 -26893255.30208 -20955779.89408  20380204.76800  20380204.41100  20380202.78300
       264.00000       218.00000
   -727430.55405   -566829.55905  24713182.14100  24713181.36200  24713181.65900
         5.00000         4.00000
 04  8 27  0 11  0.0000000  0 11G18G15G17G 9G29G10G26G22G 8G21G 3
 -15557454.17408 -12122687.37207  21707505.87800  21707505.46000  21707504.42400
       188.00000        72.00000
  -9628094.45906  -7502411.72906  23216776.24800  23216776.17200  23216776.75900
        28.00000        24.00000
  -2169698.63605  -1690683.93605  24181231.95500  24181231.16000  24181233.72200
         8.00000         7.00000
  -6107463.67906  -4759059.73706  23536572.81700  23536574.61800  23536578.87000
        19.00000        20.00000
 -16117921.69608 -12559416.84708  21214079.03100  21214079.24300  21214078.87400
       207.00000       137.00000
  -2708280.87506  -2110350.03706  23717473.56800  23717472.69900  23717475.15600
        26.00000        18.00000
 -21292069.96809 -16591220.21908  20215365.48100  20215365.61900  20215365.11500
       338.00000       210.00000
  -3788658.24606  -2952200.14306  24319990.40100  24319990.48200  24319988.79600
        11.00000        11.00000
  -4239841.28006  -3303773.12505  24677081.28200  24677080.99700  24677082.96500
        13.00000        10.00000
 -26919952.89508 -20976583.22108  20375124.45400  20375124.15400  20375122.48100
       268.00000       220.00000
   -768646.81204   -598946.16405  24705336.95300  24705336.60500  24705337.74700
         2.00000         4.00000
 04  8 27  0 11 30.0000000  0 11G18G15G17G 9G29G10G26G22G 8G21G 3
 -15624356.05408 -12174818.70107  21694774.43800  21694774.52800  21694773.16900
       190.00000        72.00000
  -9731472.00506  -7582965.63806  23197103.09200  23197102.68400  23197104.90500
        23.00000        25.00000
  -2056016.65805  -1602100.63205  24202865.19900  24202864.79500  24202867.88200
         9.00000        10.00000
  -6223487.97506  -4849468.18806  23514496.82800  23514496.60800  23514499.66100
        26.00000        20.00000
 -16057314.23308 -12512190.27208  21225612.25600  21225612.39600  21225612.17800
       204.00000       136.00000
  -2617901.31306  -2039924.45906  23734671.84400  23734671.84600  23734674.37800
        27.00000        21.00000
 -21245204.26709 -16554701.49908  20224283.83200  20224283.90400  20224283.44500
       339.00000       210.00000
  -3878444.90905  -3022163.70006  24302904.96000  24302904.92000  24302903.09100
         8.00000        13.00000
  -4164835.77306  -3245327.30105  24691353.40000  24691352.53000  24691356.74000
        12.00000         9.00000
 -26946103.89108 -20996960.63208  20370148.37300  20370147.92400  20370146.25000
       274.00000       224.00000
   -809362.70304   -630672.85505  24697589.50900  24697590.16100  24697589.97800
         1.00000         5.00000
 04  8 27  0 12  0.0000000  0 11G18G15G17G 9G29G10G26G22G 8G21G 3
 -15691031.37608 -12226773.48607  21682086.49500  21682086.36800  21682085.63600
       188.00000        76.00000
  -9834627.52606  -7663346.54906  23177473.83400  23177473.20400  23177474.60600
        24.00000        26.00000
  -1942160.31305  -1513381.48206  24224531.69700  24224531.18500  24224534.06400
         8.00000        11.00000
  -6339357.68206  -4939756.21906  23492448.70300  23492447.92900  23492450.79300
        31.00000        22.00000
 -15996347.02508 -12464683.37608  21237213.97300  21237214.02800  21237213.97900
       200.00000       134.00000
  -2527411.98306  -1969413.38206  23751892.54900  23751891.74800  23751893.85600
        30.00000        20.00000
 -21197805.75009 -16517767.59608  20233303.18000  20233303.36800  20233303.03400
       329.00000       211.00000
  -3968155.49606  -3092068.02306  24285832.87000  24285833.27100  24285831.54500
        12.00000        11.00000
  -4089389.99206  -3186538.44405  24705710.38300  24705710.70800  24705713.33700
        12.00000         9.00000
 -26971686.08208 -21016894.81508  20365279.98400  20365279.73200  20365278.20300
       273.00000       228.00000
   -849556.34200   -661992.60205  24689940.36800  24689940.56300  24689943.14100
          .00000         6.00000
 04  8 27  0 12 30.0000000  0 11G18G15G17G 9G29G10G26G22G 8G21G 3
 -15757515.54808 -12278579.32607  21669434.78900  21669434.82200  21669434.37600
       195.00000        79.00000
  -9937594.63206  -7743580.62506  23157879.10100  23157878.98400  23157880.56600
        25.00000        27.00000
  -1828167.72605  -1424556.14906  24246223.01600  24246223.20000  24246226.09100
         9.00000        12.00000
  -6455105.78806  -5029949.42806  23470420.48700  23470420.30300  23470424.73500
        19.00000        24.00000
 -15935058.00008 -12416925.71508  21248877.20100  21248877.10600  21248876.67200
       205.00000       129.00000
  -2436849.41206  -1898845.18606  23769125.39300  23769124.47200  23769126.85600
        24.00000        17.00000
 -21149912.22509 -16480447.98208  20242416.66000  20242417.10500  20242416.95500
       324.00000       210.00000
  -4057825.44306  -3161940.66406  24268769.70400  24268769.14300  24268767.75800
        12.00000        12.00000
  -4013542.34606  -3127436.43405  24720145.44200  24720144.39300  24720147.38400
        11.00000         8.00000
 -26996734.48508 -21036413.06508  20360513.64300  20360513.27400  20360511.57100
       274.00000       229.00000
   -889262.55600   -692932.50805  24682386.58300  24682386.25200  24682386.95000
          .00000         7.00000
 04  8 27  0 13  0.0000000  0 11G18G15G17G 9G29G10G26G22G 8G21G 3
 -15823778.60708 -12330212.87407  21656825.27300  21656825.49500  21656824.50300
       202.00000        77.00000
 -10040341.65206  -7823643.21306  23138326.69600  23138326.72600  23138328.61600
        24.00000        28.00000
  -1714012.01305  -1335603.71206  24267944.53300  24267945.02700  24267949.85300
         6.00000        12.00000
  -6570699.91607  -5120022.67806  23448425.10300  23448425.42500  23448426.73200
        33.00000        19.00000
 -15873420.44208 -12368896.46808  21260606.57200  21260606.30700  21260605.64600
       201.00000       123.00000
  -2346185.36706  -1828197.92606  23786377.96100  23786377.29900  23786379.96000
        26.00000        19.00000
 -21101497.37609 -16442722.13608  20251630.48900  20251630.47000  20251629.96600
       327.00000       206.00000
  -4147425.30806  -3231758.69706  24251718.50300  24251718.63200  24251717.17800
        13.00000        12.00000
  -3937267.08505  -3068001.20005  24734658.59900  24734658.91200  24734661.71800
        10.00000         6.00000
 -27021218.35808 -21055491.41608  20355854.45700  20355854.09000  20355852.57800
       270.00000       233.00000
   -928451.30304   -723469.12605  24674927.51900  24674929.00500  24674928.51500
         2.00000         7.00000
 04  8 27  0 13 30.0000000  0 11G18G15G17G 9G29G10G26G22G 8G21G 3
 -15889806.84008 -12381663.44507  21644260.70300  21644260.63600  21644259.60100
       205.00000        78.00000
 -10142853.24806  -7903522.36606  23118819.67900  23118819.45800  23118821.62900
        22.00000        30.00000
  -1599682.33605  -1246515.75606  24289702.26500  24289701.21600  24289706.49300
         5.00000        14.00000
  -6686123.95906  -5209963.45706  23426459.82300  23426459.89400  23426461.60400
        29.00000        17.00000
 -15811423.42708 -12320587.12808  21272404.24600  21272403.97300  21272403.33300
       200.00000       123.00000
  -2255407.62106  -1757462.08906  23803652.99200  23803652.41600  23803654.43200
        26.00000        18.00000
 -21052550.68409 -16404581.86508  20260944.64600  20260944.79900  20260944.18300
       331.00000       204.00000
  -4236941.63606  -3301511.65206  24234683.78500  24234684.10900  24234683.66900
        14.00000        14.00000
  -3860553.24005  -3008224.23905  24749256.04400  24749257.01700  24749260.18800
         9.00000         7.00000
 -27045123.75308 -21074119.00508  20351305.35200  20351304.89900  20351303.48200
       262.00000       233.00000
   -967108.31605   -753591.46605  24667570.38100  24667571.59600  24667572.85000
         6.00000         7.00000
 04  8 27  0 14  0.0000000  0 11G18G15G17G 9G29G10G26G22G 8G21G 3
 -15955625.06008 -12432950.35307  21631735.91600  21631735.90900  21631734.85800
       207.00000        82.00000
 -10245152.61306  -7983236.11606  23099353.82400  23099353.07200  23099354.87100
        25.00000        27.00000
  -1485206.49005  -1157313.89006  24311487.78600  24311487.13100  24311489.86500
         7.00000        13.00000
  -6801400.53606  -5299789.28006  23404522.99600  23404523.13300  23404526.37000
        30.00000        22.00000
 -15749094.87708 -12272019.44508  21284264.77900  21284264.72800  21284264.34200
       199.00000       126.00000
  -2164542.51106  -1686658.16306  23820943.01500  23820943.18600  23820945.16600
        25.00000        16.00000
 -21003099.99509 -16366048.87108  20270354.77600  20270354.80700  20270354.33400
       329.00000       202.00000
  -4326399.82706  -3371219.31506  24217660.54100  24217660.68600  24217661.33300
        13.00000        16.00000
  -3783429.44905  -2948127.80605  24763932.82200  24763933.55200  24763936.52500
         9.00000         6.00000
 -27068474.42008 -21092314.33608  20346861.65800  20346861.40000  20346859.89500
       261.00000       232.00000
  -1005258.65606   -783318.98405  24660311.88700  24660311.62700  24660311.22100
        12.00000         6.00000
 04  8 27  0 14 30.0000000  0 11G18G15G17G 9G29G10G26G22G 8G21G 3
 -16021232.77208 -12484073.23607  21619251.07500  21619251.17700  21619249.98900
       205.00000        82.00000
 -10347237.46406  -8062782.74606  23079927.09800  23079926.27100  23079927.74200
        25.00000        21.00000
  -1370586.75605  -1067999.88106  24333298.71000  24333297.95800  24333301.11200
         7.00000        11.00000
  -6916526.62507  -5389497.83706  23382615.40300  23382616.32600  23382618.68000
        37.00000        27.00000
 -15686436.93408 -12223195.09408  21296188.10600  21296188.04300  21296187.76600
       192.00000       125.00000
  -2073590.94306  -1615786.85906  23838252.19600  23838250.76600  23838253.37900
        25.00000        18.00000
 -20953148.02909 -16327125.27408  20279860.14300  20279860.20400  20279859.99800
       321.00000       204.00000
  -4415799.18906  -3440881.10806  24200648.87000  24200648.67000  24200648.93400
        17.00000        18.00000
  -3705898.10805  -2887713.81905  24778687.44000  24778687.03000  24778688.74400
         7.00000         6.00000
 -27091269.42308 -21110076.68508  20342524.06200  20342523.78000  20342522.20500
       265.00000       232.00000
  -1042901.32606   -812650.94405  24653148.37600  24653148.59500  24653149.21900
        16.00000         8.00000
 04  8 27  0 15  0.0000000  0 11G29G18G15G17G 9G10G26G22G 8G21G 3
 -15623464.49108 -12174125.67608  21308171.53700  21308171.30600  21308170.99100
       186.00000       124.00000
 -16086641.83608 -12535041.32307  21606804.43900  21606804.49000  21606803.13900
       206.00000        82.00000
 -10449117.88206  -8142170.07106  23060539.91700  23060539.36200  23060541.01500
        28.00000        24.00000
  -1255837.84805   -978585.24406  24355135.22300  24355133.65900  24355137.80400
         5.00000        12.00000
  -7031511.84306  -5479096.61506  23360735.25000  23360735.23700  23360737.58600
        31.00000        23.00000
  -1982566.41506  -1544858.71606  23855572.75800  23855572.23400  23855574.47600
        26.00000        19.00000
 -20902709.61009 -16287822.62008  20289458.21700  20289458.45100  20289458.28100
       318.00000       207.00000
  -4505151.81206  -3510506.48206  24183645.43100  24183645.36100  24183644.23100
        18.00000        17.00000
  -3627974.71205  -2826994.33905  24793515.14200  24793515.33200  24793516.95800
         9.00000         5.00000
 -27113520.24408 -21127414.99108  20338290.03000  20338289.55400  20338288.02000
       262.00000       232.00000
  -1080047.91706   -841596.34305  24646080.51400  24646080.39700  24646081.80500
        17.00000        10.00000
 04  8 27  0 15 30.0000000  0 11G29G18G15G17G 9G10G26G22G 8G21G 3
 -15560149.50708 -12124789.34608  21320219.60800  21320219.76600  21320219.42900
       191.00000       124.00000
 -16151821.05308 -12585830.31007  21594401.13000  21594401.17400  21594400.10300
       204.00000        85.00000
 -10550760.94206  -8221372.42806  23041196.72500  23041197.05000  23041198.17000
        27.00000        24.00000
  -1140931.65205   -889048.04806  24377000.19500  24377000.42500  24377003.37700
         6.00000        11.00000
  -7146322.49006  -5568559.40406  23338888.01100  23338887.45900  23338889.29600
        30.00000        21.00000
  -1891439.26506  -1473850.58506  23872914.42400  23872913.52600  23872915.38800
        25.00000        17.00000
 -20851757.03709 -16248119.32108  20299154.03000  20299154.34300  20299154.22800
       322.00000       204.00000
  -4594426.96306  -3580071.51606  24166656.77600  24166657.69000  24166656.66300
        24.00000        19.00000
  -3549631.41805  -2765947.65505  24808424.27600  24808423.55200  24808426.04400
         7.00000         5.00000
 -27135195.46008 -21144304.77608  20334165.40600  20334165.01700  20334163.36000
       267.00000       232.00000
  -1116666.87506   -870130.61705  24639111.30100  24639111.91200  24639113.23600
        13.00000         8.00000
 04  8 27  0 16  0.0000000  0 11G29G18G15G17G 9G10G26G22G 8G21G 3
 -15496500.98208 -12075193.11208  21332331.66000  21332331.64400  21332331.40300
       190.00000       122.00000
 -16216776.68708 -12636445.06507  21582040.57600  21582040.42800  21582039.36400
       200.00000        84.00000
 -10652171.21306  -8300393.40706  23021900.71600  23021900.27900  23021900.71300
        31.00000        23.00000
  -1025877.24705   -799395.37506  24398894.23300  24398894.24600  24398897.82200
         9.00000        11.00000
  -7260962.42507  -5657889.13806  23317071.36300  23317071.90900  23317074.58600
        33.00000        25.00000
  -1800217.51006  -1402768.77106  23890271.85100  23890271.74600  23890274.68500
        21.00000        18.00000
 -20800299.64509 -16208022.66408  20308945.87700  20308946.33500  20308946.04800
       329.00000       195.00000
  -4683631.25706  -3649581.31306  24149681.36000  24149681.56400  24149682.07200
        24.00000        21.00000
  -3470877.87205  -2704581.30005  24823409.66200  24823409.50200  24823412.72800
         6.00000         6.00000
 -27156300.35008 -21160750.15808  20330148.89300  20330148.80900  20330147.20000
       268.00000       232.00000
  -1152764.66105   -898258.77305  24632242.14700  24632242.06900  24632244.37300
         7.00000         6.00000
 04  8 27  0 16 30.0000000  0 11G29G18G15G17G 9G10G26G22G 8G21G 3
 -15432542.48108 -12025355.33208  21344502.60900  21344502.41200  21344502.16800
       179.00000       117.00000
 -16281529.33208 -12686901.66207  21569718.21200  21569718.29500  21569717.24300
       207.00000        82.00000
 -10753367.77906  -8379247.85406  23002642.35100  23002642.35800  23002643.95600
        31.00000        27.00000
   -910698.28105   -709645.59505  24420812.13700  24420811.26500  24420815.38600
         8.00000        10.00000
  -7375449.66107  -5747099.90106  23295284.69300  23295285.15400  23295288.24100
        34.00000        26.00000
  -1708923.18506  -1331630.40506  23907645.70000  23907645.63500  23907648.00100
        27.00000        20.00000
 -20748361.27709 -16167551.22008  20318830.12000  20318830.13200  20318829.31400
       335.00000       187.00000
  -4772785.67006  -3719052.24406  24132717.22300  24132717.16300  24132715.97800
        29.00000        21.00000
  -3391738.28105  -2642914.12805  24838468.93000  24838469.04700  24838471.82100
         5.00000         5.00000
 -27176855.43808 -21176767.11508  20326237.69400  20326237.37700  20326235.67900
       269.00000       232.00000
  -1188361.71105   -925996.77005  24625467.99400  24625467.03000  24625470.43800
         7.00000         6.00000
 04  8 27  0 17  0.0000000  0 11G29G18G15G17G 9G10G26G22G 8G21G 3
 -15368249.89408 -11975257.22908  21356737.05400  21356736.89600  21356736.82600
       176.00000       116.00000
 -16346051.90808 -12737178.99307  21557440.96500  21557440.45500  21557439.13000
       219.00000        83.00000
 -10854321.63107  -8457913.17806  22983432.33700  22983432.17200  22983432.78500
        33.00000        26.00000
   -795370.62005   -619779.94905  24442757.90300  24442758.07000  24442761.74200
         8.00000         9.00000
  -7489754.70807  -5836168.70206  23273534.64800  23273534.13100  23273536.34700
        38.00000        27.00000
  -1617530.63406  -1260415.49206  23925037.41900  23925037.03100  23925038.73300
        25.00000        17.00000
 -20695918.06209 -16126686.38308  20328809.88500  20328809.83400  20328808.85900
       330.00000       184.00000
  -4861863.15906  -3788463.20906  24115765.96500  24115765.75400  24115764.74200
        23.00000        17.00000
  -3312188.80604  -2580927.57905  24853611.82200  24853609.93500  24853610.34400
         3.00000         4.00000
 -27196832.86008 -21192333.94308  20322435.96900  20322435.73500  20322434.15300
       267.00000       234.00000
  -1223430.53905   -953323.15205  24618795.20500  24618794.68500  24618796.69800
         4.00000         8.00000
 04  8 27  0 17 30.0000000  0 11G29G18G15G17G 9G10G26G22G 8G21G 3
 -15303625.08508 -11924900.24808  21369035.10900  21369034.73800  21369034.44100
       177.00000       116.00000
 -16410343.40908 -12787276.26607  21545205.96200  21545205.98100  21545205.00300
       221.00000        86.00000
 -10955030.05707  -8536387.27106  22964268.36800  22964268.13500  22964268.71000
        36.00000        27.00000
   -679896.25705   -529799.99505  24464732.30200  24464731.62900  24464735.76700
         8.00000         9.00000
  -7603874.27107  -5925092.91206  23251817.86300  23251817.38700  23251819.78500
        35.00000        24.00000
  -1526040.39206  -1189124.45906  23942447.46100  23942446.64700  23942448.92000
        20.00000        17.00000
 -20642972.28009 -16085429.94008  20338884.68100  20338884.89500  20338884.28000
       326.00000       188.00000
  -4950863.18906  -3857813.83106  24098829.86100  24098829.30500  24098828.12200
        21.00000        16.00000
  -3232231.74204  -2518623.41004  24868820.74400  24868823.20600  24868824.46000
         1.00000         3.00000
 -27216231.80808 -21207450.01508  20318744.69800  20318744.23200  20318742.67000
       259.00000       233.00000
  -1257970.23704   -980237.22205  24612222.67600  24612222.26200  24612223.12200
         3.00000         8.00000
 04  8 27  0 18  0.0000000  0 11G29G18G15G17G 9G10G26G22G 8G21G 3
 -15238681.27808 -11874294.70308  21381393.07700  21381393.10800  21381392.76900
       177.00000       116.00000
 -16474414.01008 -12837201.39807  21533013.80000  21533013.56900  21533012.46400
       227.00000        85.00000
 -11055501.40707  -8614676.61706  22945149.12000  22945148.74400  22945150.15100
        33.00000        30.00000
   -564288.10705   -439715.80205  24486732.58200  24486731.11600  24486735.80600
         8.00000         9.00000
  -7717815.85907  -6013878.50906  23230135.41000  23230135.11600  23230137.26000
        38.00000        22.00000
  -1434463.86506  -1117766.20806  23959872.86300  23959872.13500  23959875.68000
        21.00000        18.00000
 -20589537.38209 -16043792.37608  20349052.76400  20349053.13400  20349052.81600
       324.00000       194.00000
  -5039795.94006  -3927112.04406  24081907.47500  24081906.88300  24081904.76500
        22.00000        16.00000
  -3151881.03700  -2456012.53405  24884111.60400  24884110.88000  24884114.50400
          .00000         4.00000
 -27235061.32208 -21222122.36908  20315161.15500  20315160.92600  20315159.54600
       261.00000       232.00000
  -1291990.55005  -1006746.57105  24605749.08400  24605748.25000  24605748.55400
         4.00000         6.00000
 04  8 27  0 18 30.0000000  0 11G29G18G15G17G 9G10G26G22G 8G21G 3
 -15173414.86908 -11823437.78008  21393813.17400  21393813.21400  21393812.73700
       183.00000       117.00000
 -16538257.37108 -12886949.46207  21520864.87000  21520864.84700  21520863.44400
       228.00000        85.00000
 -11155727.66707  -8692774.97706  22926077.40600  22926076.49000  22926077.56600
        34.00000        29.00000
   -448542.80505   -349524.71305  24508757.24000  24508757.18900  24508761.33600
         8.00000         9.00000
  -7831570.97106  -6102518.76606  23208486.04600  23208487.05200  23208491.12100
        27.00000        28.00000
  -1342796.54506  -1046337.18906  23977317.19500  23977317.03000  23977319.99100
        24.00000        18.00000
 -20535610.09309 -16001771.12408  20359315.14200  20359315.18200  20359315.05000
       318.00000       199.00000
  -5128655.27006  -3996353.02206  24064997.24500  24064996.60400  24064996.52200
        16.00000        19.00000
  -3071133.81000  -2393092.69504  24899478.54600  24899478.30800  24899479.44000
          .00000         3.00000
 -27253315.17608 -21236346.16208  20311687.69600  20311687.40200  20311685.96000
       261.00000       233.00000
  -1325485.12405  -1032846.22005  24599375.52100  24599375.84600  24599374.48000
         9.00000         7.00000
 04  8 27  0 19  0.0000000  0 11G29G18G15G17G 9G10G26G22G 8G21G 3
 -15107847.30408 -11772346.18908  21406290.44600  21406290.23300  21406289.77500
       184.00000       114.00000
 -16601891.67608 -12936534.61807  21508755.54400  21508755.42800  21508754.25700
       221.00000        88.00000
 -11255725.50507  -8770695.33806  22907047.67900  22907047.41000  22907048.94800
        32.00000        28.00000
   -332681.72105   -259243.41605  24530803.80800  24530804.49400  24530808.96100
         7.00000         8.00000
  -7945155.60407  -6191026.20206  23186874.05700  23186873.97700  23186876.04400
        38.00000        28.00000
  -1251058.40006   -974853.00306  23994775.64300  23994774.17300  23994777.05000
        21.00000        19.00000
 -20481212.13409 -15959383.11408  20369666.85800  20369666.84800  20369666.55800
       318.00000       193.00000
  -5217460.03106  -4065551.45906  24048099.01900  24048098.43900  24048096.94600
        20.00000        17.00000
  -2990011.86804  -2329880.79804  24914913.57100  24914915.76000  24914917.63000
         2.00000         3.00000
 -27271011.13608 -21250135.23308  20308320.65000  20308320.20100  20308318.66200
       257.00000       236.00000
  -1358472.64205  -1058550.78105  24593098.00700  24593097.56500  24593098.73400
         9.00000         8.00000
 04  8 27  0 19 30.0000000  0 11G29G18G15G17G 9G10G26G22G 8G21G 3
 -15041948.13008 -11720996.19408  21418830.33300  21418830.34900  21418829.90100
       181.00000       112.00000
 -16665283.60208 -12985930.90207  21496692.54400  21496692.36400  21496691.29000
       220.00000        88.00000
 -11355459.77206  -8848410.33306  22888067.99400  22888068.23900  22888069.80700
        31.00000        28.00000
   -216674.37505   -168848.13405  24552881.56600  24552880.90100  24552884.38200
         7.00000         9.00000
  -8058534.20907  -6279373.06406  23165299.73600  23165299.65400  23165301.03600
        47.00000        29.00000
  -1159217.62306   -903288.83706  24012251.07700  24012250.80100  24012253.50600
        21.00000        16.00000
 -20426313.44408 -15916604.92008  20380113.67400  20380113.62000  20380113.29500
       314.00000       188.00000
  -5306177.19606  -4134681.68806  24031215.66800  24031215.42100  24031214.02500
        22.00000        16.00000
  -2908484.64604  -2266353.13204  24930431.16300  24930429.45900  24930432.73000
         3.00000         3.00000
 -27288115.50308 -21263463.31808  20305065.26000  20305065.11300  20305063.65400
       257.00000       234.00000
  -1390919.44805  -1083834.04205  24586924.34000  24586923.43100  24586924.00600
         9.00000         9.00000
 04  8 27  0 20  0.0000000  0 11G29G18G15G17G 9G10G26G22G 8G21G 3
 -14975749.11308 -11669412.56308  21431427.52800  21431427.51500  21431427.26600
       178.00000       112.00000
 -16728461.97808 -13035160.79407  21484670.05200  21484669.99800  21484668.65600
       226.00000        86.00000
 -11454957.57506  -8925941.05606  22869135.02300  22869134.34100  22869135.66200
        30.00000        25.00000
   -100552.57405    -78363.66605  24574978.65000  24574977.77300  24574981.02200
         6.00000         8.00000
  -8171732.82407  -6367579.70306  23143757.21900  23143757.67100  23143759.89700
        44.00000        29.00000
  -1067304.31106   -831668.14206  24029741.27600  24029741.39600  24029744.24200
        22.00000        17.00000
 -20370945.99108 -15873461.46708  20390649.70900  20390649.76700  20390649.26800
       314.00000       185.00000
  -5394835.66906  -4203766.14506  24014344.09700  24014344.00300  24014343.57100
        21.00000        18.00000
  -2826585.21905  -2202535.43504  24946015.48800  24946015.46100  24946018.04300
         4.00000         3.00000
 -27304656.89108 -21276352.72608  20301917.77400  20301917.53000  20301916.00200
       259.00000       234.00000
  -1422854.13205  -1108718.23005  24580846.11200  24580845.89300  24580847.87200
        10.00000         9.00000
 04  8 27  0 20 30.0000000  0 11G29G18G15G17G 9G10G26G22G 8G21G 3
 -14909236.01708 -11617584.19108  21444084.90000  21444084.76900  21444084.24700
       182.00000       108.00000
 -16791409.65108 -13084210.90907  21472691.28300  21472691.31300  21472690.04100
       229.00000        87.00000
 -11554199.99507  -9003272.80406  22850249.52300  22850249.47300  22850250.29700
        35.00000        26.00000
     15697.81004     12220.99905  24597099.11200  24597098.79000  24597102.41500
         3.00000         7.00000
  -8284731.90607  -6455630.84206  23122252.94400  23122253.65000  23122256.63100
        34.00000        27.00000
   -975302.86006   -759978.76906  24047248.50700  24047248.72000  24047251.41600
        20.00000        17.00000
 -20315096.01308 -15829942.01808  20401277.56100  20401277.70100  20401277.15800
       311.00000       184.00000
  -5483418.42806  -4272791.62906  23997488.29600  23997488.07300  23997486.56000
        24.00000        18.00000
  -2744299.88905  -2138417.03105  24961674.31300  24961674.49300  24961676.04000
