     2.10           OBSERVATION DATA    G (GPS)             RINEX VERSION / TYPE
teqc  2002Mar14     gpsodc(auto)        20040823 01:10:43UTCPGM / RUN BY / DATE
OBSERVATION MODE: IGS-Net                                   COMMENT
ULAB Ulaanbataar (ULAB)                                     MARKER NAME
24201M001                                                   MARKER NUMBER
287-U               AOA SNR-8000 ACT     3.30               REC # / TYPE / VERS
340-U               AOAD/M_T        NONE                    ANT # / TYPE
        0.0460        0.0000        0.0000                  ANTENNA: DELTA H/E/N
  -1257408.5177  4099404.3395  4707992.6133                 APPROX POSITION XYZ
  107.05232504  47.86506790  1575.5106  LonLatAlt  S/W      COMMENT
unknown             IVTAN                                   OBSERVER / AGENCY
     1     1                                                WAVELENGTH FACT L1/2
     7    L1    L2    C1    P1    P2    S1    S2            # / TYPES OF OBSERV
    30.0000                                                 INTERVAL
Linux 2.0.36|Pentium II|gcc -static|Linux|486/DX+           COMMENT
bx2rxo      unknown * Mon Aug 23 02:18:49 2004              COMMENT
  2004     8    23     0     0    0.0000000     GPS         TIME OF FIRST OBS
  2004     8    23    20    59   30.0000000     GPS         TIME OF LAST OBS
                                                            END OF HEADER
 04  8 23  0  0  0.0000000  0  9G29G15G 6G17G10G18G 8G26G21
 -18808619.86708 -14656065.55908  20698928.69600  20698929.15600  20698929.28300
       245.00000       191.00000
  -2646066.30605  -2061870.05906  24343250.22400  24343249.51200  24343253.14800
         9.00000        13.00000
 -10280758.60606  -8010989.92006  23241592.94600  23241592.79700  23241594.63000
        31.00000        19.00000
  -5390080.95706  -4200069.77806  23052967.45800  23052967.17000  23052970.33000
        29.00000        21.00000
  -6753763.56907  -5262672.42107  22825077.16500  22825076.16900  22825077.68900
        64.00000        37.00000
 -11633969.90307  -9065431.15807  22457921.11000  22457920.83900  22457921.13500
       100.00000        40.00000
  -7674045.78806  -5979773.48406  24026229.41500  24026228.93100  24026230.32700
        20.00000        14.00000
 -23014993.29209 -17933758.02708  19891922.54800  19891922.59600  19891922.82100
       332.00000       253.00000
 -24531208.79508 -19115229.43508  20797202.35500  20797201.88600  20797200.60600
       268.00000       131.00000
 04  8 23  0  0 30.0000000  0  9G29G15G 6G17G10G18G 8G26G21
 -18769688.69508 -14625729.59808  20706337.68300  20706337.61000  20706337.87500
       245.00000       196.00000
  -2757145.82805  -2148425.51906  24322111.89900  24322112.09600  24322115.12700
         9.00000        11.00000
 -10191947.63806  -7941786.61306  23258492.34400  23258491.98400  23258494.09400
        28.00000        18.00000
  -5288113.45006  -4120614.66206  23072372.33300  23072371.68800  23072374.45900
        31.00000        21.00000
  -6669524.65407  -5197031.76107  22841106.82700  22841106.02800  22841107.96400
        59.00000        36.00000
 -11711234.29808  -9125637.14407  22443218.26500  22443218.15800  22443218.03600
       102.00000        38.00000
  -7625890.02106  -5942249.56206  24035392.65600  24035392.07200  24035393.84700
        15.00000        11.00000
 -22999369.14009 -17921583.37008  19894896.32300  19894896.09800  19894895.97200
       341.00000       256.00000
 -24584982.43108 -19157130.96208  20786969.91500  20786969.15100  20786967.87300
       258.00000       133.00000
 04  8 23  0  1  0.0000000  0  9G29G15G 6G17G10G18G 8G26G21
 -18730278.69708 -14595020.50708  20713837.96400  20713837.41300  20713837.35500
       243.00000       195.00000
  -2868119.26905  -2234898.33805  24300994.84600  24300994.80900  24300996.81000
         9.00000         7.00000
 -10102883.18407  -7872385.79606  23275440.82700  23275440.81800  23275442.83900
        32.00000        21.00000
  -5185854.34306  -4040932.32106  23091831.15100  23091830.67400  23091833.89000
        30.00000        24.00000
  -6585123.92807  -5131265.00007  22857167.62600  22857166.82700  22857169.47100
        55.00000        39.00000
 -11788301.83108  -9185689.73407  22428552.80800  22428552.89600  22428552.26700
       105.00000        36.00000
  -7577166.39906  -5904283.07506  24044664.26300  24044663.99100  24044664.92600
        17.00000        11.00000
 -22983098.08209 -17908904.62508  19897992.20300  19897992.23900  19897992.38400
       342.00000       259.00000
 -24638275.77608 -19198658.24408  20776828.34400  20776827.84900  20776826.48000
       269.00000       136.00000
 04  8 23  0  1 30.0000000  0 10G29G15G 6G17G10G18G 8G26G21G 3
 -18690424.82208 -14563965.53108  20721421.71700  20721421.32400  20721421.20200
       242.00000       192.00000
  -2979017.63905  -2321312.65905  24279890.44500  24279889.90400  24279893.03100
         6.00000         6.00000
 -10013601.44506  -7802815.69906  23292431.50600  23292430.94400  23292432.72000
        30.00000        18.00000
  -5083338.77507  -3961050.12206  23111339.86200  23111339.32700  23111341.58900
        34.00000        22.00000
  -6500595.27907  -5065398.56507  22873253.39900  22873252.79000  22873254.27600
        59.00000        36.00000
 -11865205.01308  -9245614.25507  22413919.50000  22413918.95100  22413918.39800
       103.00000        35.00000
  -7527909.58106  -5865901.18406  24054037.37200  24054036.69100  24054038.94400
        19.00000        11.00000
 -22966214.69909 -17895748.75008  19901205.04300  19901205.11100  19901205.25100
       342.00000       258.00000
 -24691119.89908 -19239835.48008  20766772.41400  20766771.90300  20766770.64700
       270.00000       139.00000
    -21728.32104    -16931.40404  25231207.96000  25231208.43600  25231208.24600
         1.00000         2.00000
 04  8 23  0  2  0.0000000  0 10G29G15G 6G17G10G18G 8G26G21G 3
 -18650131.42608 -14532568.08408  20729088.52200  20729088.63000  20729088.66900
       246.00000       187.00000
  -3089841.39905  -2407668.84705  24258802.62300  24258802.41500  24258804.30300
         9.00000         8.00000
  -9924108.01907  -7733080.63806  23309461.37700  23309461.38100  23309462.91200
        33.00000        18.00000
  -4980570.93006  -3880971.36606  23130895.55400  23130895.19100  23130897.77900
        30.00000        20.00000
  -6415942.33807  -4999435.29207  22889362.43000  22889361.47700  22889363.81200
        57.00000        38.00000
 -11941945.48907  -9305411.99507  22399315.73800  22399315.12600  22399314.59400
        98.00000        36.00000
  -7478124.20206  -5827107.40906  24063511.54300  24063511.40900  24063512.56900
        19.00000        11.00000
 -22948723.05609 -17882118.90608  19904533.34700  19904533.59700  19904533.63700
       344.00000       252.00000
 -24743515.53108 -19280663.24008  20756801.32900  20756800.98100  20756800.10400
       257.00000       143.00000
    -86644.66700    -67515.56904  25218855.81500  25218855.54600  25218856.28300
          .00000         2.00000
 04  8 23  0  2 30.0000000  0 10G29G15G 6G17G10G18G 8G26G21G 3
 -18609409.37008 -14500836.62308  20736837.78600  20736837.71100  20736837.79200
       245.00000       185.00000
  -3200596.98705  -2493971.89305  24237727.42800  24237725.45200  24237728.39900
         8.00000         9.00000
  -9834414.58006  -7663189.72306  23326528.00300  23326527.94200  23326531.27600
        24.00000        15.00000
  -4877561.63206  -3800704.43406  23150497.82000  23150497.34400  23150500.78100
        28.00000        22.00000
  -6331174.60907  -4933382.57407  22905492.80800  22905491.90700  22905493.60300
        54.00000        33.00000
 -12018531.61408  -9365089.45807  22384741.94500  22384741.33200  22384740.76600
       103.00000        37.00000
  -7427820.73206  -5787909.93406  24073084.15700  24073083.35300  24073084.64600
        18.00000        11.00000
 -22930633.23809 -17868022.94408  19907976.23400  19907976.03300  19907975.92600
       337.00000       252.00000
 -24795469.06808 -19321146.50408  20746915.14400  20746914.65100  20746913.74800
       252.00000       147.00000
   -151155.32900   -117783.63804  25206579.37600  25206579.00100  25206581.29100
          .00000         3.00000
 04  8 23  0  3  0.0000000  0 11G29G15G 6G17G10G18G 8G26G21G 3G 9
 -18568218.73808 -14468740.03908  20744676.44300  20744676.29200  20744676.00300
       247.00000       184.00000
  -3311240.87805  -2580187.88805  24216672.46500  24216670.81700  24216672.58500
         6.00000         9.00000
  -9744482.55506  -7593112.89106  23343642.50400  23343642.51700  23343644.96800
        25.00000        15.00000
  -4774270.93306  -3720218.27706  23170153.23300  23170152.56500  23170156.62700
        23.00000        25.00000
  -6246251.40607  -4867208.67007  22921653.36400  22921652.72800  22921654.51800
        55.00000        36.00000
 -12094920.87808  -9424613.53907  22370205.08500  22370204.67700  22370204.81200
       108.00000        38.00000
  -7376958.66506  -5748277.18906  24082761.85400  24082761.69900  24082763.91700
        18.00000        12.00000
 -22911905.14009 -17853429.62308  19911539.51900  19911539.60400  19911539.84300
       332.00000       250.00000
 -24846937.05208 -19361251.41708  20737121.33800  20737120.72800  20737119.61200
       265.00000       147.00000
   -215216.93900   -167701.81905  25194388.70700  25194387.12700  25194389.99800
        -1.00000         4.00000
    -79289.59004    -61783.91505  24628004.68300  24628003.43400  24628005.46400
         3.00000         5.00000
 04  8 23  0  3 30.0000000  0 11G29G15G 6G17G10G18G 8G26G21G 3G 9
 -18526586.24208 -14436299.13108  20752599.53000  20752598.88700  20752598.56500
       243.00000       186.00000
  -3421795.80405  -2666334.57805  24195632.67100  24195632.40400  24195635.24900
         5.00000         9.00000
  -9654339.79506  -7522871.87906  23360796.94900  23360796.64100  23360798.83000
        30.00000        19.00000
  -4670725.46806  -3639533.57606  23189857.41500  23189856.62200  23189859.67300
        27.00000        18.00000
  -6161198.22707  -4800933.53007  22937838.61200  22937838.14700  22937839.43700
        60.00000        34.00000
 -12171137.74408  -9484003.29007  22355700.66000  22355700.94900  22355700.88000
       109.00000        37.00000
  -7325565.19406  -5708230.33605  24092541.56400  24092541.66900  24092543.61700
        17.00000         9.00000
 -22892565.28709 -17838359.61208  19915219.94600  19915219.97800  19915220.05100
       334.00000       249.00000
 -24897942.10908 -19400995.61808  20727415.40000  20727414.96100  20727413.65600
       272.00000       146.00000
   -278852.44700   -217287.94105  25182282.48600  25182282.41400  25182281.68200
        -1.00000         6.00000
   -198258.17704   -154486.64105  24605365.88800  24605363.34600  24605366.22600
         3.00000         5.00000
 04  8 23  0  4  0.0000000  0 11G29G15G 6G17G10G18G 8G26G21G 3G 9
 -18484558.12508 -14403549.95108  20760596.63500  20760596.28300  20760596.41600
       239.00000       185.00000
  -3532303.70305  -2752444.60805  24174604.74600  24174603.67600  24174606.13500
         7.00000         8.00000
  -9564033.51106  -7452503.42506  23377981.16500  23377980.64700  23377983.49300
        31.00000        17.00000
  -4566971.26906  -3558686.19706  23209601.57900  23209600.95500  23209603.76400
        27.00000        18.00000
  -6076060.13207  -4734592.20707  22954038.87700  22954038.50000  22954041.16500
        54.00000        36.00000
 -12247225.46308  -9543292.39707  22341222.65000  22341222.24500  22341221.44400
       117.00000        35.00000
  -7273686.10206  -5667805.10605  24102414.01100  24102413.73200  24102416.00600
        20.00000         9.00000
 -22872659.04709 -17822848.26208  19919008.20500  19919008.17700  19919008.00800
       346.00000       247.00000
 -24948526.30608 -19440411.86808  20717789.36200  20717788.85800  20717787.81000
       265.00000       148.00000
   -342103.89400   -266574.79905  25170245.34000  25170244.13200  25170244.53800
        -1.00000         4.00000
   -317282.81705   -247233.03005  24582714.68300  24582713.52000  24582715.88000
         4.00000         5.00000
 04  8 23  0  4 30.0000000  0 11G29G15G 6G17G10G18G 8G26G21G 3G 9
 -18442051.29208 -14370427.74808  20768685.34600  20768685.05100  20768684.93900
       239.00000       181.00000
  -3642677.77905  -2838450.37405  24153600.38900  24153600.36700  24153602.77700
         7.00000        10.00000
  -9473481.85306  -7381943.76106  23395212.16900  23395212.15900  23395213.93000
        24.00000        11.00000
  -4462925.49706  -3477611.66406  23229401.55400  23229400.69400  23229404.18700
        26.00000        26.00000
  -5990753.39207  -4668119.47507  22970273.04500  22970272.08100  22970274.19700
        53.00000        33.00000
 -12323098.66308  -9602414.32607  22326784.77800  22326784.31400  22326783.52200
       117.00000        37.00000
  -7221238.25006  -5626936.66506  24112394.68000  24112394.76300  24112397.12000
        22.00000        11.00000
 -22852103.44309 -17806830.91408  19922919.90600  19922919.74300  19922919.65200
       342.00000       244.00000
 -24998602.84508 -19479432.53908  20708260.35900  20708259.78700  20708258.56500
       266.00000       150.00000
   -404884.90000   -315495.01604  25158297.02800  25158297.78700  25158304.34600
        -2.00000         3.00000
   -436275.80605   -339954.77805  24560071.11200  24560070.06200  24560072.11100
         6.00000         6.00000
 04  8 23  0  5  0.0000000  0 11G29G15G 6G17G10G18G 8G26G21G 3G 9
 -18399083.63708 -14336946.47008  20776860.96200  20776861.42500  20776861.35200
       242.00000       175.00000
  -3752931.88105  -2924362.61406  24132620.30600  24132620.11400  24132621.94900
         8.00000        12.00000
  -9382703.92106  -7311207.77606  23412488.48900  23412487.97800  23412490.10300
        26.00000        15.00000
  -4358605.74206  -3396323.66406  23249252.13200  23249251.79200  23249254.14400
        28.00000        20.00000
  -5905294.71007  -4601528.33707  22986535.98600  22986535.12900  22986536.10400
        57.00000        33.00000
 -12398772.73908  -9661381.10807  22312383.84500  22312383.74500  22312383.28700
       117.00000        39.00000
  -7168239.89106  -5585639.27405  24122480.04900  24122479.55400  24122482.03900
        21.00000        10.00000
 -22830915.91609 -17790321.16008  19926951.61000  19926951.55700  19926951.56400
       341.00000       245.00000
 -25048185.78808 -19518068.59708  20698825.31300  20698824.71900  20698823.30200
       281.00000       152.00000
   -467209.12200   -364059.35005  25146436.37900  25146438.23300  25146440.17100
        -1.00000         5.00000
   -555250.37405   -432662.18905  24537430.33800  24537430.10500  24537432.22700
         8.00000         7.00000
 04  8 23  0  5 30.0000000  0 11G29G15G 6G17G10G18G 8G26G21G 3G 9
 -18355719.37108 -14303156.14008  20785113.73200  20785113.56500  20785113.32500
       245.00000       176.00000
  -3863125.95805  -3010228.11205  24111650.56800  24111649.89500  24111652.69200
         9.00000        10.00000
  -9291764.86106  -7240346.28106  23429792.05600  23429791.77600  23429794.74400
        18.00000        13.00000
  -4254076.36206  -3314872.27506  23269143.79600  23269142.77500  23269145.57200
        28.00000        14.00000
  -5819747.06307  -4534867.88407  23002814.56300  23002813.90400  23002815.83600
        58.00000        34.00000
 -12474309.23408  -9720240.68407  22298010.32000  22298009.78300  22298009.15200
       121.00000        40.00000
  -7114754.42206  -5543962.30105  24132657.89600  24132657.42500  24132660.38700
        17.00000        10.00000
 -22809160.32909 -17773368.75808  19931091.93100  19931091.70600  19931091.51000
       344.00000       245.00000
 -25097335.10508 -19556366.76908  20689472.22200  20689471.74000  20689470.37200
       277.00000       152.00000
   -529137.12600   -412314.95805  25134651.00200  25134649.83000  25134653.45000
        -1.00000         5.00000
   -674265.51805   -525401.20505  24514781.76300  24514781.62300  24514785.54100
         8.00000         8.00000
 04  8 23  0  6  0.0000000  0 11G29G15G 6G17G10G18G 8G26G21G 3G 9
 -18311937.37708 -14269040.30008  20793445.83200  20793445.19700  20793444.92800
       243.00000       178.00000
  -3973235.28306  -3096027.57705  24090697.15300  24090697.36400  24090699.21900
        11.00000        10.00000
  -9200644.72706  -7169343.64705  23447132.07000  23447131.16400  23447133.67400
        18.00000         9.00000
  -4149316.11706  -3233240.93406  23289078.29600  23289077.15600  23289081.03100
        19.00000        16.00000
  -5734088.43107  -4468120.95707  23019114.46200  23019113.60800  23019116.35900
        52.00000        34.00000
 -12549684.38408  -9778974.54207  22283666.03100  22283665.89400  22283665.92700
       114.00000        42.00000
  -7060761.26706  -5501889.75505  24142933.52500  24142932.56000  24142934.51500
        17.00000         9.00000
 -22786815.30409 -17755957.05408  19935343.79900  19935343.72300  19935343.62000
       347.00000       245.00000
 -25146026.17708 -19594307.86008  20680206.35000  20680205.82700  20680204.70100
       264.00000       154.00000
   -590643.81300   -460242.22305  25122952.19500  25122950.20100  25122949.26200
          .00000         5.00000
   -793295.49405   -618151.79205  24492132.00900  24492131.75800  24492135.35000
         9.00000         9.00000
 04  8 23  0  6 30.0000000  0 12G29G15G 6G17G10G18G 8G26G21G 3G 9G22
 -18267662.75808 -14234540.60308  20801870.87600  20801870.37100  20801870.22000
       235.00000       178.00000
  -4083180.65306  -3181699.28806  24069776.65800  24069775.82200  24069777.97500
        14.00000        11.00000
  -9109269.74206  -7098142.40105  23464519.71200  23464520.29900  23464520.86600
        23.00000        10.00000
  -4044249.85206  -3151371.24106  23309072.43500  23309071.58500  23309074.79000
        22.00000        20.00000
  -5648242.94307  -4401228.41907  23035450.68600  23035449.98700  23035452.40800
        52.00000        35.00000
 -12624820.74808  -9837522.33607  22269367.51800  22269367.53400  22269367.88200
       107.00000        42.00000
  -7006185.61106  -5459363.30005  24153316.96000  24153317.77400  24153320.18900
        16.00000         9.00000
 -22763805.68109 -17738027.47908  19939722.46300  19939722.23500  19939722.10800
       342.00000       242.00000
 -25194180.03308 -19631830.34008  20671043.11300  20671042.56400  20671041.32500
       268.00000       155.00000
   -651650.42100   -507779.82405  25111336.45800  25111340.15800  25111340.48700
        -2.00000         5.00000
   -912260.53705   -710851.77005  24469495.23800  24469494.30200  24469495.87500
         9.00000         8.00000
         -.45410          .39114  25040605.71400  25040604.60300  25040604.43300
          .00000         1.00000
 04  8 23  0  7  0.0000000  0 11G29G15G 6G17G10G18G 8G26G21G 3G 9
 -18222989.11708 -14199729.97908  20810371.17800  20810371.08100  20810371.33100
       234.00000       180.00000
  -4193051.47506  -3267312.92006  24048868.31600  24048867.85900  24048869.99800
        15.00000        12.00000
  -9017734.66106  -7026816.47006  23481939.66700  23481938.78100  23481941.38400
        13.00000        14.00000
  -3938971.45106  -3069336.19506  23329107.69600  23329106.38100  23329108.88400
        24.00000        22.00000
  -5562302.82107  -4334262.15306  23051806.03900  23051805.15800  23051805.49200
        59.00000        31.00000
 -12699809.15308  -9895954.83607  22255098.34800  22255097.96300  22255097.73900
       114.00000        41.00000
  -6951120.50406  -5416455.43305  24163795.42800  24163795.85400  24163799.70200
        19.00000         9.00000
 -22740224.66309 -17719652.66208  19944209.63600  19944209.52600  19944209.36900
       340.00000       241.00000
 -25241886.14908 -19669003.93408  20661964.82400  20661964.42100  20661963.20900
       277.00000       159.00000
   -712247.41900   -554998.20805  25099807.85000  25099810.01300  25099809.95500
        -1.00000         5.00000
  -1031249.36506   -803570.28405  24446852.34400  24446851.95300  24446853.74400
        11.00000         9.00000
 04  8 23  0  7 30.0000000  0 12G29G15G 6G17G10G18G 8G26G21G 3G 9G22
 -18177893.17908 -14164590.30308  20818952.31600  20818952.61500  20818952.69300
       243.00000       178.00000
  -4302820.72506  -3352847.39606  24027980.44800  24027980.14600  24027981.57000
        16.00000        13.00000
  -8926017.45606  -6955348.63006  23499391.04600  23499391.10700  23499394.54800
        11.00000        15.00000
  -3833457.34206  -2987117.49106  23349182.78600  23349183.10400  23349186.44000
        18.00000        12.00000
  -5476243.68707  -4267203.12707  23068181.15300  23068180.53700  23068182.53900
        50.00000        33.00000
 -12774623.71108  -9954251.86307  22240861.88600  22240861.40200  22240861.11000
       120.00000        41.00000
  -6895542.66606  -5373148.02905  24174372.87600  24174372.64000  24174374.88800
        17.00000         8.00000
 -22716048.77509 -17700814.30508  19948810.10300  19948810.15100  19948809.99600
       342.00000       243.00000
 -25289117.44208 -19705807.54508  20652977.16100  20652976.42600  20652975.41200
       264.00000       160.00000
   -772407.45400   -601876.18005  25088357.69600  25088357.29300  25088358.72000
        -1.00000         4.00000
  -1150234.04306   -896285.55205  24424209.31400  24424208.52400  24424211.82100
        12.00000         9.00000
    -61221.81404    -47704.62604  25005651.22300  25005650.03400  25005649.70500
         2.00000         3.00000
 04  8 23  0  8  0.0000000  0 12G29G15G 6G17G10G18G 8G26G21G 3G 9G22
 -18132384.70508 -14129129.16108  20827612.82300  20827612.79000  20827612.58400
       246.00000       174.00000
  -4412493.66206  -3438306.79906  24007110.01600  24007109.52800  24007111.44100
        16.00000        12.00000
  -8834128.50506  -6883746.93106  23516877.50900  23516877.17100  23516880.58500
        12.00000        11.00000
  -3727717.26706  -2904722.69006  23369306.58900  23369305.42200  23369308.91500
        20.00000        14.00000
  -5390074.19007  -4200058.11507  23084578.32900  23084577.93500  23084580.31700
        50.00000        33.00000
 -12849271.57808 -10012418.99307  22226656.92100  22226656.41100  22226655.62900
       122.00000        40.00000
  -6839461.86106  -5329448.71805  24185046.27500  24185045.01800  24185046.94000
        14.00000         8.00000
 -22691287.39209 -17681519.71108  19953522.20800  19953522.01900  19953521.95800
       333.00000       244.00000
 -25335879.64508 -19742245.61508  20644078.32900  20644077.78700  20644076.95800
       257.00000       164.00000
   -832136.20600   -648418.09305  25076992.52700  25076990.88900  25076994.24700
        -1.00000         4.00000
  -1269219.18206   -989001.19305  24401566.55700  24401566.13800  24401568.70200
        12.00000         8.00000
   -153028.45100   -119242.28905  24988179.26900  24988179.46800  24988175.89400
          .00000         4.00000
 04  8 23  0  8 30.0000000  0 12G29G15G 6G17G10G18G 8G26G21G 3G 9G22
 -18086427.43208 -14093318.30408  20836358.59600  20836358.27200  20836357.94700
       239.00000       173.00000
  -4522029.87006  -3523659.68406  23986265.56600  23986264.96200  23986267.91300
        14.00000        14.00000
  -8742032.76106  -6811984.06206  23534403.40900  23534402.86900  23534405.10000
        13.00000        11.00000
  -3621714.94406  -2822123.56506  23389478.96900  23389478.29900  23389481.42400
        25.00000        22.00000
  -5303756.84307  -4132797.90906  23101005.42600  23101004.50300  23101005.80300
        53.00000        31.00000
 -12923714.02708 -10070426.05607  22212491.52900  22212490.46800  22212489.52800
       122.00000        40.00000
  -6782842.15206  -5285329.47305  24195817.95400  24195818.25200  24195822.07400
        12.00000         9.00000
 -22665904.03909 -17661740.47808  19958352.47700  19958352.29500  19958352.23100
       333.00000       246.00000
 -25382132.62708 -19778286.90108  20635276.81800  20635276.41500  20635275.16900
       273.00000       163.00000
   -891393.87704   -694592.90205  25065716.97700  25065718.45000  25065718.83200
         1.00000         5.00000
  -1388163.75806  -1081685.24405  24378932.17300  24378932.01300  24378934.42300
        13.00000         9.00000
   -244769.65900   -190729.02505  24970720.61400  24970719.93600  24970718.93900
          .00000         4.00000
 04  8 23  0  9  0.0000000  0 12G29G15G 6G17G10G18G 8G26G21G 3G 9G22
 -18040045.92308 -14057176.87608  20845184.83300  20845184.30200  20845184.09500
       230.00000       173.00000
  -4631449.73506  -3608921.89606  23965443.67300  23965444.19000  23965445.96700
        15.00000        14.00000
  -8649755.93506  -6740080.12105  23551963.02500  23551963.01100  23551965.04900
        14.00000        10.00000
  -3515474.80506  -2739339.15106  23409695.39600  23409694.04600  23409697.76100
        21.00000        20.00000
  -5217315.19707  -4065440.84806  23117454.11000  23117453.12900  23117454.63900
        49.00000        28.00000
 -12997972.50108 -10128289.78207  22198359.74800  22198359.40900  22198358.79100
       120.00000        41.00000
  -6725707.97405  -5240809.38405  24206692.11600  24206691.42600  24206695.17100
        10.00000         9.00000
 -22639923.04909 -17641495.54708  19963296.62500  19963296.35800  19963296.27300
       336.00000       248.00000
 -25427896.98908 -19813947.44408  20626568.36700  20626567.91200  20626566.57900
       279.00000       169.00000
   -950200.98504   -740416.68605  25054526.84200  25054526.56800  25054527.07700
         3.00000         4.00000
  -1507087.18006  -1174352.82306  24356301.93400  24356302.02300  24356305.18700
        14.00000        12.00000
   -336467.54504   -262181.91805  24953269.95200  24953268.33900  24953268.60700
         2.00000         4.00000
 04  8 23  0  9 30.0000000  0 12G29G15G 6G17G10G18G 8G26G21G 3G 9G22
 -17993279.01408 -14020735.13508  20854084.04700  20854083.69700  20854083.49300
       235.00000       172.00000
  -4740788.10706  -3694120.60906  23944638.16900  23944637.28800  23944639.76500
        11.00000        12.00000
  -8557337.91306  -6668066.13706  23569549.09400  23569549.70300  23569552.02300
        17.00000        13.00000
  -3409035.63106  -2656399.61406  23429947.83100  23429947.28800  23429951.47900
        13.00000        13.00000
  -5130786.96407  -3998016.27807  23133919.61800  23133918.54000  23133921.17400
        45.00000        32.00000
 -13072083.48008 -10186038.55207  22184256.62500  22184255.96000  22184256.46600
       116.00000        47.00000
  -6668097.78706  -5195918.35205  24217655.21000  24217654.52400  24217657.01100
        12.00000         9.00000
 -22613383.07409 -17620815.04708  19968346.88100  19968346.72200  19968346.72800
       338.00000       249.00000
 -25473207.61208 -19849254.42108  20617945.87400  20617945.28500  20617944.23800
       266.00000       170.00000
  -1008592.64105   -785916.68005  25043413.33500  25043414.83100  25043415.22300
         4.00000         4.00000
  -1626023.29106  -1267030.26006  24333667.47700  24333667.87500  24333672.17400
        13.00000        15.00000
   -428158.66705   -333629.59305  24935822.13400  24935822.46200  24935820.89900
         5.00000         6.00000
 04  8 23  0 10  0.0000000  0 12G29G15G 6G17G10G18G 8G26G21G 3G 9G22
 -17946117.48708 -13983985.90308  20863058.72700  20863058.38400  20863058.05200
       239.00000       170.00000
  -4850031.35705  -3779245.17905  23923850.39700  23923848.69800  23923850.57200
         9.00000         9.00000
  -8464770.41505  -6595935.74606  23587165.21600  23587164.15600  23587167.55700
        10.00000        13.00000
  -3302388.34506  -2573297.89306  23450243.96900  23450243.18200  23450245.53800
        20.00000        11.00000
  -5044161.89807  -3930516.29606  23150404.10700  23150403.33500  23150404.55700
        50.00000        25.00000
 -13146035.13808 -10243663.19507  22170183.79600  22170183.67400  22170183.96400
       113.00000        50.00000
  -6610002.72506  -5150649.49605  24228711.53100  24228710.67500  24228712.18500
        13.00000         9.00000
 -22586274.63509 -17599691.58908  19973505.37000  19973505.12100  19973505.27000
       327.00000       249.00000
 -25518051.59608 -19884197.78408  20609412.52000  20609411.91900  20609410.72200
       270.00000       171.00000
  -1066555.90805   -831082.88304  25032385.08600  25032385.07000  25032385.25300
         6.00000         3.00000
  -1744958.13005  -1359706.68206  24311034.50600  24311034.68800  24311039.64700
         8.00000        14.00000
   -519831.16004   -405062.76505  24918377.55900  24918377.57800  24918376.27200
         3.00000         5.00000
 04  8 23  0 10 30.0000000  0 12G29G15G 6G17G10G18G 8G26G21G 3G 9G22
 -17898518.31308 -13946895.64708  20872116.42400  20872116.22200  20872115.90600
       244.00000       170.00000
  -4959132.35205  -3864258.93905  23903088.61400  23903088.43500  23903089.81200
         9.00000        10.00000
  -8372011.78806  -6523656.41405  23604815.89100  23604815.99800  23604818.95900
        12.00000        10.00000
  -3195489.72506  -2490000.27606  23470586.50300  23470585.82300  23470588.95300
        19.00000        15.00000
  -4957395.76907  -3862906.37206  23166914.82800  23166913.87700  23166915.90500
        44.00000        27.00000
 -13219781.74608 -10301128.05507  22156150.27700  22156150.50200  22156150.26100
       115.00000        52.00000
  -6551379.89006  -5104969.38205  24239866.59100  24239866.40600  24239868.49700
        15.00000         9.00000
 -22558554.74609 -17578091.67508  19978779.95800  19978779.96600  19978780.19500
       330.00000       247.00000
 -25562382.08908 -19918741.02608  20600976.40900  20600976.20600  20600974.79900
       280.00000       169.00000
  -1124044.11105   -875878.94704  25021445.58700  25021445.33700  25021446.15800
         8.00000         3.00000
  -1863843.71906  -1452344.74106  24288412.22100  24288412.91000  24288416.75400
        13.00000        12.00000
   -611439.61005   -476446.05505  24900945.70500  24900945.16900  24900944.28900
         4.00000         4.00000
 04  8 23  0 11  0.0000000  0 12G29G15G 6G17G10G18G 8G26G21G 3G 9G22
 -17850496.74108 -13909476.24108  20881254.27100  20881254.29700  20881254.27200
       240.00000       171.00000
  -5068102.24905  -3949170.50105  23882353.15700  23882351.82500  23882352.97800
         9.00000         8.00000
  -8279078.10106  -6451240.62505  23622502.65200  23622502.12900  23622502.95300
        14.00000         7.00000
  -3088354.95306  -2406518.73306  23490973.36400  23490973.07900  23490976.95000
        16.00000        23.00000
  -4870502.27507  -3795197.21006  23183449.63200  23183449.17700  23183451.13900
        42.00000        25.00000
 -13293335.94108 -10358442.98107  22142153.53600  22142153.24800  22142153.34000
       118.00000        50.00000
  -6492244.55606  -5058889.91905  24251120.89700  24251119.64400  24251120.25400
        12.00000         8.00000
 -22530238.29609 -17556026.91108  19984168.75300  19984168.63700  19984168.56000
       337.00000       246.00000
 -25606210.14708 -19952892.76008  20592636.44900  20592635.83700  20592634.52800
       260.00000       170.00000
  -1181069.10005   -920313.97504  25010593.90900  25010593.66800  25010595.75000
         8.00000         2.00000
  -1982690.39106  -1544952.48906  24265797.80600  24265797.36100  24265800.49300
        13.00000        11.00000
   -702997.15805   -547789.64905  24883523.85400  24883523.40000  24883521.58800
         7.00000         5.00000
 04  8 23  0 11 30.0000000  0 12G29G15G 6G17G10G18G 8G26G21G 3G 9G22
 -17802042.18408 -13871719.44708  20890474.86000  20890474.73700  20890474.92500
       231.00000       172.00000
  -5176926.11905  -4033968.32705  23861643.81800  23861642.89500  23861644.24900
        10.00000         8.00000
  -8185959.82806  -6378680.99605  23640221.12400  23640220.18800  23640221.76100
        13.00000         6.00000
  -2980973.34306  -2322844.84706  23511407.08900  23511406.77600  23511410.58100
        18.00000        21.00000
  -4783469.73907  -3727379.72306  23200011.83500  23200011.47300  23200013.24600
        47.00000        28.00000
 -13366684.41208 -10415597.61807  22128195.98300  22128195.83900  22128195.78400
       135.00000        53.00000
  -6432585.91405  -5012402.68805  24262472.38900  24262471.83900  24262474.11600
        10.00000        10.00000
 -22501314.43609 -17533488.83308  19989672.65200  19989672.61600  19989672.62200
       334.00000       244.00000
 -25649521.24608 -19986641.65808  20584393.97000  20584393.52600  20584392.71000
       248.00000       169.00000
  -1237616.15305   -964376.63804  24999834.53000  24999833.75100  24999834.41000
         8.00000         1.00000
  -2101482.25706  -1637517.54705  24243192.41000  24243192.10400  24243194.64100
        16.00000        10.00000
   -794490.37105   -619083.06405  24866112.42700  24866112.76000  24866110.85000
         8.00000         6.00000
 04  8 23  0 12  0.0000000  0 11G29G15G 6G17G10G18G 8G26G21G 9G22
 -17753156.51308 -13833626.72708  20899777.74000  20899777.40600  20899777.56200
       226.00000       170.00000
  -5285601.31006  -4118650.27005  23840962.91200  23840962.76500  23840964.46200
        14.00000        10.00000
  -8092659.82106  -6305979.75705  23657975.11000  23657974.96000  23657977.17000
        12.00000         8.00000
  -2873346.73906  -2238980.02205  23531886.79600  23531886.38600  23531890.02400
        12.00000        10.00000
  -4696298.97307  -3659454.51506  23216599.80300  23216598.98000  23216600.89300
        38.00000        23.00000
 -13439826.21908 -10472591.20407  22114278.35500  22114277.74800  22114277.14700
       134.00000        53.00000
  -6372405.86105  -4965509.19206  24273922.82200  24273922.91800  24273926.07800
         9.00000        11.00000
 -22471784.83009 -17510478.74908  19995291.81500  19995291.90500  19995291.84100
       332.00000       242.00000
 -25692313.43308 -20019986.22008  20576251.80200  20576251.10600  20576249.56700
       268.00000       171.00000
  -2220216.01406  -1730037.30206  24220598.56000  24220597.83400  24220599.93700
        21.00000        11.00000
   -885918.57705   -690325.81005  24848714.69400  24848714.30100  24848713.50600
         7.00000         8.00000
 04  8 23  0 12 30.0000000  0 12G29G15G 6G17G10G18G 8G26G21G 9G22G 3
 -17703891.16508 -13795238.15308  20909153.38400  20909152.81100  20909152.34200
       228.00000       169.00000
  -5394175.22606  -4203253.28105  23820302.91700  23820301.98600  23820302.83100
        14.00000         8.00000
  -7999230.55406  -6233177.78805  23675755.53900  23675755.10500  23675757.04900
        18.00000        10.00000
  -2765526.51006  -2154964.30306  23552405.70600  23552405.16800  23552406.90300
        15.00000        11.00000
  -4609040.15107  -3591460.66206  23233204.84200  23233204.07800  23233205.48100
        43.00000        25.00000
 -13512809.87808 -10529461.55807  22100389.41900  22100389.04800  22100388.62700
       138.00000        54.00000
  -6311756.17505  -4918249.71606  24285465.44600  24285464.48500  24285466.69400
         8.00000        11.00000
 -22441700.82809 -17487036.66908  20001017.24900  20001016.96800  20001016.62700
       337.00000       240.00000
 -25734634.33308 -20052963.54308  20568198.17900  20568197.60800  20568196.06800
       266.00000       172.00000
  -2338938.23906  -1822548.08605  24198006.52200  24198005.88700  24198007.57000
        23.00000         9.00000
   -977330.91605   -761556.18805  24831319.60900  24831318.89400  24831318.01100
         5.00000         9.00000
    -37039.73605    -28861.69504  24978576.91100  24978575.89700  24978576.82400
         8.00000         2.00000
 04  8 23  0 13  0.0000000  0 11G29G15G 6G17G10G18G 8G26G21G 9G22
 -17654273.78308 -13756575.26908  20918594.54000  20918594.43300  20918594.01900
       235.00000       165.00000
  -5502671.33006  -4287795.68105  23799655.49700  23799655.62000  23799657.29800
        15.00000        10.00000
  -7905700.67106  -6160297.43005  23693552.61000  23693552.12700  23693554.80700
        12.00000         6.00000
  -2657540.13906  -2070819.13306  23572953.68600  23572953.57900  23572957.31300
        15.00000        15.00000
  -4521719.77007  -3523418.90206  23249821.10800  23249820.48600  23249823.06000
        38.00000        28.00000
 -13585660.29408 -10586228.09707  22086527.24000  22086526.37200  22086524.84100
       145.00000        47.00000
  -6250664.75205  -4870646.04906  24297089.87300  24297089.55700  24297092.58900
        10.00000        11.00000
 -22411089.98109 -17463184.05608  20006842.12200  20006842.00300  20006841.77800
       338.00000       241.00000
 -25776507.60708 -20085592.06708  20560229.74900  20560229.17100  20560228.04000
       262.00000       177.00000
  -2457671.82606  -1915067.76405  24175411.44300  24175411.33200  24175413.78700
        24.00000         8.00000
  -1068752.57705   -832793.83705  24813920.72000  24813920.47200  24813920.39000
         4.00000        10.00000
 04  8 23  0 13 30.0000000  0 12G29G15G 6G17G10G18G 8G26G21G 9G22G 3
 -17604163.04108 -13717527.95008  20928130.08900  20928130.05700  20928129.80500
       233.00000       164.00000
  -5610943.66906  -4372163.70905  23779054.50500  23779053.13300  23779053.75600
        15.00000        10.00000
  -7811929.90605  -6087229.39805  23711396.28000  23711397.18100  23711398.87200
         9.00000         6.00000
  -2549246.26906  -1986434.41506  23593561.44000  23593561.36200  23593565.98200
        14.00000        20.00000
  -4434195.27407  -3455218.05606  23266476.25200  23266475.46200  23266478.36600
        36.00000        29.00000
 -13658233.58308 -10642778.68307  22072716.76800  22072716.22400  22072715.01000
       143.00000        46.00000
  -6188989.98406  -4822587.81706  24308825.95900  24308825.82700  24308828.10800
        11.00000        11.00000
 -22379810.77909 -17438810.65008  20012793.75700  20012793.86200  20012793.93600
       328.00000       238.00000
 -25817788.12408 -20117758.69908  20552374.64000  20552374.03200  20552372.67100
       277.00000       181.00000
  -2576270.25506  -2007482.12006  24152843.36100  24152842.99400  24152845.55300
        22.00000        12.00000
  -1160039.81204   -903926.73906  24796548.48800  24796549.13900  24796550.19700
         3.00000        12.00000
    -18182.65805    -14167.57904  24957663.33900  24957663.06500  24957663.84400
         6.00000         2.00000
 04  8 23  0 14  0.0000000  0 11G29G15G 6G17G10G18G 8G26G21G 9G22
 -17553699.16008 -13678205.45408  20937733.46400  20937732.95500  20937732.87100
       223.00000       162.00000
  -5719128.54106  -4456463.58605  23758468.74200  23758466.80400  23758466.50400
        14.00000        10.00000
  -7718059.44405  -6014083.68705  23729259.91100  23729259.72100  23729261.94400
         6.00000         6.00000
  -2440785.27106  -1901919.47206  23614201.44600  23614201.13700  23614204.89500
        13.00000        16.00000
  -4346605.54607  -3386966.38206  23283144.58600  23283144.06700  23283145.94500
        43.00000        27.00000
 -13730667.50608 -10699220.67307  22058931.81800  22058931.92600  22058931.12800
       130.00000        46.00000
  -6126872.48806  -4774184.58205  24320647.82600  24320647.78200  24320648.31500
        12.00000        10.00000
 -22348003.43409 -17414025.69608  20018846.78600  20018846.47000  20018846.57500
       318.00000       235.00000
 -25858612.29008 -20149569.74008  20544606.18600  20544605.49400  20544604.04900
       283.00000       185.00000
  -2694868.83206  -2099896.56006  24130274.46900  24130273.88300  24130277.67000
        20.00000        18.00000
  -1251330.33505   -975062.21906  24779176.79900  24779176.29800  24779177.54900
         4.00000        11.00000
 04  8 23  0 14 30.0000000  0 11G29G15G 6G17G10G18G 8G26G21G 9G22
 -17502827.77608 -13638565.42508  20947413.69900  20947413.27000  20947413.52400
       220.00000       161.00000
  -5827167.29306  -4540649.57406  23737907.31400  23737906.09000  23737907.65300
        14.00000        12.00000
  -7624036.06905  -5940818.76905  23747150.64200  23747151.58900  23747154.31200
         6.00000         5.00000
  -2332102.61006  -1817231.76606  23634883.03000  23634883.19800  23634886.40400
        16.00000        11.00000
  -4258895.15707  -3318620.68206  23299835.20400  23299834.70500  23299836.87400
        40.00000        28.00000
 -13802904.65408 -10755509.32207  22045186.06700  22045185.68100  22045184.86700
       129.00000        49.00000
  -6064258.01505  -4725394.10205  24332563.42600  24332562.86400  24332564.07600
         9.00000        10.00000
 -22315613.40109 -17388786.70408  20025010.18200  20025010.13100  20025010.29200
       325.00000       236.00000
 -25898921.82508 -20180979.76908  20536935.14000  20536934.59800  20536933.42600
       271.00000       185.00000
  -2813407.98006  -2192264.65806  24107716.64600  24107715.58000  24107719.82100
        14.00000        17.00000
  -1342567.39205  -1046156.01905  24761814.44400  24761815.25500  24761816.17500
         6.00000         9.00000
 04  8 23  0 15  0.0000000  0 11G18G29G15G 6G17G10G 9G 8G26G22G21
 -13874946.74308 -10811645.99807  22031477.06600  22031476.79800  22031475.93000
       138.00000        49.00000
 -17451553.45408 -13598611.41908  20957170.78700  20957170.61400  20957170.76300
       222.00000       164.00000
  -5935059.88806  -4624721.71106  23717375.13000  23717374.82100  23717376.08300
        16.00000        12.00000
  -7529865.32605  -5867439.05105  23765073.04000  23765071.28100  23765074.93200
         6.00000         6.00000
  -2223202.78005  -1732374.82606  23655605.91100  23655605.01900  23655609.82100
         9.00000        15.00000
  -4171067.49407  -3250183.62806  23316548.70700  23316547.98500  23316550.71700
        40.00000        29.00000
  -2931887.36806  -2284586.19606  24085170.69400  24085170.15600  24085173.38000
        18.00000        12.00000
  -6001150.88505  -4676219.76505  24344573.00300  24344570.99900  24344573.56400
         7.00000        10.00000
 -22282645.15009 -17363097.15508  20031283.93100  20031283.96400  20031283.92700
       329.00000       236.00000
  -1433752.94705  -1117209.66705  24744463.15300  24744463.69600  24744462.84900
         7.00000         7.00000
 -25938717.58008 -20211989.44408  20529362.63200  20529361.91900  20529360.56500
       269.00000       187.00000
 04  8 23  0 15 30.0000000  0 11G18G29G15G 6G17G10G 9G 8G26G22G21
 -13946797.95908 -10867633.93707  22017804.77900  22017804.11200  22017803.28000
       134.00000        50.00000
 -17399882.85708 -13558348.63008  20967003.72700  20967003.40300  20967003.19400
       225.00000       161.00000
  -6042808.91706  -4708681.95106  23696871.01100  23696870.55600  23696872.42200
        13.00000        13.00000
  -7435554.74105  -5793950.37305  23783020.49000  23783020.14600  23783021.10000
         5.00000         7.00000
  -2114092.49906  -1647353.96106  23676369.06900  23676369.32200  23676372.64100
        15.00000        13.00000
  -4083127.69707  -3181659.17206  23333283.56900  23333282.20700  23333284.21700
        39.00000        26.00000
  -3050308.38506  -2376862.35306  24062635.31800  24062635.93500  24062638.70800
        18.00000        11.00000
  -5937558.39205  -4626667.18905  24356672.37100  24356671.58100  24356673.36500
         9.00000        10.00000
 -22249105.47609 -17336962.34308  20037666.61100  20037666.50800  20037666.25600
       327.00000       232.00000
  -1524891.19306  -1188226.47205  24727123.19000  24727122.58500  24727120.54500
        12.00000         8.00000
 -25978002.21008 -20242600.84708  20521887.03700  20521886.38000  20521884.83700
       272.00000       187.00000
 04  8 23  0 16  0.0000000  0 11G18G29G15G 6G17G10G 9G 8G26G22G21
 -14018453.15508 -10923469.14307  22004168.54500  22004168.05200  22004167.61300
       135.00000        54.00000
 -17347813.68308 -13517775.25808  20976911.89200  20976911.78000  20976911.74800
       226.00000       160.00000
  -6150407.50506  -4792524.97706  23676396.56300  23676395.85000  23676397.28900
        18.00000        14.00000
  -7341102.88905  -5720351.66405  23800991.30300  23800990.76600  23800994.44200
         4.00000         6.00000
  -2004769.09606  -1562166.99706  23697173.96200  23697172.57400  23697177.08400
        12.00000        15.00000
  -3995072.11707  -3113044.48906  23350038.77600  23350038.45500  23350041.48900
        39.00000        28.00000
  -3168663.53705  -2469087.09406  24040113.59900  24040113.02000  24040116.65400
         9.00000        14.00000
  -5873478.38405  -4576734.74305  24368866.61400  24368865.41300  24368867.57100
        10.00000        10.00000
 -22214991.60909 -17310380.10408  20044157.90200  20044157.92700  20044157.87500
       327.00000       231.00000
  -1615977.21406  -1259202.54605  24709789.34400  24709789.31400  24709788.21300
        18.00000        10.00000
 -26016769.43908 -20272809.08408  20514509.39700  20514508.78400  20514507.90700
       258.00000       193.00000
 04  8 23  0 16 30.0000000  0 12G18G29G15G 6G17G10G 9G 8G26G22G21G 3
 -14089912.41908 -10979151.66307  21990570.35900  21990569.94600  21990569.78600
       146.00000        58.00000
 -17295348.87008 -13476893.59808  20986896.24400  20986895.68600  20986895.40300
       222.00000       158.00000
  -6257854.20706  -4876249.66306  23655949.71200  23655949.12300  23655950.96600
        18.00000        16.00000
  -7246513.87805  -5646646.03405  23818992.57200  23818992.98700  23818994.13400
         8.00000         6.00000
  -1895235.65306  -1476816.37706  23718015.65200  23718016.37200  23718019.92300
        15.00000        13.00000
  -3906902.64207  -3044341.07806  23366818.31700  23366817.42100  23366818.87400
        42.00000        25.00000
  -3286950.79506  -2561258.89306  24017606.13800  24017605.47500  24017607.23000
        11.00000        16.00000
  -5808914.06706  -4526424.92906  24381152.77200  24381151.91200  24381154.74700
        13.00000        11.00000
 -22180306.61109 -17283352.82308  20050758.36700  20050758.31300  20050758.22700
       325.00000       232.00000
  -1707011.46006  -1330138.30405  24692464.19000  24692464.86200  24692463.52700
        14.00000         8.00000
 -26055018.40008 -20302613.46108  20507230.80700  20507230.23800  20507229.21600
       251.00000       190.00000
    -17237.73105    -13432.06104  24897067.36200  24897066.17900  24897066.55900
         6.00000         1.00000
 04  8 23  0 17  0.0000000  0 11G18G29G15G 6G17G10G 9G 8G26G22G21
 -14161202.60808 -11034702.43507  21977004.62000  21977003.97400  21977003.82600
       157.00000        61.00000
 -17242518.29708 -13435726.92508  20996949.33900  20996948.86300  20996948.61300
       215.00000       154.00000
  -6365174.43706  -4959875.78106  23635526.93400  23635526.27400  23635528.27300
        17.00000        16.00000
  -7151818.22605  -5572857.20305  23837012.42100  23837012.53700  23837015.03900
         9.00000         6.00000
  -1785521.76905  -1391325.13605  23738895.51000  23738894.09500  23738897.67200
        10.00000        10.00000
  -3818647.72607  -2975571.09306  23383612.16000  23383610.95900  23383613.92800
        38.00000        27.00000
  -3405194.70606  -2653396.97206  23995104.10500  23995103.87600  23995106.04700
        21.00000        15.00000
  -5743894.23206  -4475760.13206  24393525.65400  24393524.86300  24393526.67900
        14.00000        11.00000
 -22145080.32409 -17255903.76308  20057461.76100  20057461.81500  20057461.61300
       325.00000       233.00000
  -1798021.23106  -1401055.02305  24675146.40200  24675146.06200  24675145.27800
        14.00000         9.00000
 -26092775.35408 -20332034.46708  20500046.21200  20500045.57500  20500044.22900
       260.00000       190.00000
 04  8 23  0 17 30.0000000  0 11G18G29G15G 6G17G10G 9G 8G26G22G21
 -14232298.42208 -11090101.75107  21963475.42200  21963474.92400  21963474.20900
       163.00000        58.00000
 -17189299.38908 -13394257.65608  21007076.49300  21007076.09600  21007075.85200
       216.00000       151.00000
  -6472341.66606  -5043382.69706  23615134.68000  23615133.74300  23615134.81500
        19.00000        14.00000
  -7056994.93605  -5498969.00505  23855057.06300  23855057.00700  23855059.77300
         8.00000         8.00000
  -1675605.16006  -1305675.93206  23759812.85400  23759812.41100  23759814.68800
        18.00000        14.00000
  -3730283.81607  -2906716.15506  23400428.23200  23400427.07900  23400428.80300
        41.00000        23.00000
  -3523368.02006  -2745480.04406  23972616.49100  23972615.89200  23972618.19600
        19.00000        12.00000
  -5678398.03306  -4424724.15506  24405988.08000  24405988.11200  24405989.88300
        14.00000        11.00000
 -22109290.29409 -17228015.42208  20064272.16600  20064272.17500  20064272.37900
       320.00000       237.00000
  -1888981.68206  -1471933.26605  24657835.72700  24657835.34900  24657836.85300
        12.00000         9.00000
 -26130014.03208 -20361051.62208  20492959.64600  20492959.06400  20492957.96800
       253.00000       190.00000
 04  8 23  0 18  0.0000000  0 12G18G29G15G 6G17G10G 9G 8G26G22G21G 3
 -14303194.40708 -11145345.35307  21949984.22400  21949983.75200  21949983.36900
       164.00000        59.00000
 -17135689.22308 -13352483.51308  21017278.04500  21017277.75900  21017277.48500
       219.00000       150.00000
  -6579348.27106  -5126764.46406  23594771.47500  23594770.77300  23594772.24200
        17.00000        17.00000
  -6962041.64605  -5424979.54305  23873124.60400  23873125.38500  23873127.29900
         7.00000         7.00000
  -1565482.81706  -1219866.42206  23780767.97100  23780766.68600  23780769.43800
        13.00000        12.00000
  -3641806.49407  -2837772.85406  23417264.12200  23417262.95000  23417265.33700
        38.00000        24.00000
  -3641462.36206  -2837501.58806  23950142.50700  23950142.37300  23950145.51300
        16.00000        12.00000
  -5612422.07606  -4373314.34506  24418544.75100  24418543.15500  24418546.06100
        13.00000        12.00000
 -22072933.41109 -17199685.37908  20071190.88700  20071190.66700  20071190.92300
       319.00000       237.00000
  -1979887.20806  -1542768.69305  24640538.70500  24640538.60700  24640536.75100
        13.00000         9.00000
 -26166727.49308 -20389659.51608  20485973.24100  20485972.77800  20485971.69100
       256.00000       193.00000
         -.69015         -.40314  24867977.43000  24867977.17000  24867976.56200
         5.00000         2.00000
 04  8 23  0 18 30.0000000  0 11G18G29G15G 6G17G10G 9G 8G26G22G21
 -14373885.42508 -11200429.23607  21936532.49500  21936531.98800  21936531.12600
       165.00000        62.00000
 -17081685.57508 -13310402.75308  21027554.54200  21027554.36600  21027554.28000
       220.00000       152.00000
  -6686187.43506  -5210015.72406  23574439.34000  23574439.68600  23574441.39200
        12.00000        18.00000
  -6866957.09904  -5350887.77505  23891219.45200  23891219.02900  23891221.48500
         3.00000         7.00000
  -1455152.15406  -1133894.57806  23801762.40200  23801761.78000  23801764.90500
        11.00000        11.00000
  -3553212.06107  -2768738.30906  23434122.86200  23434122.33900  23434124.49000
        37.00000        22.00000
  -3759470.13106  -2929455.65006  23927687.74800  23927687.29600  23927689.19000
        25.00000        15.00000
  -5545964.01906  -4321528.87906  24431187.32700  24431189.20800  24431191.82300
        11.00000        11.00000
 -22036007.43909 -17170911.88908  20078217.31500  20078217.42700  20078217.54500
       322.00000       233.00000
  -2070732.89206  -1613557.47905  24623251.52300  24623250.97400  24623248.58300
        17.00000         8.00000
 -26202909.52308 -20417853.31008  20479088.57400  20479087.88300  20479086.45800
       268.00000       195.00000
 04  8 23  0 19  0.0000000  0 12G18G29G15G 6G17G10G 9G 8G26G22G21G 3
 -14444387.78508 -11255366.12407  21923115.91500  21923115.54500  21923114.74800
       154.00000        61.00000
 -17027307.73808 -13268030.42208  21037902.27600  21037902.01400  21037901.97100
       213.00000       152.00000
  -6792874.09606  -5293148.14506  23554137.28800  23554136.98600  23554139.96600
        11.00000        16.00000
  -6771761.52905  -5276709.51105  23909335.77400  23909334.91300  23909337.66200
         5.00000         7.00000
  -1344632.50306  -1047775.48806  23822793.62000  23822793.00600  23822797.41000
        14.00000        12.00000
  -3464518.53307  -2699626.52406  23451001.19400  23450999.78600  23451002.32000
        34.00000        21.00000
  -3877405.50407  -3021353.28506  23905245.90400  23905245.61600  23905247.27600
        32.00000        18.00000
  -5479043.74806  -4269383.22506  24443924.36300  24443923.38200  24443925.65600
        13.00000        11.00000
 -21998531.67609 -17141709.99208  20085349.09800  20085349.03400  20085348.77200
       329.00000       230.00000
  -2161535.74106  -1684312.92605  24605972.13400  24605971.62700  24605970.46800
        25.00000         9.00000
 -26238576.02308 -20445645.39808  20472300.95900  20472300.66400  20472299.45700
       270.00000       199.00000
    -16461.88905    -12827.14204  24849043.48500  24849042.73800  24849044.97400
         5.00000         3.00000
 04  8 23  0 19 30.0000000  0 12G18G29G15G 6G17G10G 9G 8G26G22G21G 3
 -14514690.53908 -11310147.46507  21909737.63500  21909737.22300  21909736.86600
       147.00000        63.00000
 -16972547.42408 -13225360.05608  21048322.58000  21048322.41100  21048322.52900
       211.00000       150.00000
  -6899395.59406  -5376151.88906  23533868.27100  23533867.70400  23533869.46900
        13.00000        19.00000
  -6676447.71005  -5202439.07805  23927472.75800  23927472.22100  23927473.88900
         9.00000         6.00000
  -1233915.53706   -961502.62805  23843862.03100  23843862.41400  23843865.64400
        16.00000         9.00000
  -3375716.64707  -2630430.30706  23467899.32500  23467898.33400  23467900.82200
        32.00000        23.00000
  -3995255.22606  -3113184.15406  23882818.64100  23882818.29700  23882820.96900
        19.00000        17.00000
  -5411653.53006  -4216871.38505  24456748.03300  24456746.96500  24456749.19400
        14.00000        10.00000
 -21960497.87309 -17112073.25708  20092586.83400  20092586.66500  20092586.49000
       327.00000       231.00000
  -2252284.81406  -1755026.49405  24588703.85600  24588703.60500  24588701.78600
        30.00000         7.00000
 -26273714.66508 -20473026.15708  20465614.51700  20465613.91800  20465612.86300
       263.00000       202.00000
    -65487.48005    -51028.95404  24839715.91100  24839715.25900  24839716.29700
         6.00000         3.00000
 04  8 23  0 20  0.0000000  0 12G18G29G15G 6G17G10G 9G 8G26G22G21G 3
 -14584766.60108 -11364752.17707  21896402.23300  21896402.03100  21896401.55400
       150.00000        61.00000
 -16917380.56408 -13182372.90508  21058820.64100  21058820.38300  21058820.49100
       212.00000       151.00000
  -7005723.38406  -5459004.66306  23513634.29800  23513633.98200  23513635.74100
        14.00000        18.00000
  -6580992.12505  -5128058.14405  23945636.98200  23945636.58600  23945640.19100
         8.00000         7.00000
  -1122977.10106   -875057.14906  23864976.38900  23864974.39800  23864976.52800
        12.00000        11.00000
  -3286780.62907  -2561129.55306  23484823.36500  23484822.71900  23484824.18400
        35.00000        21.00000
  -4112989.93206  -3204925.38806  23860413.77600  23860413.21200  23860416.22000
        18.00000        14.00000
  -5343769.02206  -4163974.39405  24469666.14800  24469665.96500  24469667.52500
        16.00000        10.00000
 -21921881.76709 -17081982.78608  20099935.02300  20099934.85800  20099935.11100
       323.00000       234.00000
  -2342953.21306  -1825677.19205  24571449.66100  24571449.39700  24571447.58500
        24.00000         8.00000
 -26308297.58808 -20499973.89008  20459033.77800  20459033.21300  20459031.98800
       267.00000       204.00000
   -113999.63905    -88830.69805  24830482.50600  24830482.34500  24830485.11700
         5.00000         5.00000
 04  8 23  0 20 30.0000000  0 12G18G29G15G 6G17G10G 9G 8G26G22G21G 3
 -14654662.29408 -11419216.33607  21883101.33400  21883101.42700  21883101.18800
       161.00000        63.00000
 -16861856.03608 -13139107.05208  21069387.02000  21069386.56800  21069386.54200
       213.00000       149.00000
  -7111901.97905  -5541741.20406  23493430.08900  23493429.20500  23493430.45400
        10.00000        18.00000
  -6485445.19605  -5053606.06905  23963818.50700  23963818.84600  23963821.47400
         7.00000         7.00000
  -1011866.31506   -788477.44906  23886118.00700  23886116.66000  23886120.59900
        11.00000        12.00000
  -3197758.44006  -2491761.68106  23501763.85000  23501762.88100  23501765.21600
        31.00000        23.00000
  -4230653.64406  -3296611.31406  23838023.41700  23838022.93500  23838025.65200
        21.00000        14.00000
  -5275439.50006  -4110730.60405  24482669.64800  24482669.27600  24482669.31000
        20.00000        10.00000
 -21882732.70909 -17051477.02908  20107384.97700  20107384.85200  20107384.91100
       330.00000       231.00000
  -2433587.78506  -1896301.49305  24554201.53400  24554201.57400  24554200.47300
        17.00000         8.00000
 -26342370.27608 -20526524.03608  20452549.56900  20452549.14400  20452547.99200
       265.00000       202.00000
   -162044.23505   -126268.04105  24821340.28300  24821339.47100  24821341.94900
         5.00000         5.00000
 04  8 23  0 21  0.0000000  0 12G18G29G15G 6G17G10G 9G 8G26G22G21G 3
 -14724361.84008 -11473527.65607  21869838.57400  21869838.14200  21869837.52900
       172.00000        61.00000
 -16805960.77908 -13095552.31708  21080023.60200  21080023.17000  21080023.00300
       218.00000       145.00000
  -7217913.91806  -5624347.86106  23473256.00600  23473254.70400  23473257.23700
        11.00000        20.00000
  -6389794.56405  -4979073.23305  23982022.01000  23982021.08600  23982022.97500
         8.00000         5.00000
   -900569.89006   -701753.08106  23907295.92400  23907295.29700  23907299.05300
        11.00000        11.00000
  -3108635.50307  -2422315.29406  23518723.57400  23518722.70100  23518725.07200
        34.00000        22.00000
  -4348227.93507  -3388227.59506  23815650.82200  23815650.17600  23815652.96800
        33.00000        15.00000
  -5206652.46206  -4057130.33306  24495758.22700  24495758.31000  24495759.82400
        17.00000        11.00000
