     2.10           OBSERVATION DATA    G (GPS)             RINEX VERSION / TYPE
teqc  2005Sep1                          20131011 00:15:17UTCPGM / RUN BY / DATE
OBSERVATION MODE: IGS-Net                                   COMMENT
WSRT Westerbork_Synth (WSRT)                                MARKER NAME
13506M005                                                   MARKER NUMBER
229                 AOA SNR-12 ACT       3.3.32.2N          REC # / TYPE / VERS
273                 AOAD/M_T        DUTD                    ANT # / TYPE
        0.3888        0.0000        0.0000                  ANTENNA: DELTA H/E/N
  3828735.6941  443305.1350  5064884.8236                   APPROX POSITION XYZ
  6.60450833  52.91461271  82.2809  LonLatAlt  RSW          COMMENT
Linux 2.4.20-8|Pentium IV|gcc|Linux|486/DX+                 COMMENT
HANS VAN DER MAREL  DUT/DEOS                                OBSERVER / AGENCY
     1     1                                                WAVELENGTH FACT L1/2
     7    L1    L2    C1    P2    P1    S1    S2            # / TYPES OF OBSERV
RUN BY HANS VAN DER MAREL                                   COMMENT
H.VANDERMAREL@TUDELFT.NL                                    COMMENT
    P1 =    P1  TurboRogue; =    Y1  Benchmark              COMMENT
    L1 = L1(CA)                                             COMMENT
    P2 =    P2  TurboRogue; =    Y2  Benchmark              COMMENT
    L2 = L2(P2) TurboRogue; = L2(Y2) Benchmark              COMMENT
 SNR is mapped to RINEX snr flag value [0-9]                COMMENT
  L1 & L2: min(max(int(snr_dBHz/6), 0), 9)                  COMMENT
  2013    10    10     0     0    0.0000000     GPS         TIME OF FIRST OBS
  2013    10    10    23    59   30.0000000     GPS         TIME OF LAST OBS
                                                            END OF HEADER
 13 10 10  0  0  0.0000000  0 12G10G 6G26G21G 9G19G28G15G 5G 7G 8G 3
  -5740837.636 3  -4473366.641 3  24254563.315    24254565.506    24254563.373
        21.600          23.000
     81108.134 2     63201.611 2  25512817.360    25512819.705    25512817.850
        13.900          13.900
 -27269914.038 7 -21249276.270 6  20140972.983    20140973.140    20140973.210
        43.800          41.900
  -4316417.442 1  -3363440.535 1  25005172.702    25005172.206    25005173.190
         6.500          11.000
 -29032906.345 7 -22623037.874 7  19938116.171    19938116.434    19938116.445
        45.700          44.000
  -3823824.613 2  -2979603.391 2  24934026.602    24934024.973    24934026.165
        16.100          17.000
 -16443929.363 6 -12813448.426 5  22118016.127    22118016.059    22118016.179
        37.200          31.800
 -10299321.614 4  -8025442.927 3  23684221.173    23684221.099    23684222.928
        25.300          22.600
 -23947573.615 7 -18660440.541 7  21152277.106    21152277.487    21152277.907
        42.800          42.700
 -16510153.734 6 -12865042.898 5  22280332.127    22280331.478    22280332.702
        36.300          32.600
 -26352959.978 7 -20534766.697 7  20671114.332    20671114.478    20671114.221
        45.500          43.100
    262846.825 2    204814.492 2  24407689.971    24407691.168    24407690.319
        17.800          16.100
 13 10 10  0  0 30.0000000  0 12G10G 6G26G21G 9G19G28G15G 5G 7G 8G 3
  -5624940.740 3  -4383057.393 3  24276618.215    24276620.082    24276617.845
        23.400          22.100
    123773.094 1     96446.982 1  25520936.040    25520938.033    25520934.883
         6.500          11.000
 -27319652.742 7 -21288033.648 7  20131507.733    20131508.133    20131508.089
        43.800          42.000
  -4344860.457 2  -3385603.930 2  24999760.314    24999760.219    24999760.627
        17.000          16.100
 -29002132.499 7 -22599058.267 7  19943972.361    19943972.562    19943972.477
        45.900          43.900
  -3864293.341 2  -3011137.455 3  24926327.896    24926324.644    24926327.023
        17.800          18.600
 -16507252.414 6 -12862791.048 5  22105966.290    22105965.930    22105966.196
        37.000          32.000
 -10396706.606 4  -8101327.365 4  23665690.032    23665690.665    23665691.383
        27.400          25.900
 -23899812.451 7 -18623224.069 7  21161365.801    21161366.245    21161366.587
        43.000          42.700
 -16426838.589 5 -12800122.009 5  22296185.812    22296185.677    22296186.868
        35.900          32.600
 -26325942.956 7 -20513714.484 7  20676255.342    20676255.592    20676255.311
        45.300          42.500
    282958.863 2    220486.158 2  24411517.812    24411517.846    24411517.672
        16.100          16.100
 13 10 10  0  1  0.0000000  0 12G10G 6G26G21G 9G19G28G15G 5G 7G 8G 3
  -5508961.169 3  -4292683.739 3  24298688.792    24298689.946    24298688.555
        22.600          22.600
    166921.841 1    130069.338 2  25529148.643    25529149.194    25529148.754
        11.000          12.600
 -27368935.700 7 -21326435.892 7  20122129.736    20122129.815    20122129.843
        44.000          42.000
  -4372825.025 1  -3407394.486 2  24994439.626    24994438.578    24994439.659
        11.000          13.900
 -28970822.526 7 -22574660.888 7  19949930.394    19949930.639    19949930.652
        45.800          43.800
  -3904250.725 2  -3042273.093 3  24918723.846    24918721.663    24918722.942
        17.800          19.900
 -16570142.908 6 -12911796.621 5  22093998.155    22093998.197    22093998.354
        36.700          31.800
 -10493969.495 4  -8177116.528 4  23647181.820    23647181.382    23647182.575
        25.900          24.600
 -23851515.656 7 -18585590.210 7  21170556.859    21170556.582    21170557.278
        42.800          42.400
 -16343279.216 6 -12735010.806 5  22312086.973    22312086.497    22312088.011
        36.200          32.700
 -26298483.935 7 -20492317.841 7  20681480.524    20681480.823    20681480.532
        45.300          42.400
    303685.923 2    236637.076 2  24415462.165    24415461.861    24415461.889
        13.900          15.100
 13 10 10  0  1 30.0000000  0 12G10G 6G26G21G 9G19G28G15G 5G 7G 8G 3
  -5392900.885 3  -4202247.150 2  24320773.870    24320775.044    24320773.598
        23.000          17.000
    210552.513 2    164067.149 2  25537450.601    25537452.553    25537450.662
        12.600          13.900
 -27417761.606 7 -21364482.036 7  20112838.447    20112838.567    20112838.619
        44.000          42.300
  -4400310.773 2  -3428811.931 2  24989209.586    24989207.299    24989209.568
        13.900          15.100
 -28938977.475 7 -22549846.566 7  19955990.280    19955990.621    19955990.516
        45.800          44.100
  -3943694.722 2  -3073008.628 2  24911216.673    24911215.251    24911216.475
        17.000          17.000
 -16632598.845 6 -12960463.562 5  22082113.515    22082113.234    22082113.679
        37.200          32.300
 -10591109.033 4  -8252809.644 4  23628696.579    23628697.245    23628696.997
        25.900          25.300
 -23802684.613 7 -18547540.055 7  21179848.684    21179848.947    21179849.273
        42.700          42.300
 -16259477.428 6 -12669710.714 5  22328034.074    22328033.776    22328034.825
        36.100          33.100
 -26270583.975 7 -20470577.605 7  20686789.618    20686789.989    20686789.669
        45.200          42.700
    325027.130 2    253266.578 2  24419522.268    24419522.506    24419522.471
        17.000          15.100
 13 10 10  0  2  0.0000000  0 12G10G 6G26G21G 9G19G28G15G 5G 7G 8G 3
  -5276762.379 3  -4111749.627 3  24342874.506    24342876.116    24342874.367
        22.600          20.500
    254664.250 2    198440.014 2  25545844.528    25545846.307    25545844.957
        12.600          12.600
 -27466128.990 7 -21402170.879 7  20103634.442    20103634.554    20103634.727
        44.000          42.300
  -4427317.305 2  -3449855.983 2  24984070.069    24984068.564    24984070.363
        16.100          13.900
 -28906598.784 7 -22524616.418 7  19962151.744    19962152.125    19962151.924
        45.700          44.000
  -3982623.645 2  -3103342.867 2  24903811.128    24903806.778    24903809.892
        17.000          17.800
 -16694617.997 6 -13008790.170 5  22070311.258    22070311.360    22070311.440
        37.100          32.700
 -10688123.823 4  -8328405.553 3  23610235.415    23610234.935    23610235.994
        26.200          23.400
 -23753320.646 7 -18509074.638 7  21189242.438    21189242.666    21189243.197
        43.000          42.300
 -16175435.032 6 -12604223.148 5  22344027.222    22344026.529    22344027.685
        36.000          32.700
 -26242244.297 7 -20448494.746 7  20692182.398    20692182.767    20692182.530
        45.400          42.700
    346981.822 2    270374.149 2  24423700.960    24423701.102    24423700.481
        16.100          17.000
 13 10 10  0  2 30.0000000  0 12G10G 6G26G21G 9G19G28G15G 5G 7G 8G 3
  -5160547.814 3  -4021192.850 2  24364989.522    24364990.476    24364988.763
        21.100          17.800
    299254.657 1    233185.768 1  25554330.599    25554331.412    25554330.147
         9.000          11.000
 -27514036.616 7 -21439501.502 7  20094517.718    20094518.010    20094518.135
        43.800          42.200
  -4453843.159 2  -3470525.466 2  24979022.132    24979020.863    24979021.337
        12.600          15.100
 -28873688.054 7 -22498971.695 7  19968414.266    19968414.737    19968414.580
        45.700          44.000
  -4021035.411 2  -3133274.115 2  24896500.633    24896497.921    24896499.451
        17.800          17.800
 -16756198.739 6 -13056775.144 5  22058593.121    22058592.999    22058593.243
        37.200          32.400
 -10785012.639 4  -8403903.341 4  23591798.170    23591798.179    23591798.830
        27.600          24.200
 -23703425.118 7 -18470195.017 7  21198737.050    21198737.332    21198737.825
        42.800          42.400
 -16091153.956 6 -12538549.609 5  22360064.859    22360064.504    22360065.745
        36.000          32.300
 -26213466.038 7 -20426070.125 7  20697659.037    20697659.163    20697658.946
        45.400          42.600
    369549.447 2    287959.232 2  24427995.784    24427995.622    24427995.342
        17.000          16.100
 13 10 10  0  3  0.0000000  0 12G10G 6G26G21G 9G19G28G15G 5G 7G 8G 3
  -5044259.490 3  -3930578.567 3  24387117.627    24387119.435    24387117.241
        19.900          18.600
    344322.691 2    268303.729 1  25562906.137    25562907.983    25562906.621
        12.600          11.000
 -27561483.102 7 -21476472.789 7  20085489.050    20085489.214    20085489.351
        44.000          42.300
  -4479888.301 2  -3490820.401 2  24974065.799    24974065.293    24974065.847
        16.100          16.100
 -28840246.762 7 -22472913.543 7  19974778.056    19974778.421    19974778.296
        45.800          43.800
  -4058928.293 3  -3162801.001 2  24889289.724    24889286.639    24889288.563
        22.100          17.800
 -16817339.088 6 -13104416.973 5  22046958.668    22046958.273    22046958.510
        37.300          32.300
 -10881774.006 4  -8479301.813 3  23573384.054    23573384.267    23573385.279
        25.600          23.800
 -23652999.424 7 -18430902.277 7  21208332.647    21208333.024    21208333.583
        42.700          42.100
 -16006635.987 6 -12472691.420 5  22376148.525    22376148.033    22376148.999
        36.000          32.800
 -26184250.494 7 -20403304.768 7  20703218.275    20703218.779    20703218.362
        45.400          42.500
    392729.442 3    306021.540 2  24432406.012    24432407.246    24432406.763
        18.600          17.000
 13 10 10  0  3 30.0000000  0 12G10G 6G26G21G 9G19G28G15G 5G 7G 8G 3
  -4927899.250 3  -3839908.275 3  24409259.791    24409262.301    24409260.007
        21.100          19.300
    389866.545 2    303792.315 1  25571572.732    25571575.337    25571574.528
        12.600          11.000
 -27608467.094 7 -21513083.688 7  20076548.336    20076548.497    20076548.551
        44.300          42.500
  -4505451.709 2  -3510739.945 2  24969200.694    24969200.636    24969200.620
        15.100          12.600
 -28806276.371 7 -22446443.106 7  19981242.435    19981242.795    19981242.729
        45.700          43.600
  -4096300.244 3  -3191922.002 3  24882177.751    24882175.443    24882177.648
        19.900          19.300
 -16878037.298 6 -13151714.260 5  22035407.913    22035407.952    22035407.980
        36.800          32.600
 -10978406.363 4  -8554599.814 4  23554996.253    23554996.281    23554997.171
        27.100          24.900
 -23602044.868 7 -18391197.445 7  21218029.218    21218029.453    21218030.031
        42.800          42.000
 -15921883.154 5 -12406650.263 5  22392276.303    22392275.797    22392276.908
        35.700          32.700
 -26154598.486 7 -20380199.313 7  20708860.871    20708861.351    20708861.009
        45.300          42.300
    416520.796 3    324560.212 3  24436934.020    24436934.709    24436934.548
        19.900          18.600
 13 10 10  0  4  0.0000000  0 12G10G 6G26G21G 9G19G28G15G 5G 7G 8G 3
  -4811469.235 3  -3749183.615 3  24431416.098    24431418.486    24431415.875
        19.900          19.900
    435884.604      339650.414 2  25580329.725    25580331.757    25580329.784
         3.000          12.600
 -27654987.187 7 -21549333.095 7  20067695.843    20067696.028    20067696.087
        44.200          42.400
  -4530532.553 2  -3530283.449 2  24964428.675    24964427.435    24964429.237
        12.600          15.100
 -28771778.292 7 -22419561.488 7  19987807.419    19987807.571    19987807.541
        45.800          43.700
  -4133149.466 3  -3220635.676 2  24875164.949    24875162.723    24875164.001
        19.300          17.000
 -16938291.639 6 -13198665.691 5  22023942.012    22023941.942    22023942.234
        37.800          32.300
 -11074908.377 4  -8629796.168 3  23536634.039    23536632.076    23536634.294
        28.800          23.800
 -23550562.996 7 -18351081.703 7  21227825.834    21227826.174    21227826.690
        42.900          42.000
 -15836897.171 5 -12340427.436 5  22408448.706    22408448.134    22408449.287
        35.600          32.100
 -26124511.630 7 -20356755.040 7  20714586.469    20714586.686    20714586.547
        45.200          42.200
    440922.813 2    343574.750 2  24441577.432    24441578.393    24441577.365
        15.100          16.100
 13 10 10  0  4 30.0000000  0 12G10G 6G26G21G 9G19G28G15G 5G 7G 8G 3
  -4694972.196 3  -3658406.725 3  24453585.444    24453587.235    24453585.113
        20.500          21.100
    482375.637 1    375877.182 2  25589176.806    25589178.777    25589177.750
        11.000          13.900
 -27701042.059 7 -21585219.969 7  20058931.446    20058931.913    20058932.073
        44.300          42.600
  -4555129.697 1  -3549450.070 2  24959747.080    24959746.499    24959748.217
        11.000          15.100
 -28736753.885 7 -22392269.747 7  19994472.066    19994472.437    19994472.389
        45.700          43.600
  -4169474.187 2  -3248940.614 3  24868251.803    24868251.240    24868251.956
        15.100          20.500
 -16998100.074 6 -13245269.665 5  22012560.672    22012560.776    22012560.767
        37.200          32.800
 -11171278.752 4  -8704889.947 4  23518294.250    23518294.133    23518294.833
        27.100          24.900
 -23498555.292 7 -18310556.239 6  21237722.412    21237722.987    21237723.374
        42.700          41.900
 -15751679.646 5 -12274024.185 5  22424665.032    22424664.494    22424665.631
        35.700          32.800
 -26093991.218 7 -20332972.908 7  20720394.364    20720394.594    20720394.381
        45.300          42.400
    465934.804 2    363064.630 2  24446336.403    24446337.753    24446336.774
        17.000          16.100
 13 10 10  0  5  0.0000000  0 12G10G 6G26G21G 9G19G28G15G 5G 7G 8G 3
  -4578410.213 3  -3567579.236 3  24475766.204    24475768.625    24475765.855
        21.100          21.600
    529337.991      412471.143 1  25598113.734    25598114.862    25598112.551
         3.000           6.500
 -27746630.468 7 -21620743.388 7  20050256.745    20050256.632    20050256.963
        44.100          42.700
  -4579243.422 2  -3568239.937 2  24955159.619    24955157.814    24955159.565
        15.100          12.600
 -28701204.796 7 -22364569.167 7  20001236.858    20001237.095    20001237.143
        45.800          43.500
  -4205272.432 3  -3276835.370 3  24861440.186    24861438.345    24861440.328
        18.600          18.600
 -17057460.585 6 -13291524.601 5  22001265.196    22001264.946    22001264.964
        37.500          33.100
 -11267516.006 4  -8779880.034 4  23499980.441    23499980.225    23499981.502
        26.500          24.600
 -23446023.246 7 -18269622.191 6  21247719.336    21247719.502    21247720.050
        42.800          41.800
 -15666232.672 5 -12207442.139 5  22440924.924    22440924.362    22440925.681
        35.800          32.300
 -26063038.087 7 -20308853.571 7  20726284.564    20726284.756    20726284.463
        45.200          42.200
    491555.697 2    383028.899 2  24451212.276    24451212.799    24451212.517
        15.100          15.100
 13 10 10  0  5 30.0000000  0 12G10G 6G26G21G 9G19G28G15G 5G 7G 8G 3
  -4461785.473 3  -3476702.821 3  24497959.797    24497961.009    24497959.064
        21.100          20.500
    576769.715 1    449430.934 1  25607140.277    25607141.495    25607140.670
        11.000           9.000
 -27791751.029 7 -21655902.255 7  20041670.296    20041670.435    20041670.715
        44.300          42.700
  -4602873.089 2  -3586652.663 2  24950662.938    24950661.443    24950662.937
        15.100          16.100
 -28665132.470 7 -22336460.887 7  20008101.105    20008101.507    20008101.559
        45.700          43.400
  -4240542.413 3  -3304318.449 3  24854729.286    24854727.478    24854728.698
        19.900          19.900
 -17116371.621 6 -13337429.287 5  21990054.552    21990054.732    21990054.578
        37.600          33.100
 -11363618.975 4  -8854765.429 4  23481693.433    23481692.494    23481693.835
        27.100          24.200
 -23392968.344 7 -18228280.717 6  21257815.403    21257815.445    21257816.091
        42.900          41.800
 -15580557.634 5 -12140682.390 5  22457228.029    22457228.058    22457228.941
        35.500          32.400
 -26031653.536 7 -20284398.071 7  20732256.811    20732257.072    20732256.697
        45.400          42.400
    517784.891 2    403467.175 2  24456202.774    24456205.178    24456203.770
        13.900          17.000
 13 10 10  0  6  0.0000000  0 12G10G 6G26G21G 9G19G28G15G 5G 7G 8G 3
  -4345100.167 3  -3385779.236 3  24520164.190    24520165.354    24520163.575
        21.100          20.500
    624669.146 2    486755.176 1  25616254.438    25616255.853    25616256.101
        12.600           6.500
 -27836402.368 7 -21690695.462 7  20033174.338    20033173.588    20033174.028
        44.400          42.800
  -4626017.674 2  -3604687.427 2  24946258.460    24946256.851    24946258.531
        17.800          13.900
 -28628538.327 7 -22307945.960 7  20015064.725    20015065.056    20015065.135
        45.600          43.300
  -4275282.362 3  -3331388.547 3  24848119.837    24848116.295    24848118.548
        18.600          19.900
 -17174831.325 6 -13382982.301 5  21978930.329    21978930.144    21978930.170
        37.700          33.100
 -11459585.891 4  -8929544.847 4  23463430.996    23463430.436    23463431.638
        26.800          24.600
 -23339391.929 7 -18186532.872 6  21268010.382    21268010.836    21268011.194
        42.700          41.900
 -15494656.560 5 -12073746.504 5  22473574.886    22473574.452    22473575.431
        35.100          31.000
 -25999838.823 7 -20259607.390 7  20738310.772    20738311.292    20738310.817
        45.200          42.200
    544621.833 3    424379.109 2  24461311.157    24461311.411    24461310.692
        19.300          13.900
 13 10 10  0  6 30.0000000  0 12G10G 6G26G21G 9G19G28G15G 5G 7G 8G 3
  -4228356.342 3  -3294810.039 3  24542379.089    24542381.253    24542378.718
        20.500          21.100
    673034.354      524441.243 1  25625457.494    25625460.285    25625457.911
         3.000           9.000
 -27880583.315 7 -21725122.147 7  20024766.409    20024766.260    20024766.578
        44.600          42.900
  -4648676.530 2  -3622343.699 2  24941946.687    24941944.644    24941946.422
        12.600          13.900
 -28591423.865 7 -22279025.593 7  20022127.649    20022127.816    20022127.862
        45.700          43.300
  -4309490.912 3  -3358044.539 2  24841608.589    24841606.107    24841608.057
        19.900          17.000
 -17232837.807 6 -13428182.145 5  21967891.953    21967891.534    21967891.957
        37.800          33.000
 -11555415.332 4  -9004217.173 4  23445194.864    23445194.819    23445195.896
        27.600          24.200
 -23285295.584 7 -18144379.891 6  21278304.794    21278304.780    21278305.549
        42.700          41.800
 -15408531.392 5 -12006635.998 5  22489963.438    22489963.453    22489964.282
        34.900          31.600
 -25967595.159 7 -20234482.459 7  20744446.605    20744447.055    20744446.557
        45.000          42.100
    572065.289 2    445763.578 3  24466533.098    24466532.904    24466533.047
        17.000          18.600
 13 10 10  0  7  0.0000000  0 12G10G 6G26G21G 9G19G28G15G 5G 7G 8G 3
  -4111556.287 3  -3203797.032 3  24564605.586    24564607.505    24564605.179
        19.900          19.900
    721864.104 1    562491.297 9  25634751.308    25634752.507    25634750.182
         9.000          -3.000
 -27924292.573 7 -21759181.288 7  20016447.979    20016448.650    20016448.830
        44.300          43.100
  -4670849.288 2  -3639621.149 2  24937726.217    24937725.368    24937727.261
        13.900          15.100
 -28553790.745 7 -22249701.087 7  20029288.683    20029289.267    20029289.111
        45.600          43.300
  -4343166.250 2  -3384285.078 3  24835199.828    24835198.773    24835200.489
        16.100          20.500
 -17290389.600 6 -13473027.687 5  21956940.165    21956939.865    21956940.019
        37.700          33.500
 -11651106.101 4  -9078781.406 4  23426986.254    23426985.707    23426987.320
        29.500          25.900
 -23230681.118 7 -18101823.177 6  21288697.414    21288697.679    21288698.240
        42.700          41.400
 -15322183.751 5 -11939352.133 5  22506394.812    22506394.884    22506395.742
        34.700          31.100
 -25934923.732 7 -20209024.199 7  20750663.855    20750664.168    20750663.743
        45.100          42.200
    600114.525 2    467620.050 2  24471869.257    24471871.520    24471869.619
        17.000          15.100
 13 10 10  0  7 30.0000000  0 12G10G 6G26G21G 9G19G28G15G 5G 7G 8G 3
  -3994702.228 3  -3112741.960 3  24586842.614    24586844.492    24586842.174
        19.300          18.600
    771156.488      600900.826 1  25644131.753    25644132.928    25644134.190
         3.000           6.500
 -27967528.750 7 -21792871.795 7  20008220.512    20008221.008    20008221.320
        44.600          42.900
  -4692535.392 2  -3656519.397 2  24933599.876    24933598.794    24933599.564
        16.100          16.100
 -28515640.574 7 -22219973.676 7  20036548.762    20036548.964    20036548.982
        45.600          43.400
  -4376306.518 3  -3410108.665 3  24828894.122    24828892.149    24828893.467
        18.600          19.300
 -17347484.702 6 -13517517.372 5  21946075.100    21946075.047    21946075.115
        37.900          33.600
 -11746656.428 4  -9153236.210 4  23408803.604    23408802.489    23408804.039
        27.600          25.300
 -23175549.894 7 -18058863.796 6  21299188.684    21299188.923    21299189.423
        42.700          41.900
 -15235615.506 5 -11871896.346 5  22522868.357    22522868.452    22522869.329
        34.800          31.800
 -25901825.728 7 -20183233.551 7  20756962.090    20756962.479    20756962.056
        45.100          42.300
    628768.315 2    489947.634 2  24477322.246    24477323.849    24477322.445
        15.100          17.000
 13 10 10  0  8  0.0000000  0 12G10G 6G26G21G 9G19G28G15G 5G 7G 8G 3
  -3877796.362 3  -3021646.494 2  24609089.233    24609090.688    24609089.038
        19.300          15.100
    820909.994 1    639671.513 1  25653598.411    25653596.580    25653598.208
        11.000           6.500
 -28010290.722 7 -21826192.804 7  20000083.438    20000083.697    20000084.047
        44.600          43.000
  -4713734.097 2  -3673037.865 2  24929566.710    24929565.591    24929565.648
        16.100          13.900
 -28476974.976 7 -22189844.638 7  20043906.587    20043906.791    20043906.810
        45.800          43.400
  -4408910.147 3  -3435514.066 3  24822690.068    24822687.599    24822689.490
        22.100          18.600
 -17404121.294 6 -13561649.776 5  21935297.636    21935297.425    21935297.429
        37.700          33.600
 -11842065.319 4  -9227580.893 4  23390647.574    23390647.609    23390648.257
        28.400          26.200
 -23119903.432 7 -18015502.927 6  21309777.800    21309777.892    21309778.422
        42.500          41.300
 -15148828.287 5 -11804269.943 5  22539383.717    22539383.506    22539384.410
        34.700          31.100
 -25868302.529 7 -20157111.578 7  20763341.285    20763341.735    20763341.330
        45.100          42.300
    658026.067 2    512745.877 2  24482891.482    24482890.972    24482890.303
        16.100          17.000
 13 10 10  0  8 30.0000000  0 12G10G 6G26G21G 9G19G28G15G 5G 7G 8G 3
  -3760840.816 3  -2930512.310 3  24631344.953    24631347.117    24631344.726
        19.900          21.100
    871123.086 1    678798.522 9  25663153.881    25663154.124    25663150.522
         6.500          -3.000
 -28052577.206 7 -21859143.330 7  19992037.152    19992036.915    19992037.198
        44.500          43.100
  -4734445.176 2  -3689176.354 2  24925624.896    24925624.132    24925625.173
        13.900          13.900
 -28437795.359 7 -22159315.072 7  20051361.989    20051362.344    20051362.391
        45.500          43.300
  -4440975.346 3  -3460499.900 3  24816588.568    24816586.121    24816587.642
        19.900          20.500
 -17460297.753 6 -13605423.627 5  21924607.278    21924607.425    21924607.282
        37.600          33.500
 -11937331.231 4  -9301814.087 4  23372519.413    23372518.288    23372519.852
        28.600          25.300
 -23063743.274 7 -17971741.766 6  21320465.026    21320464.887    21320465.545
        42.500          41.400
 -15061824.102 5 -11736474.471 5  22555940.385    22555939.627    22555940.817
        34.500          31.100
 -25834355.238 7 -20130659.154 7  20769801.323    20769801.626    20769801.268
        45.100          42.200
    687886.503 2    536013.726 2  24488574.021    24488572.416    24488573.586
        17.800          13.900
 13 10 10  0  9  0.0000000  0 12G10G 6G26G21G 9G19G28G15G 5G 7G 8G 3
  -3643838.159 3  -2839341.432 3  24653609.923    24653611.390    24653609.342
        19.300          19.900
    921793.489 1    718283.521    25672795.277    25672786.424    25672799.775
         9.000           3.000
 -28094386.897 7 -21891722.321 7  19984081.034    19984080.816    19984081.029
        44.600          43.100
  -4754668.118 2  -3704934.482 2  24921777.098    24921775.741    24921776.688
        15.100          16.100
 -28398103.493 7 -22128386.342 7  20058914.902    20058915.404    20058915.399
        45.600          43.100
  -4472500.491 3  -3485064.961 3  24810588.823    24810586.679    24810587.257
        19.900          19.900
 -17516012.439 6 -13648837.674 5  21914005.319    21914005.258    21914005.302
        37.900          33.900
 -12032452.684 4  -9375934.712 4  23354418.308    23354417.944    23354419.405
        29.500          25.900
 -23007071.180 7 -17927581.685 6  21331249.048    21331249.525    21331249.775
        42.600          41.700
 -14974604.796 5 -11668511.393 5  22572537.857    22572537.040    22572538.185
        34.800          31.800
 -25799985.392 7 -20103877.459 7  20776341.519    20776342.072    20776341.577
        45.000          42.000
    718348.640 2    559750.426 2  24494369.634    24494369.739    24494369.866
        15.100          13.900
 13 10 10  0  9 30.0000000  0 12G10G 6G26G21G 9G19G28G15G 5G 7G 8G 3
  -3526790.141 3  -2748135.187 2  24675883.300    24675884.771    24675882.906
        19.300          17.000
    972919.801      758122.478 1  25682526.399    25682524.554    25682527.062
         3.000           6.500
 -28135718.460 7 -21923928.760 7  19976215.914    19976215.658    19976215.884
        44.400          43.200
  -4774402.128 2  -3720311.634 2  24918021.412    24918020.479    24918021.389
        15.100          16.100
 -28357900.953 7 -22097059.694 7  20066565.580    20066565.812    20066565.839
        45.600          43.100
  -4503484.107 2  -3509208.038 2  24804692.730    24804690.477    24804692.213
        17.800          16.100
 -17571263.521 6 -13691890.465 5  21903491.599    21903491.340    21903491.470
        38.200          34.000
 -12127428.005 4  -9449941.457 4  23336344.885    23336344.229    23336345.439
        27.600          24.600
 -22949888.722 7 -17883023.931 6  21342130.435    21342130.642    21342131.169
        42.600          41.100
 -14887172.058 5 -11600381.992 5  22589175.487    22589174.894    22589176.159
        34.800          31.500
 -25765194.172 7 -20076767.419 7  20782962.388    20782962.578    20782962.376
        45.200          42.200
    749411.561 2    583955.249 2  24500281.541    24500281.292    24500280.840
        17.800          16.100
 13 10 10  0 10  0.0000000  0 12G10G 6G26G21G 9G19G28G15G 5G 7G 8G 3
  -3409698.952 3  -2656895.316 2  24698165.105    24698165.839    24698164.710
        19.900          17.800
   1024500.159 1    798315.261    25692341.310    25692342.328    25692343.141
         9.000           3.000
 -28176570.694 7 -21955761.668 7  19968441.899    19968441.709    19968442.063
        44.500          43.300
  -4793647.090 2  -3735307.701 2  24914358.815    24914357.672    24914359.272
        15.100          17.000
 -28317189.221 7 -22065336.270 7  20074312.548    20074312.926    20074312.982
        45.600          43.100
  -4533924.391 2  -3532927.726 3  24798900.454    24798898.182    24798899.415
        16.100          19.300
 -17626049.350 6 -13734580.724 5  21893066.265    21893065.808    21893066.078
        38.100          34.000
 -12222255.807 4  -9523833.237 4  23318299.395    23318299.857    23318300.252
        28.600          25.900
 -22892197.456 7 -17838069.692 6  21353108.817    21353108.841    21353109.553
        42.500          41.000
 -14799527.350 5 -11532087.420 5  22605853.407    22605853.006    22605854.045
        34.900          30.800
 -25729982.646 7 -20049329.866 6  20789662.895    20789663.076    20789662.850
        45.100          41.800
    781074.331 2    608627.507 3  24506306.841    24506306.617    24506307.075
        17.800          18.600
 13 10 10  0 10 30.0000000  0 12G10G 6G26G21G 9G19G28G15G 5G 7G 8G 3
  -3292566.942 2  -2565623.669 3  24720454.354    24720456.040    24720453.862
        16.100          18.600
   1076532.502      838860.449 1  25702242.266    25702245.987    25702241.171
         3.000           9.000
 -28216942.381 7 -21987220.135 7  19960759.288    19960759.201    19960759.573
        44.800          43.400
  -4812401.970 2  -3749921.897 2  24910790.639    24910789.170    24910790.706
        16.100          12.600
 -28275969.778 7 -22033217.231 7  20082156.724    20082156.759    20082156.773
        45.500          43.100
  -4563820.018 3  -3556223.005 3  24793211.031    24793209.399    24793209.735
        18.600          19.300
 -17680368.538 6 -13776907.364 5  21882729.613    21882729.388    21882729.517
        37.900          34.300
 -12316934.933 5  -9597609.158 4  23300283.798    23300282.580    23300284.351
        30.400          26.200
 -22833998.986 7 -17792720.231 6  21364183.852    21364183.933    21364184.375
        42.300          41.200
 -14711672.598 5 -11463629.178 5  22622571.596    22622571.450    22622572.366
        34.400          31.000
 -25694352.307 7 -20021565.960 6  20796443.182    20796443.347    20796443.086
        45.100          41.900
    813335.758 2    633766.224 2  24512445.561    24512446.209    24512445.740
        17.800          15.100
 13 10 10  0 11  0.0000000  0 11G10G26G21G 9G19G28G15G 5G 7G 8G 3
  -3175396.403 3  -2474321.938 2  24742751.968    24742753.050    24742751.599
        18.600          16.100
 -28256832.242 7 -22018303.178 7  19953168.380    19953168.418    19953168.736
        44.700          43.300
  -4830667.120 2  -3764154.495 2  24907315.181    24907312.323    24907315.024
        16.100          13.900
 -28234244.236 7 -22000703.830 7  20090096.673    20090096.970    20090096.868
        45.300          42.900
  -4593169.225 3  -3579092.496 3  24787626.535    24787624.369    24787626.042
        19.900          19.300
 -17734219.063 6 -13818868.819 5  21872482.121    21872482.028    21872482.097
        38.100          34.600
 -12411463.592 4  -9671267.816 4  23282294.640    23282294.448    23282295.438
        28.400          26.500
 -22775295.120 7 -17746976.967 6  21375354.459    21375354.888    21375355.289
        42.500          41.100
 -14623609.634 5 -11395008.680 5  22639329.412    22639329.433    22639330.119
        34.300          31.000
 -25658304.487 7 -19993476.750 6  20803303.112    20803303.005    20803302.948
        44.900          41.900
    846194.328 2    659370.234 2  24518697.850    24518698.375    24518698.216
        17.800          12.600
 13 10 10  0 11 30.0000000  0 11G10G26G21G 9G19G28G15G 5G 7G 8G 3
  -3058189.319 2  -2382991.758 3  24765055.221    24765057.513    24765054.699
        17.800          19.300
 -28296239.068 7 -22049009.820 7  19945669.273    19945669.582    19945669.786
        44.600          43.300
  -4848441.690 2  -3778004.785 2  24903932.284    24903930.930    24903932.566
        13.900          17.800
 -28192014.349 7 -21967797.422 7  20098132.745    20098132.979    20098133.036
        45.600          43.100
  -4621970.507 3  -3601535.045 3  24782145.267    24782143.478    24782145.006
        18.600          19.900
 -17787599.476 6 -13860463.971 5  21862324.328    21862323.897    21862324.302
        38.500          34.000
 -12505840.350 4  -9744808.177 4  23264335.687    23264335.050    23264336.231
        28.600          25.600
 -22716087.781 7 -17700841.374 6  21386621.316    21386621.534    21386622.089
        42.600          40.800
 -14535340.327 5 -11326227.434 5  22656126.671    22656126.552    22656127.267
        33.900          31.000
 -25621840.391 7 -19965063.169 7  20810241.654    20810241.942    20810241.673
        45.200          42.000
    879649.213 2    685438.866 2  24525065.039    24525064.965    24525064.410
        13.900          13.900
 13 10 10  0 12  0.0000000  0 11G10G26G21G 9G19G28G15G 5G 7G 8G 3
  -2940947.715 2  -2291634.725 3  24787365.515    24787367.895    24787365.362
        16.100          22.100
 -28335161.598 7 -22079339.100 7  19938262.319    19938262.943    19938263.115
        44.700          43.400
  -4865725.605 2  -3791472.772 2  24900643.649    24900642.224    24900643.233
        17.800          17.000
 -28149281.795 7 -21934499.321 7  20106264.436    20106264.722    20106264.695
        45.500          43.100
  -4650222.556 2  -3623549.607 3  24776769.100    24776767.069    24776768.900
        16.100          18.600
 -17840508.342 6 -13901691.692 5  21852256.083    21852255.571    21852255.950
        38.200          33.800
 -12600063.863 4  -9818229.115 4  23246405.682    23246404.685    23246406.201
        29.700          26.500
 -22656378.500 7 -17654314.653 6  21397983.622    21397983.685    21397984.409
        42.400          40.400
 -14446866.414 5 -11257286.735 5  22672962.575    22672962.463    22672963.523
        34.300          31.000
 -25584961.256 7 -19936326.183 6  20817259.680    20817259.834    20817259.563
        45.100          41.600
    913699.428 2    711971.454 2  24531543.110    24531544.332    24531543.692
        12.600          15.100
 13 10 10  0 12 30.0000000  0 11G10G26G21G 9G19G28G15G 5G 7G 8G 3
  -2823673.855 3  -2200252.509 3  24809682.149    24809684.407    24809681.268
        19.900          19.900
 -28373598.636 7 -22109290.057 7  19930948.351    19930948.644    19930948.892
        44.700          43.500
  -4882518.305 2  -3804557.988 1  24897447.542    24897447.184    24897447.754
        12.600          11.000
 -28106048.292 7 -21900810.884 7  20114491.652    20114491.855    20114491.722
        45.500          42.900
  -4677923.690 2  -3645134.895 3  24771498.360    24771496.093    24771497.217
        17.800          19.900
 -17892943.699 6 -13942550.422 5  21842277.938    21842277.707    21842277.920
        38.300          34.700
 -12694132.593 4  -9891529.431 4  23228504.659    23228504.622    23228505.393
        28.800          26.500
 -22596168.938 7 -17607398.108 6  21409441.356    21409441.365    21409441.970
        42.400          40.700
 -14358189.309 5 -11188187.691 5  22689837.186    22689836.926    22689838.164
        34.100          30.200
 -25547668.425 7 -19907266.832 6  20824356.025    20824356.335    20824356.017
        44.800          41.500
    948343.507 2    738966.765 2  24538136.834    24538137.708    24538136.273
        15.100          16.100
 13 10 10  0 13  0.0000000  0 11G10G26G21G 9G19G28G15G 5G 7G 8G 3
  -2706369.935 3  -2108846.863 2  24832002.631    24832006.235    24832003.055
        19.300          17.800
 -28411548.976 7 -22138861.762 7  19923727.060    19923726.915    19923727.229
        44.900          43.400
  -4898819.335 3  -3817260.080 2  24894346.407    24894344.778    24894345.553
        19.300          13.900
 -28062315.421 7 -21866733.325 7  20122813.427    20122813.923    20122813.796
        45.300          42.900
  -4705072.568 3  -3666289.892 3  24766331.331    24766329.681    24766331.328
        18.600          19.900
 -17944904.380 6 -13983039.289 5  21832390.383    21832390.216    21832390.193
        38.400          35.100
 -12788044.898 4  -9964707.871 4  23210633.308    23210633.016    23210634.197
        29.000          26.200
 -22535461.091 7 -17560093.294 6  21420993.394    21420993.762    21420994.144
        42.100          40.600
 -14269310.863 5 -11118931.766 5  22706749.612    22706750.066    22706750.869
        33.500          30.800
 -25509963.108 7 -19877886.060 6  20831531.020    20831531.395    20831531.164
        45.100          41.800
    983580.719 2    766424.305 3  24544842.388    24544842.775    24544842.252
        17.000          18.600
 13 10 10  0 13 30.0000000  0 12G10G27G26G21G 9G19G28G15G 5G 7G 8G 3
  -2589038.400 2  -2017419.748 2  24854330.712    24854333.647    24854330.697
        17.800          17.800
     58078.520 2     45255.590 3  25195283.874    25195285.956    25195283.956
        17.000          19.300
 -28449011.518 7 -22168053.371 7  19916597.716    19916598.093    19916598.353
        44.700          43.600
  -4914628.569 2  -3829578.950 2  24891337.201    24891336.767    24891337.229
        15.100          16.100
 -28018085.036 7 -21832268.072 7  20131230.261    20131230.674    20131230.608
        45.200          42.600
  -4731667.824 3  -3687013.515 2  24761271.573    24761268.356    24761270.849
        18.600          17.800
 -17996388.575 6 -14023156.866 5  21822593.089    21822592.953    21822593.041
        38.400          34.600
 -12881799.352 5 -10037763.258 4  23192793.132    23192792.571    23192793.869
        30.100          26.800
 -22474256.318 7 -17512401.270 6  21432640.454    21432640.500    21432641.099
        42.100          40.500
 -14180232.830 5 -11049520.344 5  22723701.066    22723700.715    22723701.764
        33.600          30.200
 -25471846.685 7 -19848184.936 6  20838784.655    20838784.649    20838784.448
        44.800          41.300
   1019409.263 2    794342.583 2  24551659.578    24551660.817    24551660.106
        17.000          16.100
 13 10 10  0 14  0.0000000  0 12G10G27G26G21G 9G19G28G15G 5G 7G 8G 3
  -2471681.314 2  -1925972.677 2  24876663.906    24876665.388    24876663.658
        17.800          15.100
     88907.555 2     69278.216 3  25201150.790    25201152.239    25201150.859
        13.900          19.300
 -28485985.037 7 -22196863.920 7  19909562.129    19909562.320    19909562.474
        44.800          43.600
  -4929945.569 2  -3841514.299 2  24888423.243    24888421.850    24888422.711
        17.000          13.900
 -27973358.552 7 -21797416.254 7  20139741.725    20139741.808    20139741.805
        45.400          42.700
  -4757707.870 3  -3707304.501 2  24756316.015    24756312.914    24756314.712
        18.600          17.000
 -18047394.558 6 -14062901.787 5  21812886.764    21812886.622    21812886.786
        38.400          34.500
 -12975394.542 4 -10110694.517 4  23174982.332    23174982.110    23174983.289
        29.700          26.500
 -22412556.370 7 -17464323.386 6  21444381.653    21444381.517    21444382.384
        42.500          40.500
 -14090957.126 5 -10979954.857 4  22740689.458    22740689.237    22740690.555
        34.000          29.900
 -25433320.370 7 -19818164.417 6  20846115.624    20846115.907    20846115.632
        44.800          41.600
   1055827.885 2    822720.660 2  24558590.575    24558591.123    24558590.995
        17.000          15.100
 13 10 10  0 14 30.0000000  0 12G10G27G26G21G 9G19G28G15G 5G 7G 8G 3
  -2354300.805 3  -1834507.337 2  24899000.754    24899002.587    24899000.453
        18.600          16.100
    120272.579 2     93718.447 3  25207118.449    25207121.115    25207118.327
        17.000          19.300
 -28522468.316 7 -22225292.468 7  19902619.582    19902619.771    19902619.996
        44.900          43.800
  -4944770.141 2  -3853065.897 2  24885602.509    24885600.472    24885601.646
        12.600          16.100
 -27928137.744 7 -21762179.256 7  20148346.633    20148346.972    20148346.954
        45.300          42.600
  -4783191.365 3  -3727161.785 3  24751466.354    24751464.853    24751465.634
        19.300          19.300
 -18097920.941 6 -14102272.984 5  21803271.826    21803271.883    21803271.888
        38.400          34.700
 -13068829.182 5 -10183500.670 4  23157202.009    23157201.812    23157202.916
        30.100          26.500
 -22350363.295 6 -17415861.257 6  21456216.541    21456216.616    21456217.173
        41.900          40.400
 -14001485.544 5 -10910236.753 5  22757715.673    22757715.588    22757716.545
        33.900          30.600
 -25394385.382 7 -19787825.461 6  20853525.166    20853525.017    20853524.908
        44.800          41.500
   1092835.739 2    851557.888 2  24565632.082    24565633.244    24565632.706
        17.000          17.000
 13 10 10  0 15  0.0000000  0 12G10G27G26G21G 9G19G28G15G 5G 7G 8G 3
  -2236898.799 2  -1743025.306 3  24921340.723    24921343.574    24921340.934
        12.600          19.300
    152172.516 2    118575.511 2  25213189.051    25213190.792    25213188.907
        15.100          16.100
 -28558460.300 7 -22253338.177 7  19895770.315    19895770.784    19895770.911
        44.900          43.800
  -4959101.680 2  -3864233.334 2  24882874.034    24882873.725    24882874.388
        17.000          17.800
 -27882424.300 7 -21726558.389 7  20157045.335    20157045.966    20157045.955
        45.300          42.300
  -4808117.226 2  -3746584.529 3  24746722.640    24746721.056    24746722.276
        17.800          18.600
 -18147966.216 6 -14141269.292 5  21793748.583    21793748.490    21793748.763
        38.600          35.200
 -13162101.618 5 -10256180.492 4  23139453.264    23139452.587    23139453.998
        30.600          26.500
 -22287678.872 7 -17367016.264 6  21468144.923    21468145.097    21468145.579
        42.000          40.400
 -13911819.487 5 -10840367.080 5  22774778.896    22774778.201    22774779.258
        33.800          30.100
 -25355043.536 7 -19757169.483 6  20861011.350    20861011.557    20861011.359
        44.900          41.400
   1130431.620 2    880853.297 2  24572786.060    24572788.754    24572786.310
        17.800          16.100
 13 10 10  0 15 30.0000000  0 12G10G27G26G21G 9G19G28G15G 5G 7G 8G 3
  -2119477.425 2  -1651528.176 2  24943685.099    24943688.338    24943685.224
        15.100          17.800
    184606.328 2    143848.624 3  25219361.097    25219363.314    25219361.739
        17.800          19.900
 -28593959.642 7 -22280999.990 7  19889015.569    19889015.434    19889015.699
        44.900          44.000
  -4972940.230 2  -3875016.646 2  24880240.739    24880239.656    24880241.101
        12.600          16.100
 -27836219.964 7 -21690555.005 7  20165838.349    20165838.370    20165838.362
        45.200          42.400
  -4832483.771 3  -3765571.469 2  24742085.783    24742083.593    24742085.776
        21.100          17.800
 -18197528.922 6 -14179889.571 5  21784317.279    21784317.113    21784317.196
        38.400          35.200
 -13255210.287 5 -10328732.677 4  23121735.195    23121734.551    23121735.929
        30.600          27.100
 -22224504.951 7 -17317789.843 6  21480166.634    21480166.633    21480167.302
        42.200          40.100
 -13821960.755 5 -10770347.291 5  22791878.564    22791877.916    22791878.849
        33.500          30.200
 -25315295.845 7 -19726197.252 6  20868574.915    20868575.269    20868575.017
        44.800          41.100
   1168614.004 2    910605.730 2  24580053.172    24580053.954    24580053.330
        17.800          15.100
 13 10 10  0 16  0.0000000  0 12G10G27G26G21G 9G19G28G15G 5G 7G 8G 3
  -2002038.997 2  -1560017.746 2  24966032.656    24966035.490    24966033.330
        16.100          17.000
    217572.723 3    169536.696 3  25225633.869    25225635.908    25225634.216
        19.300          18.600
 -28628965.365 7 -22308277.176 7  19882353.742    19882354.053    19882354.288
        45.000          43.900
  -4986285.528 2  -3885415.601 2  24877701.642    24877699.696    24877701.423
        17.000          15.100
 -27789526.555 7 -21654170.541 7  20174723.478    20174723.843    20174723.764
        45.200          42.400
  -4856289.678 3  -3784121.547 3  24737555.947    24737553.812    24737555.846
        18.600          19.300
 -18246607.515 6 -14218132.612 5  21774977.944    21774977.607    21774977.940
        38.700          35.100
 -13348153.763 4 -10401156.104 4  23104048.308    23104047.761    23104048.925
        29.200          26.800
 -22160843.383 7 -17268183.437 6  21492280.859    21492281.007    21492281.705
        42.300          40.200
 -13731911.158 5 -10700178.761 5  22809014.320    22809013.341    22809014.742
        33.600          30.600
 -25275143.708 7 -19694909.871 6  20876215.479    20876216.043    20876215.703
        44.900          41.300
   1207381.371 2    940813.985 2  24587429.953    24587431.939    24587429.937
        17.000          16.100
 13 10 10  0 16 30.0000000  0 12G10G27G26G21G 9G19G28G15G 5G 7G 8G 3
  -1884585.662 2  -1468495.699 2  24988383.704    24988386.313    24988383.762
        16.100          17.800
    251070.560 2    195638.917 3  25232007.790    25232011.038    25232008.734
        15.100          19.900
 -28663476.199 7 -22335168.734 7  19875786.509    19875786.942    19875787.023
        45.000          44.000
  -4999137.454 2  -3895430.081 2  24875256.375    24875254.880    24875255.858
        15.100          16.100
 -27742345.451 7 -21617406.048 7  20183702.093    20183702.074    20183702.141
        45.400          42.400
  -4879533.837 3  -3802233.890 3  24733133.175    24733131.227    24733132.893
        18.600          19.300
 -18295200.475 6 -14255997.222 5  21765730.909    21765730.694    21765730.941
        38.600          35.200
 -13440930.284 5 -10473449.439 4  23086393.259    23086393.250    23086394.043
        30.400          26.200
 -22096696.080 7 -17218198.535 6  21504487.516    21504488.026    21504488.416
        42.000          40.000
 -13641672.743 5 -10629863.111 4  22826185.885    22826185.243    22826186.668
        33.200          29.000
 -25234588.754 7 -19663308.616 6  20883933.048    20883933.493    20883932.992
        44.700          41.200
   1246732.440 2    971477.170 2  24594917.488    24594919.717    24594918.358
        13.900          15.100
 13 10 10  0 17  0.0000000  0 12G10G27G26G21G 9G19G28G15G 5G 7G 8G 3
  -1767119.775 2  -1376963.861 3  25010737.589    25010739.613    25010737.708
        15.100          18.600
    285098.694 2    222154.320 2  25238484.288    25238486.529    25238484.478
        17.800          17.000
 -28697491.039 7 -22361673.804 7  19869314.174    19869314.109    19869314.295
        45.200          44.000
  -5011495.665 2  -3905059.861 2  24872904.626    24872902.849    24872904.346
        15.100          13.900
 -27694678.414 7 -21580262.903 7  20192772.568    20192772.849    20192772.800
        45.200          42.200
  -4902214.728 3  -3819907.327 2  24728817.486    24728815.247    24728817.411
        21.100          17.800
 -18343306.607 6 -14293482.486 5  21756576.636    21756576.445    21756576.534
        38.500          35.500
 -13533538.595 5 -10545611.705 4  23068770.552    23068770.248    23068771.394
        31.000          27.900
 -22032064.543 6 -17167836.314 6  21516786.497    21516787.034    21516787.376
        41.700          39.800
 -13551246.708 5 -10559401.300 5  22843393.527    22843393.222    22843393.994
        33.100          30.400
 -25193631.742 7 -19631394.069 6  20891726.613    20891727.302    20891726.835
        44.800          41.200
   1286665.615 2   1002593.881 2  24602516.677    24602518.123    24602517.199
        16.100          15.100
 13 10 10  0 17 30.0000000  0 12G10G27G26G21G 9G19G28G15G 5G 7G 8G 3
  -1649643.355 2  -1285423.812 3  25033092.736    25033094.830    25033092.633
        13.900          18.600
    319655.903 2    249081.943 2  25245059.976    25245062.413    25245060.565
        13.900          13.900
 -28731008.924 7 -22387791.665 7  19862935.470    19862935.858    19862936.076
        45.100          44.000
  -5023359.959 2  -3914304.796 2  24870646.019    24870645.367    24870646.754
        17.000          13.900
 -27646527.288 7 -21542742.543 7  20201935.408    20201935.604    20201935.708
        45.300          42.200
  -4924331.363 3  -3837141.073 3  24724608.193    24724606.371    24724608.106
        21.100          20.500
 -18390924.466 6 -14330587.311 5  21747515.082    21747515.120    21747515.175
        38.800          35.200
 -13625976.834 5 -10617641.476 4  23051179.589    23051179.831    23051180.878
        30.200          27.900
 -21966951.067 7 -17117098.556 6  21529177.502    21529177.693    21529178.166
        42.000          39.800
 -13460634.883 5 -10488794.694 4  22860635.825    22860636.211    22860637.173
        33.100          29.700
 -25152274.498 7 -19599167.646 6  20899596.858    20899597.280    20899596.897
        44.600          41.300
   1327179.494 2   1034163.120 2  24610225.733    24610228.093    24610226.985
        15.100          16.100
 13 10 10  0 18  0.0000000  0 12G10G27G26G21G 9G19G28G15G 5G 7G 8G 3
  -1532158.527 1  -1193877.238 2  25055449.177    25055451.476    25055448.504
         6.500          17.800
    354741.022 2    276420.955 2  25251736.365    25251737.775    25251736.544
        16.100          16.100
 -28764028.614 7 -22413521.282 7  19856652.355    19856652.474    19856652.671
        45.000          44.000
  -5034730.174 2  -3923164.669 2  24868483.306    24868481.301    24868482.792
        13.900          15.100
 -27597893.937 7 -21504846.430 7  20211190.189    20211190.265    20211190.388
        45.200          42.300
  -4945882.481 3  -3853934.182 3  24720507.425    24720505.536    24720508.061
        20.500          19.900
 -18438052.426 6 -14367310.408 5  21738546.951    21738546.998    21738546.959
        38.900          35.500
 -13718243.753 5 -10689537.774 4  23033622.353    23033621.981    23033623.213
        31.000          27.900
 -21901357.206 7 -17065986.462 6  21541659.591    21541659.638    21541660.440
        42.100          39.500
 -13369839.045 5 -10418044.706 5  22877914.056    22877914.286    22877915.133
        32.600          30.400
 -25110518.290 7 -19566630.340 6  20907542.750    20907543.313    20907542.931
        44.700          41.000
   1368272.864 2   1066183.900 2  24618045.929    24618048.290    24618046.647
        17.800          17.000
 13 10 10  0 18 30.0000000  0 12G10G27G26G21G 9G19G28G15G 5G 7G 8G 3
  -1414667.374 2  -1102325.727 3  25077806.998    25077809.027    25077806.097
        13.900          18.600
    390352.827 1    304170.380 2  25258514.128    25258516.157    25258513.799
        11.000          13.900
 -28796549.012 7 -22438861.881 7  19850464.109    19850463.986    19850464.264
        45.400          44.300
  -5045606.148 2  -3931639.470 1  24866412.793    24866412.161    24866412.139
        13.900           9.000
 -27548780.144 7 -21466575.938 7  20220536.239    20220536.299    20220536.407
        45.200          42.000
  -4966866.758 3  -3870285.611 3  24716512.581    24716511.591    24716512.938
        20.500          21.600
 -18484689.293 6 -14403650.785 5  21729672.109    21729672.101    21729672.184
        38.500          35.800
 -13810337.970 5 -10761299.486 4  23016097.937    23016096.966    23016098.564
        31.500          27.900
 -21835285.016 6 -17014501.654 6  21554232.510    21554232.797    21554233.167
        41.400          39.500
 -13278860.817 5 -10347152.600 4  22895226.513    22895226.598    22895227.577
        32.800          29.500
 -25068364.534 7 -19533783.258 6  20915564.389    20915564.841    20915564.453
        44.600          41.100
   1409944.417 1   1098655.246 2  24625976.279    24625977.535    24625976.452
        11.000          15.100
 13 10 10  0 19  0.0000000  0 12G10G27G26G21G 9G19G28G15G 5G 7G 8G 3
  -1297172.184 2  -1010771.035 2  25100164.873    25100167.503    25100164.409
        17.000          17.800
    426490.022 2    332329.198 2  25265390.124    25265392.705    25265391.055
        17.000          15.100
 -28828568.969 7 -22463812.490 7  19844370.361    19844370.750    19844370.947
        45.100          44.100
  -5055988.154 2  -3939729.358 2  24864436.034    24864436.673    24864437.661
        17.000          15.100
 -27499187.664 7 -21427932.437 6  20229973.218    20229973.390    20229973.553
        45.100          41.900
  -4987283.070 3  -3886194.464 3  24712626.833    24712626.512    24712627.624
        19.300          19.900
 -18530833.383 6 -14439607.165 6  21720891.420    21720891.310    21720891.444
        38.700          36.000
 -13902257.932 5 -10832925.449 4  22998606.144    22998605.154    22998606.790
        31.500          27.900
 -21768736.480 6 -16962645.665 6  21566896.531    21566896.549    21566897.081
        41.600          39.700
 -13187701.792 5 -10276119.598 4  22912573.955    22912573.341    22912574.641
        32.700          29.200
 -25025814.262 7 -19500627.201 6  20923661.710    20923661.799    20923661.623
        44.600          40.800
   1452191.999 3   1131575.383 2  24634017.246    24634016.872    24634017.077
        18.600          13.900
 13 10 10  0 19 30.0000000  0 12G10G27G26G21G 9G19G28G15G 5G 7G 8G 3
  -1179674.814 2   -919214.685 2  25122524.013    25122526.381    25122523.272
        15.100          12.600
    463151.335 2    360896.443 2  25272366.030    25272368.745    25272367.070
        15.100          15.100
 -28860087.498 7 -22488372.392 7  19838372.935    19838373.077    19838373.156
        45.100          44.300
  -5065875.583 2  -3947433.834 2  24862556.879    24862555.544    24862556.378
        16.100          17.800
 -27449117.824 7 -21388916.978 6  20239501.422    20239501.355    20239501.444
        44.900          41.700
  -5007130.240 3  -3901659.852 2  24708853.582    24708849.573    24708852.265
        21.600          17.000
 -18576483.567 6 -14475178.671 5  21712204.416    21712204.278    21712204.184
        38.600          35.400
 -13994001.513 5 -10904413.993 4  22981147.333    22981147.726    22981148.147
        30.800          28.400
 -21701713.398 6 -16910419.898 6  21579650.737    21579650.916    21579651.341
        41.700          39.700
 -13096363.327 5 -10204946.778 4  22929954.654    22929954.513    22929955.596
        32.400          28.600
 -24982869.075 7 -19467163.396 6  20931833.637    20931834.084    20931833.817
        44.900          41.100
   1495014.440 2   1164943.474 2  24642165.005    24642166.046    24642165.513
        13.900          17.800
 13 10 10  0 20  0.0000000  0 12G10G27G26G21G 9G19G28G15G 5G 7G 8G 3
  -1062177.779 2   -827658.565 2  25144882.535    25144885.480    25144882.399
        17.000          17.800
    500335.271 2    389870.849 2  25279442.411    25279444.841    25279442.556
        15.100          15.100
 -28891103.444 7 -22512540.671 7  19832470.624    19832470.959    19832471.087
        45.200          44.300
  -5075268.711 2  -3954753.172 2  24860769.165    24860767.490    24860769.066
        16.100          13.900
 -27398572.812 7 -21349531.268 6  20249119.088    20249119.815    20249119.802
        45.000          41.600
  -5026407.188 3  -3916680.916 3  24705184.743    24705181.611    24705184.914
        21.100          19.300
 -18621638.280 6 -14510364.094 5  21703611.432    21703611.168    21703611.621
        39.300          35.400
 -14085567.860 5 -10975764.349 4  22963723.226    22963722.574    22963723.782
        32.000          28.100
 -21634217.734 6 -16857825.892 6  21592494.147    21592494.605    21592495.204
        41.700          39.300
 -13004847.784 5 -10133635.971 4  22947369.982    22947369.523    22947370.491
        32.700          29.700
 -24939530.580 7 -19433393.140 6  20940080.806    20940081.209    20940080.836
        44.600          41.000
   1538410.161 2   1198758.263 2  24650421.798    24650423.944    24650422.423
        17.800          15.100
 13 10 10  0 20 30.0000000  0 12G10G27G26G21G 9G19G28G15G 5G 7G 8G 3
   -944683.092 2   -736104.285 2  25167241.128    25167243.647    25167241.294
        12.600          17.000
    538040.778 1    419251.719 2  25286616.077    25286619.678    25286617.143
         9.000          16.100
 -28921615.814 7 -22536316.535 7  19826664.322    19826664.624    19826664.781
        45.100          44.400
  -5084167.193 2  -3961687.038 2  24859075.533    24859075.271    24859075.518
        17.800          16.100
 -27347554.465 7 -21309776.736 6  20258828.142    20258828.351    20258828.247
        44.800          41.800
  -5045112.598 3  -3931256.627 3  24701625.869    24701622.836    24701625.033
