     2.10           OBSERVATION DATA    G (GPS)             RINEX VERSION / TYPE
teqc  2005Sep1                          20131009 00:15:19UTCPGM / RUN BY / DATE
OBSERVATION MODE: IGS-Net                                   COMMENT
WSRT Westerbork_Synth (WSRT)                                MARKER NAME
13506M005                                                   MARKER NUMBER
229                 AOA SNR-12 ACT       3.3.32.2N          REC # / TYPE / VERS
273                 AOAD/M_T        DUTD                    ANT # / TYPE
        0.3888        0.0000        0.0000                  ANTENNA: DELTA H/E/N
  3828735.6941  443305.1350  5064884.8236                   APPROX POSITION XYZ
  6.60450833  52.91461271  82.2809  LonLatAlt  RSW          COMMENT
Linux 2.4.20-8|Pentium IV|gcc|Linux|486/DX+                 COMMENT
HANS VAN DER MAREL  DUT/DEOS                                OBSERVER / AGENCY
     1     1                                                WAVELENGTH FACT L1/2
     7    L1    L2    C1    P2    P1    S1    S2            # / TYPES OF OBSERV
RUN BY HANS VAN DER MAREL                                   COMMENT
H.VANDERMAREL@TUDELFT.NL                                    COMMENT
    P1 =    P1  TurboRogue; =    Y1  Benchmark              COMMENT
    L1 = L1(CA)                                             COMMENT
    P2 =    P2  TurboRogue; =    Y2  Benchmark              COMMENT
    L2 = L2(P2) TurboRogue; = L2(Y2) Benchmark              COMMENT
 SNR is mapped to RINEX snr flag value [0-9]                COMMENT
  L1 & L2: min(max(int(snr_dBHz/6), 0), 9)                  COMMENT
  2013    10     8     0     0    0.0000000     GPS         TIME OF FIRST OBS
  2013    10     8    23    59   30.0000000     GPS         TIME OF LAST OBS
                                                            END OF HEADER
 13 10  8  0  0  0.0000000  0 12G 5G10G28G26G21G 9G 8G13G 7G15G19G27
 -24643194.986 7 -19202474.045 7  21019003.919    21019004.558    21019004.676
        43.100          43.700
  -7583933.422 4  -5909539.123 3  23895296.116    23895298.260    23895295.916
        24.900          23.400
 -15386762.303 5 -11989681.828 4  22326625.554    22326625.950    22326625.542
        35.100          29.500
 -26408640.101 7 -20578149.515 6  20307711.932    20307712.693    20307712.145
        43.000          40.900
  -4314567.528 2  -3362000.448 2  25108774.096    25108773.581    25108773.812
        12.600          12.600
 -29001877.463 7 -22598855.547 7  19857941.811    19857942.605    19857942.076
        46.000          44.700
 -26924416.260 7 -20980055.159 7  20599207.635    20599208.334    20599207.668
        45.300          43.300
    671881.511 1    523564.107 9  25422228.280    25422230.639    25422228.642
        11.000          -3.000
 -16600026.007 6 -12935075.290 5  22027420.050    22027420.354    22027420.583
        37.300          34.400
  -8564140.794 3  -6673351.886 3  23999383.163    23999385.454    23999385.002
        23.000          21.600
  -2917159.586 2  -2273109.579 2  25073166.774    25073164.506    25073165.881
        17.000          15.100
    -59647.609 2    -46478.071 2  25041294.400    25041297.239    25041294.352
        15.100          17.000
 13 10  8  0  0 30.0000000  0 12G 5G10G28G26G21G 9G 8G13G 7G15G19G27
 -24604293.283 7 -19172161.040 7  21026406.813    21026407.227    21026407.441
        43.200          43.500
  -7469715.521 3  -5820538.182 3  23917030.784    23917032.988    23917030.599
        23.000          22.600
 -15456893.082 5 -12044329.164 4  22313280.395    22313280.519    22313280.182
        34.600          29.500
 -26465602.867 7 -20622536.081 6  20296871.798    20296873.028    20296872.479
        43.000          41.000
  -4350798.295 2  -3390232.254 2  25101879.795    25101880.151    25101879.945
        13.900          15.100
 -28979949.659 7 -22581768.946 7  19862114.617    19862115.323    19862114.779
        45.900          44.800
 -26904757.024 7 -20964736.271 7  20602948.783    20602949.467    20602948.687
        45.300          43.500
    777547.119 1    605900.965    25442336.535    25442338.014    25442338.011
         9.000           3.000
 -16520972.643 6 -12873475.272 5  22042463.717    22042463.701    22042464.204
        37.300          34.600
  -8663386.739 3  -6750686.377 3  23980497.191    23980499.252    23980498.997
        22.100          20.500
  -2965608.529 3  -2310861.978 2  25063946.499    25063944.698    25063945.314
        19.300          15.100
    -52818.808 2    -41156.853 2  25042593.293    25042596.445    25042593.847
        16.100          17.800
 13 10  8  0  1  0.0000000  0 12G 5G10G28G26G21G 9G 8G13G 7G15G19G27
 -24564836.566 7 -19141415.561 7  21033915.215    21033915.602    21033915.888
        43.300          43.500
  -7355378.261 3  -5731444.252 3  23938788.217    23938791.113    23938787.991
        23.400          23.800
 -15526624.691 5 -12098665.470 5  22300011.010    22300011.212    22300011.015
        35.500          30.400
 -26522132.956 7 -20666585.503 6  20286115.033    20286115.626    20286115.215
        43.200          41.000
  -4386566.544 2  -3418103.611 2  25095072.631    25095073.402    25095073.707
        12.600          12.600
 -28957464.503 7 -22564248.046 7  19866393.339    19866393.978    19866393.546
        45.900          44.500
 -26884638.286 7 -20949059.330 7  20606777.146    20606778.060    20606777.133
        45.100          43.300
    883247.827 1    688265.175 1  25462450.777    25462451.656    25462451.463
         9.000          11.000
 -16441644.566 6 -12811661.192 5  22057558.949    22057559.248    22057559.635
        37.100          34.300
  -8762533.003 4  -6827943.162 3  23961632.296    23961633.039    23961633.058
        25.600          23.800
  -3013580.102 2  -2348242.408 3  25054817.188    25054816.951    25054815.516
        16.100          18.600
    -45427.993 2    -35397.845 2  25043999.873    25044002.852    25044000.429
        17.000          16.100
 13 10  8  0  1 30.0000000  0 12G 5G10G28G26G21G 9G 8G13G 7G15G19G27
 -24524825.996 7 -19110238.510 7  21041528.796    21041529.440    21041529.654
        43.100          43.400
  -7240923.925 3  -5642259.096 3  23960567.534    23960570.630    23960567.751
        23.000          22.100
 -15595954.963 5 -12152689.039 5  22286817.309    22286817.930    22286817.485
        35.300          30.100
 -26578228.901 7 -20710296.616 6  20275440.041    20275440.896    20275440.514
        43.200          41.200
  -4421870.828 2  -3445613.450 1  25088356.163    25088354.994    25088356.180
        15.100           9.000
 -28934423.262 7 -22546293.827 7  19870777.884    19870778.739    19870778.187
        46.000          44.600
 -26864061.130 7 -20933025.176 7  20610692.717    20610693.693    20610692.760
        45.100          43.400
    988982.334 1    770655.652 2  25482570.318    25482573.000    25482571.293
         6.500          13.900
 -16362043.901 6 -12749634.717 5  22072706.276    22072706.938    22072707.259
        37.100          34.000
  -8861578.489 4  -6905121.444 3  23942783.907    23942784.210    23942784.648
        24.200          19.900
  -3061072.120 2  -2385249.133 3  25045779.760    25045779.040    25045779.149
        17.000          18.600
    -37474.945 2    -29200.733 3  25045513.341    25045515.917    25045513.855
        16.100          18.600
 13 10  8  0  2  0.0000000  0 12G 5G10G28G26G21G 9G 8G13G 7G15G19G27
 -24484262.875 7 -19078630.898 7  21049247.758    21049248.392    21049248.449
        43.000          43.500
  -7126354.758 4  -5552984.442 3  23982370.008    23982372.288    23982369.583
        24.600          21.100
 -15664881.426 5 -12206397.950 5  22273701.194    22273701.529    22273701.052
        35.200          30.600
 -26633889.220 7 -20753668.291 6  20264848.452    20264849.099    20264848.646
        43.200          41.300
  -4456710.220 2  -3472761.026 2  25081726.034    25081725.305    25081725.756
        13.900          13.900
 -28910827.083 7 -22527907.191 7  19875268.177    19875268.963    19875268.411
        45.900          44.700
 -26843026.402 7 -20916634.475 7  20614695.525    20614696.530    20614695.518
        45.200          43.200
   1094750.037 1    853072.071 1  25502697.314    25502698.871    25502698.641
         6.500          11.000
 -16282172.309 6 -12687397.116 5  22087905.401    22087906.063    22087906.378
        37.200          33.800
  -8960521.684 3  -6982220.013 3  23923955.339    23923956.677    23923955.701
        23.400          20.500
  -3108082.477 2  -2421880.549 3  25036833.493    25036833.445    25036831.642
        15.100          19.300
    -28960.009 2    -22565.791 2  25047133.963    25047136.314    25047134.547
        17.800          17.800
 13 10  8  0  2 30.0000000  0 12G 5G10G28G26G21G 9G 8G13G 7G15G19G27
 -24443148.261 7 -19046593.558 7  21057071.673    21057072.185    21057072.427
        43.200          43.300
  -7011672.869 4  -5463621.945 3  24004193.311    24004195.447    24004193.145
        24.200          19.900
 -15733402.427 5 -12259790.914 5  22260662.467    22260662.419    22260662.333
        35.800          30.600
 -26689112.545 7 -20796699.448 6  20254339.115    20254340.480    20254340.064
        43.300          41.200
  -4491083.738 2  -3499545.589 2  25075184.808    25075184.479    25075184.915
        16.100          15.100
 -28886677.147 7 -22509089.054 7  19879863.739    19879864.506    19879863.906
        45.900          44.600
 -26821534.879 7 -20899887.833 7  20618785.234    20618786.278    20618785.275
        45.100          43.200
   1200550.286 1    935513.798 1  25522829.527    25522833.889    25522830.620
         9.000           9.000
 -16202031.787 6 -12624949.967 5  22103155.964    22103156.241    22103156.475
        36.500          34.000
  -9059361.517 4  -7059238.032 3  23905147.316    23905147.237    23905147.848
        24.600          22.600
  -3154608.944 2  -2458134.910 2  25027978.889    25027978.924    25027979.785
        16.100          17.000
    -19883.004 2    -15492.754 2  25048859.861    25048863.623    25048861.104
        13.900          17.000
 13 10  8  0  3  0.0000000  0 12G 5G10G28G26G21G 9G 8G13G 7G15G19G27
 -24401483.015 7 -19014127.146 7  21065000.189    21065000.794    21065001.071
        43.100          43.200
  -6896880.517 4  -5374173.355 3  24026038.034    24026040.110    24026037.748
        24.600          21.100
 -15801515.817 5 -12312866.266 5  22247700.419    22247701.111    22247700.568
        35.500          30.400
 -26743897.278 7 -20839388.848 6  20243914.771    20243915.346    20243914.936
        43.400          41.300
  -4524990.315 1  -3525966.316 2  25068732.195    25068732.229    25068732.063
         9.000          13.900
 -28861974.799 7 -22489840.470 7  19884564.095    19884565.129    19884564.450
        45.800          44.500
 -26799587.850 7 -20882786.249 7  20622961.806    20622962.675    20622961.686
        45.300          43.200
   1306381.814 9   1017979.958 9  25542969.385    25542971.995    25542970.345
        -3.000          -3.000
 -16121624.088 6 -12562294.643 5  22118456.983    22118457.368    22118457.586
        36.800          34.300
  -9158096.292 4  -7136174.185 3  23886358.161    23886358.871    23886359.375
        24.900          20.500
  -3200649.318 2  -2494010.524 2  25019219.195    25019217.974    25019218.949
        17.000          15.100
    -10244.312 2     -7982.031 2  25050694.475    25050697.959    25050696.124
        13.900          16.100
 13 10  8  0  3 30.0000000  0 12G 5G10G28G26G21G 9G 8G13G 7G15G19G27
 -24359268.005 7 -18981232.352 7  21073033.441    21073034.231    21073034.169
        42.700          43.400
  -6781979.954 4  -5284640.473 3  24047903.281    24047905.083    24047902.785
        24.600          21.100
 -15869219.149 5 -12365622.090 5  22234817.184    22234817.238    22234817.045
        35.600          30.600
 -26798242.127 7 -20881735.476 6  20233573.068    20233573.953    20233573.434
        43.300          41.600
  -4558428.653 2  -3552022.159 2  25062369.176    25062369.159    25062369.259
        13.900          15.100
 -28836721.026 7 -22470162.208 7  19889369.796    19889370.738    19889370.239
        46.000          44.500
 -26777186.571 7 -20865330.709 7  20627224.491    20627225.459    20627224.450
        45.200          43.100
   1412244.636 1   1100470.409 2  25563114.764    25563119.033    25563114.049
         9.000          12.600
 -16040951.011 6 -12499432.509 5  22133809.231    22133808.608    22133809.516
        37.200          33.400
  -9256724.991 4  -7213027.695 3  23867589.825    23867591.008    23867590.876
        24.200          21.100
  -3246201.353 2  -2529505.549 3  25010550.863    25010549.980    25010549.648
        15.100          19.300
       -44.252 2       -33.973 3  25052636.321    25052638.846    25052637.149
        17.000          18.600
 13 10  8  0  4  0.0000000  0 12G 5G10G28G26G21G 9G 8G13G 7G15G19G27
 -24316504.580 7 -18947910.221 7  21081171.405    21081171.777    21081172.087
        43.100          42.900
  -6666973.390 4  -5195024.977 3  24069787.807    24069790.082    24069787.350
        24.600          21.100
 -15936510.793 5 -12418057.118 5  22222011.772    22222012.103    22222011.849
        35.600          30.400
 -26852145.603 7 -20923738.183 6  20223315.750    20223316.459    20223315.909
        43.400          41.600
  -4591398.159 2  -3577712.711 2  25056095.991    25056095.357    25056095.321
        12.600          15.100
 -28810917.042 7 -22450055.209 7  19894280.293    19894281.079    19894280.599
        46.000          44.500
 -26754331.866 7 -20847521.842 7  20631573.637    20631574.587    20631573.546
        45.100          43.200
   1518137.558 1   1182984.409 2  25583266.493    25583267.795    25583267.489
         9.000          12.600
 -15960014.532 6 -12436365.124 5  22149210.823    22149210.388    22149211.269
        37.100          33.500
  -9355246.285 4  -7289797.507 4  23848841.626    23848843.003    23848842.693
        25.300          24.200
  -3291263.003 2  -2564618.468 2  25001975.371    25001973.967    25001975.348
        17.800          15.100
     10717.073 2      8351.506 2  25054684.262    25054686.722    25054683.777
        15.100          17.800
 13 10  8  0  4 30.0000000  0 11G 5G10G28G26G21G 9G 8G 7G15G19G27
 -24273194.249 7 -18914161.927 7  21089413.098    21089413.475    21089413.608
        43.000          42.900
  -6551863.214 4  -5105328.757 3  24091692.069    24091694.567    24091691.813
        24.600          18.600
 -16003388.540 6 -12470169.636 5  22209285.649    22209285.890    22209285.575
        36.000          31.000
 -26905606.217 7 -20965395.797 6  20213142.338    20213143.224    20213142.687
        43.400          41.600
  -4623897.989 2  -3603037.245 2  25049910.043    25049911.155    25049910.844
        15.100          13.900
 -28784564.268 7 -22429520.576 7  19899295.242    19899295.888    19899295.328
        46.000          44.500
 -26731024.753 7 -20829360.452 7  20636008.937    20636009.709    20636008.820
        45.200          43.000
 -15878816.415 6 -12373093.880 5  22164661.779    22164662.150    22164662.443
        36.400          33.500
  -9453658.789 3  -7366482.526 3  23830114.762    23830115.543    23830115.251
        23.800          23.400
  -3335831.994 2  -2599347.551 2  24993495.041    24993492.850    24993494.835
        17.000          13.900
     22039.283 2     17173.978 2  25056838.178    25056841.323    25056839.054
        17.800          16.100
 13 10  8  0  5  0.0000000  0 11G 5G10G28G26G21G 9G 8G 7G15G19G27
 -24229338.290 7 -18879988.469 7  21097758.584    21097758.984    21097759.246
        43.000          43.100
  -6436651.786 3  -5015553.634 3  24113616.729    24113618.423    24113616.466
        21.100          21.100
 -16069850.282 6 -12521957.988 5  22196638.292    22196638.709    22196638.159
        36.000          31.800
 -26958622.605 7 -21006707.267 6  20203053.699    20203054.428    20203054.002
        43.600          41.600
  -4655927.065 2  -3627994.951 2  25043815.979    25043815.747    25043816.019
        12.600          15.100
 -28757664.037 7 -22408559.355 7  19904414.046    19904414.720    19904414.220
        45.800          44.300
 -26707266.358 7 -20810847.419 7  20640529.915    20640530.642    20640529.856
        45.200          42.900
 -15797358.758 6 -12309620.396 5  22180162.657    22180162.862    22180163.399
        36.800          33.600
  -9551960.918 3  -7443081.563 3  23811408.233    23811409.458    23811408.691
        23.800          23.000
  -3379906.285 3  -2633691.082 2  24985107.572    24985106.489    24985106.524
        18.600          17.000
     33922.193 2     26433.389 3  25059100.080    25059102.676    25059101.163
        17.800          18.600
 13 10  8  0  5 30.0000000  0 11G 5G10G28G26G21G 9G 8G 7G15G19G27
 -24184937.116 7 -18845390.165 7  21106207.770    21106208.220    21106208.503
        43.000          43.000
  -6321341.050 3  -4925701.112 3  24135559.715    24135560.957    24135558.877
        22.600          20.500
 -16135893.985 5 -12573420.594 5  22184070.014    22184071.023    22184070.176
        35.800          31.100
 -27011193.414 7 -21047671.530 6  20193049.658    20193050.477    20193050.034
        43.500          41.800
  -4687484.464 2  -3652585.153 2  25037810.677    25037811.052    25037811.164
        16.100          13.900
 -28730217.730 7 -22387172.618 7  19909636.742    19909637.599    19909637.039
        45.800          44.200
 -26683057.597 7 -20791983.447 7  20645136.776    20645137.379    20645136.777
        45.200          43.000
 -15715643.063 6 -12245945.835 5  22195712.661    22195712.802    22195713.301
        36.900          33.600
  -9650151.819 4  -7519593.922 3  23792723.436    23792723.626    23792724.057
        25.300          23.400
  -3423483.959 2  -2667647.602 3  24976815.577    24976813.865    24976814.732
        17.000          19.300
     46365.623 3     36129.616 2  25061467.781    25061470.521    25061468.348
        18.600          16.100
 13 10  8  0  6  0.0000000  0 12G 5G10G28G26G21G 9G 8G 3G 7G15G19G27
 -24139992.079 7 -18810368.078 7  21114760.702    21114761.207    21114761.325
        43.200          42.900
  -6205933.236 3  -4835772.976 3  24157520.821    24157523.262    24157519.851
        20.500          21.600
 -16201517.682 5 -12624555.912 5  22171582.378    22171583.051    22171582.633
        35.500          31.300
 -27063317.048 7 -21088287.347 6  20183130.717    20183131.598    20183131.270
        43.800          41.600
  -4718569.273 2  -3676807.123 1  25031895.144    25031894.853    25031896.048
        13.900          11.000
 -28702226.433 7 -22365361.218 7  19914963.145    19914964.270    19914963.553
        45.700          44.200
 -26658399.868 7 -20772769.631 7  20649828.923    20649829.734    20649828.908
        45.200          42.800
     35279.135 2     27490.068 2  24394373.027    24394373.916    24394373.358
        16.100          17.000
 -15633671.413 6 -12182071.831 5  22211311.081    22211311.483    22211311.912
        36.500          33.400
  -9748230.107 4  -7596018.532 4  23774060.488    23774060.055    23774060.669
        26.200          24.200
  -3466562.671 3  -2701215.392 2  24968618.625    24968615.682    24968617.765
        19.900          17.800
     59368.951 2     46262.077 2  25063942.011    25063944.292    25063942.331
        17.000          13.900
 13 10  8  0  6 30.0000000  0 12G 5G10G28G26G21G 9G 8G 3G 7G15G19G27
 -24094504.787 7 -18774923.450 7  21123416.411    21123417.191    21123417.055
        42.700          42.900
  -6090430.586 3  -4745770.932 3  24179500.422    24179502.363    24179499.675
        23.400          23.000
 -16266719.188 6 -12675362.274 5  22159175.380    22159175.325    22159175.364
        36.300          31.000
 -27114992.331 7 -21128553.794 6  20173297.424    20173298.147    20173297.754
        43.700          41.800
  -4749180.459 1  -3700659.980 2  25026070.803    25026070.362    25026071.116
        11.000          15.100
 -28673691.767 7 -22343126.413 7  19920393.375    19920394.128    19920393.569
        45.600          44.000
 -26633294.068 7 -20753206.669 7  20654606.441    20654607.290    20654606.409
        45.200          43.000
     52784.102 3     41130.285 2  24397704.614    24397705.177    24397704.690
        18.600          13.900
 -15551445.834 6 -12117999.957 5  22226958.114    22226958.633    22226958.785
        36.300          33.100
  -9846194.292 4  -7672354.229 4  23755417.693    23755418.304    23755418.343
        25.900          24.200
  -3509140.483 2  -2734392.889 2  24960514.517    24960514.035    24960513.859
        15.100          17.800
     72932.062 2     56830.750 2  25066522.519    25066525.971    25066523.389
        17.000          16.100
 13 10  8  0  7  0.0000000  0 12G 5G10G28G26G21G 9G 8G 3G 7G15G19G27
 -24048476.372 7 -18739057.177 7  21132175.436    21132175.988    21132176.106
        42.800          42.700
  -5974835.632 3  -4655696.956 3  24201497.188    24201499.558    24201496.884
        21.100          21.600
 -16331496.390 6 -12725838.005 5  22146848.532    22146848.982    22146848.503
        36.400          31.800
 -27166217.707 7 -21168469.664 6  20163549.773    20163550.359    20163549.957
        43.800          41.900
  -4779317.454 2  -3724143.359 2  25020335.565    25020336.547    25020335.398
        13.900          13.900
 -28644615.077 7 -22320469.251 7  19925926.363    19925927.227    19925926.686
        45.800          44.100
 -26607741.425 7 -20733295.518 7  20659468.974    20659469.691    20659468.901
        45.400          42.700
     70906.258 2     55251.463 1  24401152.805    24401153.097    24401152.902
        17.000          11.000
 -15468968.063 5 -12053731.583 5  22242652.816    22242653.804    22242653.790
        35.900          33.400
  -9944043.258 4  -7748600.135 4  23736796.418    23736797.912    23736798.115
        25.600          24.200
  -3551215.404 2  -2767178.497 2  24952508.129    24952506.497    24952508.025
        17.000          17.000
     87054.566 2     67835.344 2  25069210.965    25069213.012    25069211.321
        17.000          15.100
 13 10  8  0  7 30.0000000  0 12G 5G10G28G26G21G 9G 8G 3G 7G15G19G27
 -24001908.123 7 -18702770.237 7  21141036.858    21141037.584    21141037.711
        43.000          42.300
  -5859150.278 3  -4565552.550 3  24223511.369    24223513.984    24223511.070
        23.400          22.600
 -16395847.572 6 -12775981.761 5  22134602.465    22134603.329    22134602.766
        36.300          31.600
 -27216991.826 7 -21208033.916 6  20153887.116    20153888.372    20153887.898
        44.000          41.800
  -4808979.240 2  -3747256.461 2  25014691.814    25014691.959    25014691.747
        16.100          17.800
 -28614997.473 7 -22297390.601 7  19931562.557    19931563.321    19931562.778
        45.900          44.200
 -26581742.783 7 -20713036.836 7  20664416.366    20664417.154    20664416.325
        45.500          43.000
     89644.956 2     69853.035 2  24404717.550    24404720.126    24404718.292
        13.900          16.100
 -15386239.825 6 -11989268.038 5  22258395.562    22258396.419    22258396.642
        36.400          33.200
 -10041775.358 4  -7824754.981 3  23718199.830    23718200.603    23718200.753
        26.500          23.000
  -3592785.413 2  -2799570.652 2  24944598.753    24944596.596    24944597.954
        17.000          17.800
    101736.075 2     79275.559 2  25072004.427    25072007.521    25072004.845
        17.000          17.000
 13 10  8  0  8  0.0000000  0 12G 5G10G28G26G21G 9G 8G 3G 7G15G19G27
 -23954801.451 7 -18666063.767 7  21150000.892    21150001.866    21150001.829
        42.600          42.600
  -5743376.653 3  -4475339.361 3  24245542.514    24245544.927    24245542.448
        22.100          22.600
 -16459770.781 6 -12825792.032 5  22122438.586    22122438.840    22122438.749
        36.500          31.600
 -27267313.279 7 -21247245.435 7  20144311.905    20144312.531    20144312.027
        43.900          42.000
  -4838165.004 2  -3769998.615 2  25009136.117    25009136.974    25009138.133
        17.800          13.900
 -28584840.275 7 -22273891.484 7  19937301.348    19937301.993    19937301.548
        45.900          43.900
 -26555299.489 7 -20692431.670 7  20669448.259    20669449.125    20669448.298
        45.400          42.700
    108999.603 1     84934.520 2  24408401.888    24408403.327    24408401.687
         6.500          15.100
 -15303262.746 6 -11924610.578 5  22274185.604    22274186.154    22274186.714
        36.100          32.300
 -10139389.121 4  -7900817.634 3  23699623.952    23699625.087    23699624.969
        25.900          23.400
  -3633848.491 2  -2831567.809 2  24936781.750    24936781.668    24936782.629
        16.100          13.900
    116976.033 1     91150.973 2  25074904.979    25074907.034    25074905.320
        11.000          17.000
 13 10  8  0  8 30.0000000  0 12G 5G10G28G26G21G 9G 8G 3G 7G15G19G27
 -23907157.240 7 -18628938.424 7  21159067.559    21159068.219    21159068.342
        42.700          42.700
  -5627517.084 3  -4385059.187 3  24267590.055    24267591.698    24267589.991
        23.800          20.500
 -16523263.937 6 -12875267.212 5  22110356.271    22110356.524    22110356.411
        36.700          32.300
 -27317180.702 7 -21286103.161 7  20134821.912    20134823.007    20134822.484
        43.900          42.100
  -4866873.777 2  -3792369.095 2  25003673.775    25003674.057    25003674.106
        15.100          13.900
 -28554144.912 7 -22249973.020 7  19943142.153    19943143.087    19943142.629
        45.800          44.000
 -26528412.338 7 -20671480.643 7  20674564.664    20674565.485    20674564.703
        45.200          42.600
    128969.855 2    100495.763 2  24412202.725    24412202.796    24412202.124
        13.900          16.100
 -15220038.999 6 -11859760.911 5  22290022.348    22290023.079    22290023.530
        36.100          32.400
 -10236883.356 4  -7976787.150 3  23681071.340    23681072.046    23681072.407
        26.200          22.600
  -3674402.739 3  -2863168.502 2  24929066.051    24929064.984    24929066.080
        19.300          17.000
    132774.035 2    103461.144 2  25077911.272    25077912.861    25077911.524
        15.100          17.800
 13 10  8  0  9  0.0000000  0 12G 5G10G28G26G21G 9G 8G 3G 7G15G19G27
 -23858977.213 7 -18591395.571 7  21168235.946    21168236.443    21168236.606
        42.700          42.500
  -5511573.816 3  -4294713.799 3  24289653.600    24289655.066    24289653.155
        21.100          19.300
 -16586325.050 6 -12924405.723 5  22098355.911    22098356.406    22098356.000
        36.000          31.600
 -27366592.668 7 -21324605.989 7  20125419.472    20125420.211    20125419.775
        43.900          42.000
  -4895105.187 2  -3814367.573 2  24998302.187    24998302.710    24998302.559
        13.900          16.100
 -28522913.065 7 -22225636.519 7  19949085.493    19949086.380    19949085.790
        45.800          43.800
 -26501082.841 7 -20650184.932 7  20679765.536    20679766.102    20679765.407
        45.300          42.700
    149555.270 2    116536.320 2  24416119.252    24416120.362    24416118.966
        16.100          13.900
 -15136570.363 6 -11794720.428 5  22305906.331    22305906.696    22305907.452
        36.300          32.600
 -10334256.723 4  -8052662.469 4  23662541.995    23662542.939    23662543.388
        26.800          24.600
  -3714446.039 2  -2894371.063 3  24921447.275    24921445.920    24921446.063
        17.800          18.600
    149129.495 2    116205.635 3  25081022.152    25081024.942    25081022.864
        17.000          18.600
 13 10  8  0  9 30.0000000  0 12G 5G10G28G26G21G 9G 8G 3G 7G15G19G27
 -23810262.599 7 -18553436.154 7  21177505.977    21177506.678    21177506.688
        42.900          42.300
  -5395549.116 3  -4204304.949 3  24311732.256    24311733.783    24311732.023
        21.600          18.600
 -16648952.227 6 -12973206.098 5  22086438.435    22086438.832    22086438.518
        36.200          31.600
 -27415547.880 7 -21362752.904 7  20116103.674    20116104.336    20116103.911
        43.800          42.200
  -4922857.849 2  -3835993.036 2  24993022.133    24993020.884    24993021.339
        13.900          12.600
 -28491145.876 7 -22200882.869 7  19955130.597    19955131.582    19955130.888
        45.800          43.900
 -26473312.366 7 -20628545.601 7  20685050.024    20685050.679    20685049.924
        45.400          42.600
    170754.643 2    133055.326 2  24420152.399    24420153.710    24420152.781
        12.600          12.600
 -15052858.812 6 -11729490.657 5  22321836.165    22321836.585    22321837.007
        36.300          32.400
 -10431508.038 4  -8128442.663 4  23644035.591    23644036.563    23644036.820
        26.800          24.600
  -3753976.470 2  -2925173.910 2  24913923.067    24913923.245    24913922.272
        17.000          17.800
    166042.098 3    129384.323 2  25084241.417    25084243.700    25084242.149
        18.600          17.000
 13 10  8  0 10  0.0000000  0 12G 5G10G28G26G21G 9G 8G 3G 7G15G19G27
 -23761014.605 7 -18515061.116 7  21186877.590    21186878.236    21186878.389
        42.700          42.300
  -5279445.115 3  -4113834.305 3  24333825.841    24333828.047    24333825.688
        20.500          19.300
 -16711143.588 6 -13021666.891 5  22074604.101    22074604.070    22074604.129
        36.800          32.100
 -27464044.874 7 -21400542.757 7  20106875.173    20106875.641    20106875.359
        43.900          42.300
  -4950131.333 2  -3857245.115 2  24987831.090    24987830.721    24987831.361
        15.100          15.100
 -28458844.667 7 -22175713.095 7  19961277.402    19961278.302    19961277.596
        45.600          43.700
 -26445101.489 7 -20606563.101 7  20690418.243    20690418.969    20690418.260
        45.300          42.400
    192567.581 2    150052.442 1  24424303.176    24424305.207    24424303.854
        12.600          11.000
 -14968906.034 5 -11664072.925 5  22337812.260    22337812.327    22337812.860
        35.900          33.000
 -10528635.870 4  -8204126.690 4  23625552.538    23625554.102    23625553.742
        26.500          24.200
  -3792992.072 3  -2955575.658 2  24906499.979    24906497.805    24906499.531
        19.300          15.100
    183511.307 2    142996.696 2  25087565.693    25087568.110    25087565.773
        15.100          17.000
 13 10  8  0 10 30.0000000  0 12G 5G10G28G26G21G 9G 8G 3G 7G15G19G27
 -23711234.728 7 -18476271.629 7  21196350.104    21196351.069    21196351.163
        42.600          42.300
  -5163264.026 3  -4023303.628 3  24355934.397    24355936.603    24355934.165
        19.300          19.900
 -16772897.372 6 -13069786.715 5  22062852.311    22062852.967    22062852.436
        36.300          32.800
 -27512082.382 7 -21437974.584 7  20097733.450    20097734.356    20097734.069
        44.200          42.200
  -4976924.996 2  -3878123.305 2  24982732.129    24982732.320    24982732.365
        16.100          12.600
 -28426011.065 7 -22150128.470 7  19967525.142    19967526.358    19967525.629
        45.600          43.800
 -26416451.788 7 -20584238.658 7  20695870.159    20695870.921    20695870.149
        45.300          42.600
    214993.703 2    167527.362 2  24428572.054    24428572.645    24428571.836
        15.100          13.900
 -14884713.940 6 -11598468.708 5  22353833.484    22353833.461    22353834.060
        36.200          32.100
 -10625638.853 4  -8279713.384 3  23607093.689    23607094.149    23607094.510
        27.600          23.800
  -3831490.889 3  -2985574.708 2  24899173.344    24899172.580    24899173.649
        18.600          17.800
    201536.438 2    157042.188 2  25090996.051    25090997.816    25090996.382
        16.100          17.800
 13 10  8  0 11  0.0000000  0 12G 5G10G28G26G21G 9G 8G 3G 7G15G19G27
 -23660924.951 7 -18437069.227 7  21205923.997    21205924.731    21205924.840
        42.800          42.300
  -5047008.242 3  -3932714.687 2  24378056.424    24378058.160    24378055.999
        22.100          16.100
 -16834211.321 6 -13117563.786 5  22051185.108    22051185.204    22051185.033
        36.600          32.100
 -27559659.048 7 -21475047.303 7  20088680.499    20088680.869    20088680.633
        44.200          42.400
  -5003237.952 2  -3898626.925 1  24977725.576    24977725.027    24977725.597
        12.600           9.000
 -28392646.569 7 -22124130.167 7  19973874.552    19973875.347    19973874.779
        45.700          43.800
 -26387364.047 7 -20561572.883 7  20701405.206    20701406.186    20701405.271
        45.200          42.400
    238032.125 3    185479.403 2  24432956.321    24432957.365    24432956.842
        19.300          15.100
 -14800284.125 6 -11532679.249 5  22369899.733    22369900.095    22369900.501
        36.200          32.400
 -10722515.285 4  -8355201.490 4  23588658.837    23588659.744    23588659.642
        27.600          24.900
  -3869471.195 2  -3015169.706 3  24891945.956    24891944.199    24891945.968
        17.800          18.600
    220117.047 2    171520.519 2  25094530.464    25094533.627    25094531.225
        16.100          17.800
 13 10  8  0 11 30.0000000  0 12G 5G10G28G26G21G 9G 8G 3G 7G15G19G27
 -23610085.691 7 -18397454.244 7  21215598.626    21215599.075    21215599.253
        42.700          42.100
  -4930680.000 3  -3842069.338 2  24400193.102    24400195.573    24400192.513
        18.600          17.800
 -16895083.902 6 -13164996.953 5  22039601.323    22039601.320    22039601.339
        36.600          32.600
 -27606773.555 7 -21511759.907 7  20079714.691    20079715.352    20079715.009
        44.400          42.400
  -5029069.510 2  -3918755.406 2  24972810.109    24972810.115    24972810.246
        17.000          15.100
 -28358752.742 7 -22097719.388 7  19980324.258    19980325.139    19980324.575
        45.600          43.700
 -26357839.823 7 -20538566.993 7  20707023.293    20707024.451    20707023.504
        45.200          42.300
    261681.939 2    203907.811 2  24437456.660    24437457.229    24437456.646
        17.800          15.100
 -14715618.408 5 -11466705.982 5  22386011.271    22386011.468    22386011.585
        35.300          32.700
 -10819263.907 4  -8430589.976 3  23570247.782    23570248.580    23570248.932
        26.500          23.800
  -3906931.092 3  -3044359.208 3  24884817.674    24884816.266    24884816.440
        19.900          19.300
    239252.633 3    186431.350 2  25098172.322    25098175.699    25098172.961
        18.600          17.800
 13 10  8  0 12  0.0000000  0 12G 5G10G28G26G21G 9G 8G 3G 7G15G19G27
 -23558718.630 7 -18357427.988 6  21225373.328    21225374.082    21225374.063
        42.700          41.900
  -4814281.183 3  -3751368.977 2  24422343.704    24422345.310    24422342.889
        18.600          17.000
 -16955512.955 6 -13212084.512 5  22028102.173    22028102.262    22028102.106
        36.900          32.800
 -27653424.428 7 -21548111.228 7  20070837.446    20070838.021    20070837.605
        44.400          42.500
  -5054419.069 2  -3938508.316 2  24967984.330    24967985.524    24967985.172
        17.000          13.900
 -28324330.862 7 -22070897.149 7  19986874.499    19986875.424    19986874.810
        45.700          43.600
 -26327880.318 7 -20515221.924 7  20712724.662    20712725.548    20712724.727
        45.300          42.600
    285942.494 2    222812.130 2  24442073.033    24442073.840    24442072.602
        16.100          17.000
 -14630718.778 5 -11400550.440 5  22402166.866    22402167.272    22402167.600
        35.300          32.100
 -10915883.226 4  -8505877.748 4  23551861.461    23551862.860    23551862.765
        25.900          24.600
  -3943868.602 2  -3073141.657 2  24877788.871    24877786.636    24877787.235
        17.000          16.100
    258942.573 2    201774.146 2  25101919.125    25101922.344    25101919.993
        16.100          13.900
 13 10  8  0 12 30.0000000  0 12G 5G10G28G26G21G 9G 8G 3G 7G15G19G27
 -23506825.560 7 -18316991.855 7  21235248.305    21235248.978    21235249.070
        42.600          42.000
  -4697813.929 3  -3660615.275 3  24444506.794    24444508.596    24444506.381
        21.100          19.900
 -17015496.829 6 -13258825.177 5  22016687.220    22016687.980    22016687.494
        37.100          32.800
 -27699610.491 7 -21584100.372 7  20062047.951    20062049.049    20062048.715
        44.400          42.600
  -5079285.900 2  -3957885.048 2  24963253.503    24963253.437    24963253.765
        15.100          16.100
 -28289382.344 7 -22043664.537 7  19993525.027    19993525.744    19993525.327
        45.600          43.500
 -26297486.703 7 -20491538.591 7  20718508.321    20718509.234    20718508.396
        45.000          42.500
    310813.247 2    242191.927 2  24446805.823    24446807.200    24446805.913
        17.000          17.800
 -14545587.176 5 -11334214.116 5  22418367.091    22418367.355    22418367.529
        35.200          32.100
 -11012372.082 4  -8581063.846 4  23533501.457    23533501.305    23533502.394
        28.800          24.900
  -3980282.168 3  -3101515.832 2  24870859.248    24870857.864    24870858.294
        18.600          17.800
    279186.120 2    217548.296 2  25105771.072    25105774.274    25105772.438
        13.900          17.800
 13 10  8  0 13  0.0000000  0 12G 5G10G28G26G21G 9G 8G 3G 7G15G19G27
 -23454407.796 7 -18276146.871 6  21245223.073    21245223.690    21245223.888
        42.700          41.800
  -4581280.818 3  -3569810.281 3  24466681.353    24466684.412    24466681.491
        19.300          21.100
 -17075033.678 6 -13305217.509 5  22005357.953    22005358.227    22005357.900
        36.800          32.400
 -27745330.379 7 -21619726.254 7  20053348.118    20053348.816    20053348.477
        44.500          42.500
  -5103669.159 2  -3976885.004 2  24958613.829    24958613.567    24958613.606
        17.800          15.100
 -28253908.614 7 -22016022.672 7  20000275.501    20000276.208    20000275.764
        45.800          43.600
 -26266660.104 7 -20467517.864 7  20724374.579    20724375.372    20724374.492
        45.100          42.400
    336293.222 2    262046.432 2  24451654.132    24451655.470    24451654.503
        12.600          15.100
 -14460225.276 5 -11267698.361 5  22434611.114    22434610.988    22434611.387
        35.300          32.100
 -11108729.076 4  -8656147.188 4  23515164.572    23515165.425    23515165.783
        26.500          24.200
  -4016169.723 2  -3129480.130 2  24864029.835    24864028.424    24864029.574
        17.800          16.100
    299982.696 2    233753.391 2  25109729.608    25109731.046    25109729.127
        17.000          15.100
 13 10  8  0 13 30.0000000  0 12G 5G10G28G26G21G 9G 8G 3G 7G15G19G27
 -23401466.425 7 -18234893.879 6  21255297.449    21255298.304    21255298.300
        42.700          41.900
  -4464684.170 3  -3478955.760 3  24488868.838    24488871.930    24488869.029
        21.600          18.600
 -17134121.751 6 -13351260.149 5  21994114.049    21994114.270    21994113.903
        37.000          32.700
 -27790582.647 7 -21654987.769 7  20044736.782    20044737.602    20044737.186
        44.500          42.700
  -5127568.443 2  -3995507.807 2  24954065.851    24954064.993    24954066.276
        15.100          16.100
 -28217911.577 7 -21987973.033 7  20007125.485    20007126.239    20007125.758
        45.800          43.600
 -26235401.585 7 -20443160.577 7  20730322.883    20730323.700    20730322.878
        45.000          42.500
    362381.782 2    282375.169 2  24456617.812    24456619.718    24456618.568
        15.100          17.000
 -14374634.839 5 -11201004.525 5  22450897.881    22450898.447    22450898.686
        34.800          32.000
 -11204952.547 4  -8731126.518 4  23496853.916    23496854.700    23496854.647
        27.100          24.600
  -4051529.379 2  -3157033.069 3  24857301.706    24857300.817    24857300.793
        17.800          19.300
    321331.761 2    250389.040 2  25113791.458    25113794.463    25113791.897
        16.100          16.100
 13 10  8  0 14  0.0000000  0 12G 5G10G28G26G21G 9G 8G 3G 7G15G19G27
 -23348003.394 7 -18193234.398 6  21265471.086    21265471.951    21265471.882
        42.400          41.800
  -4348025.930 3  -3388053.252 3  24511068.654    24511070.924    24511068.388
        22.100          19.300
 -17192759.088 6 -13396951.562 5  21982955.556    21982956.091    21982955.635
        37.200          33.200
 -27835366.139 7 -21689883.987 7  20036215.236    20036215.611    20036215.174
        44.300          43.000
  -5150983.232 2  -4013753.091 2  24949609.307    24949609.096    24949609.850
        17.000          15.100
 -28181392.417 7 -21959516.549 7  20014074.997    20014075.573    20014075.174
        45.700          43.400
 -26203712.383 7 -20418467.695 7  20736353.087    20736354.077    20736353.087
        45.200          42.500
    389077.738 2    303177.228 2  24461698.480    24461700.221    24461699.447
        17.800          17.000
 -14288817.530 5 -11134133.904 5  22467228.323    22467228.979    22467229.314
        35.200          31.600
 -11301041.487 4  -8806000.978 4  23478569.303    23478569.301    23478570.157
        29.000          25.300
  -4086359.721 3  -3184173.573 2  24850673.791    24850671.914    24850673.373
        18.600          17.000
    343232.479 2    267454.570 3  25117959.803    25117962.727    25117959.879
        17.000          18.600
 13 10  8  0 14 30.0000000  0 12G 5G10G28G26G21G 9G 8G 3G 7G15G19G27
 -23294020.356 7 -18151169.713 6  21275743.981    21275744.385    21275744.688
        42.500          41.400
  -4231308.158 3  -3297104.342 3  24533278.727    24533281.618    24533279.078
        22.100          19.900
 -17250943.874 6 -13442290.345 5  21971883.333    21971883.645    21971883.288
        37.000          33.200
 -27879679.481 7 -21724413.860 7  20027782.531    20027783.100    20027782.638
        44.300          42.700
  -5173912.316 2  -4031619.905 2  24945247.521    24945247.052    24945247.318
        17.000          12.600
 -28144352.754 7 -21930654.471 7  20021123.237    20021124.103    20021123.522
        45.600          43.400
 -26171593.834 7 -20393440.255 7  20742465.229    20742465.970    20742465.073
        45.200          42.100
    416380.291 2    324451.955 2  24466894.316    24466894.822    24466895.404
        17.000          17.800
 -14202775.500 5 -11067088.186 5  22483601.585    22483602.197    22483602.342
        35.200          31.500
 -11396994.325 4  -8880769.408 4  23460309.335    23460310.368    23460310.458
        26.800          25.300
  -4120658.817 3  -3210900.105 2  24844146.228    24844144.527    24844145.980
        18.600          17.000
    365684.084 2    284949.345 3  25122231.187    25122234.965    25122232.584
        17.800          19.300
 13 10  8  0 15  0.0000000  0 12G 5G10G28G26G21G 9G 8G 3G 7G15G19G27
 -23239518.683 7 -18108700.896 6  21286115.047    21286115.912    21286116.020
        42.500          41.600
  -4114533.419 3  -3206111.057 3  24555500.483    24555503.656    24555500.729
        19.300          19.900
 -17308674.440 6 -13487275.185 5  21960897.430    21960897.650    21960897.533
        37.200          32.800
 -27923521.339 7 -21758576.349 7  20019438.742    20019440.299    20019439.790
        44.500          42.800
  -5196355.770 2  -4049108.301 2  24940976.211    24940974.984    24940976.124
        16.100          15.100
 -28106794.070 7 -21901387.968 7  20028270.318    20028271.325    20028270.694
        45.700          43.400
 -26139047.037 7 -20368079.116 7  20748658.338    20748659.316    20748658.462
        45.100          42.300
    444288.567 2    346198.635 2  24472205.013    24472205.984    24472204.622
        13.900          17.000
 -14116510.289 5 -10999868.548 5  22500017.024    22500017.816    22500018.216
        34.500          31.100
 -11492809.310 4  -8955430.430 4  23442076.744    23442077.312    23442077.529
        27.400          24.600
  -4154424.927 3  -3237211.342 2  24837719.913    24837720.069    24837719.454
        19.300          16.100
    388685.816 2    302872.728 2  25126608.105    25126611.083    25126608.922
        16.100          16.100
 13 10  8  0 15 30.0000000  0 12G 5G10G28G26G21G 9G 8G 3G 7G15G19G27
 -23184499.856 7 -18065829.106 6  21296584.917    21296585.537    21296585.602
        42.500          41.400
  -3997703.705 3  -3115074.956 3  24577732.800    24577735.438    24577732.404
        20.500          20.500
 -17365948.868 6 -13531904.593 5  21949998.544    21949998.885    21949998.656
        37.500          33.600
 -27966890.458 7 -21792370.467 7  20011186.193    20011187.395    20011186.894
        44.600          42.900
  -5218312.926 2  -4066217.779 2  24936798.078    24936797.480    24936798.205
        17.000          16.100
 -28068717.958 7 -21871718.274 7  20035516.157    20035516.983    20035516.380
        45.600          43.400
 -26106073.465 7 -20342385.427 7  20754933.084    20754934.018    20754933.094
        45.000          42.400
    472801.772 2    368416.690 2  24477629.897    24477631.849    24477630.927
        16.100          16.100
 -14030023.800 5 -10932476.492 5  22516475.064    22516476.125    22516476.093
        34.800          31.800
 -11588485.338 4  -9029983.154 4  23423871.351    23423870.646    23423871.786
        28.800          25.900
  -4187656.675 3  -3263106.187 2  24831397.622    24831395.548    24831396.715
        20.500          17.000
    412236.997 2    321224.257 2  25131090.190    25131092.771    25131091.923
        16.100          17.000
 13 10  8  0 16  0.0000000  0 12G 5G10G28G26G21G 9G 8G 3G 7G15G19G27
 -23128965.836 7 -18022555.860 6  21307152.727    21307153.260    21307153.546
        42.400          41.200
  -3880821.416 3  -3023997.855 3  24599975.819    24599977.623    24599975.281
        19.900          18.600
 -17422765.606 6 -13576177.349 5  21939186.921    21939187.085    21939186.802
        37.200          33.500
 -28009785.628 7 -21825795.275 7  20003023.436    20003024.689    20003024.230
        44.700          43.100
  -5239783.277 1  -4082947.858 2  24932711.500    24932711.175    24932711.681
        11.000          16.100
 -28030125.874 7 -21841646.525 7  20042859.986    20042860.844    20042860.201
        45.600          43.500
 -26072674.507 7 -20316360.270 7  20761288.468    20761289.709    20761288.658
        45.100          42.300
    501918.840 2    391105.308 2  24483171.852    24483172.865    24483171.971
        17.800          15.100
 -13943317.738 5 -10864913.340 5  22532974.943    22532975.487    22532975.836
        35.100          31.500
 -11684020.834 4  -9104426.381 4  23405690.439    23405690.851    23405691.292
        28.800          24.900
  -4220351.860 2  -3288582.914 2  24825176.186    24825174.050    24825175.387
        17.800          16.100
    436336.947 2    340003.453 2  25135676.223    25135679.493    25135676.622
        13.900          12.600
 13 10  8  0 16 30.0000000  0 12G 5G10G28G26G21G 9G 8G 3G 7G15G19G27
 -23072917.439 7 -17978881.808 6  21317818.478    21317819.040    21317819.163
        42.400          41.400
  -3763888.615 3  -2932881.379 3  24622226.824    24622229.466    24622226.741
        20.500          19.900
 -17479122.807 6 -13620092.032 5  21928462.236    21928462.556    21928462.045
        37.200          33.500
 -28052205.573 7 -21858849.772 7  19994952.056    19994952.444    19994952.040
        44.500          43.100
  -5260766.046 2  -4099298.046 2  24928719.197    24928718.937    24928719.636
        17.000          13.900
 -27991019.624 7 -21811174.123 7  20050301.482    20050302.331    20050301.782
        45.600          43.100
 -26038851.078 7 -20290004.355 7  20767725.115    20767725.952    20767725.111
        44.900          42.100
    531638.990 3    414263.875 2  24488828.640    24488827.340    24488828.255
        19.300          15.100
 -13856393.777 5 -10797180.399 5  22549516.029    22549516.547    22549516.858
        34.700          31.500
 -11779414.530 4  -9178759.117 4  23387537.344    23387538.437    23387538.229
        27.600          25.600
  -4252509.064 3  -3313640.436 3  24819056.988    24819055.446    24819055.908
        18.600          19.900
    460984.617 2    359209.426 2  25140366.598    25140369.357    25140367.488
        16.100          17.000
 13 10  8  0 17  0.0000000  0 12G 5G10G28G26G21G 9G 8G 3G 7G15G19G27
 -23016356.594 7 -17934808.446 6  21328581.608    21328582.515    21328582.276
        42.200          41.500
  -3646907.345 3  -2841727.164 2  24644486.988    24644490.102    24644486.752
        18.600          17.000
 -17535018.702 6 -13663647.251 5  21917825.595    21917825.935    21917825.551
        37.300          33.600
 -28094148.942 7 -21891532.916 7  19986970.121    19986970.893    19986970.383
        44.700          43.100
  -5281261.100 2  -4115268.233 2  24924819.009    24924818.509    24924818.427
        16.100          13.900
 -27951400.674 7 -21780302.213 7  20057840.568    20057841.537    20057841.050
        45.500          43.200
 -26004604.443 7 -20263318.667 7  20774242.024    20774242.885    20774242.045
        45.100          42.000
    561960.803 2    437891.156 2  24494598.113    24494597.698    24494598.256
        17.000          13.900
 -13769254.110 5 -10729279.374 5  22566098.524    22566098.633    22566099.140
        34.400          31.100
 -11874664.880 4  -9252980.170 4  23369412.264    23369412.237    23369413.037
        29.000          24.600
  -4284126.606 3  -3338277.458 3  24813039.851    24813037.716    24813038.754
        19.300          19.300
    486179.374 3    378841.716 2  25145161.491    25145164.676    25145161.800
        19.900          17.000
 13 10  8  0 17 30.0000000  0 12G 5G10G28G26G21G 9G 8G 3G 7G15G19G27
 -22959285.175 7 -17890337.230 6  21339441.880    21339442.502    21339442.634
        42.300          41.100
  -3529879.579 3  -2750536.714 3  24666756.755    24666759.199    24666756.318
        19.300          19.300
 -17590451.816 6 -13706841.863 5  21907276.930    21907277.127    21907276.939
        37.800          33.600
 -28135614.498 7 -21923843.736 7  19979079.684    19979080.215    19979079.826
        44.700          43.200
  -5301267.593 2  -4130857.701 1  24921011.489    24921011.456    24921010.848
        15.100          11.000
 -27911270.539 7 -21749031.982 7  20065477.438    20065478.146    20065477.622
        45.600          43.200
 -25969935.958 7 -20236304.267 7  20780839.226    20780840.133    20780839.315
        45.000          42.200
    592883.508 2    461986.796 2  24500482.713    24500483.072    24500482.523
        15.100          16.100
 -13681900.159 5 -10661211.368 5  22582721.191    22582721.370    22582722.161
        34.900          31.300
 -11969770.365 4  -9327088.296 4  23351314.767    23351314.485    23351315.079
        29.000          26.200
  -4315202.855 3  -3362492.692 2  24807125.690    24807124.143    24807124.547
        19.900          17.800
    511920.356 3    398899.673 2  25150059.038    25150062.250    25150059.862
        18.600          17.800
 13 10  8  0 18  0.0000000  0 12G 5G10G28G26G21G 9G 8G 3G 7G15G19G27
 -22901704.793 7 -17845469.414 6  21350399.155    21350399.799    21350399.849
        42.100          40.700
  -3412807.723 2  -2659311.898 3  24689034.774    24689037.268    24689034.418
        16.100          18.600
 -17645420.393 6 -13749674.502 5  21896816.778    21896817.041    21896816.900
        37.600          33.900
 -28176601.037 7 -21955781.298 7  19971280.235    19971280.745    19971280.419
        44.800          43.100
  -5320784.723 2  -4146065.848 2  24917297.722    24917297.334    24917297.351
        17.000          15.100
 -27870630.928 7 -21717364.760 7  20073210.969    20073211.536    20073211.179
        45.500          43.000
 -25934846.849 7 -20208962.107 7  20787516.604    20787517.326    20787516.497
        44.900          42.100
    624406.283 2    486550.000 2  24506481.332    24506481.743    24506480.933
        17.000          13.900
 -13594333.665 5 -10592977.751 5  22599384.181    22599384.840    22599385.268
        34.700          30.800
 -12064729.593 4  -9401082.500 4  23333243.473    23333243.931    23333244.044
        26.800          24.900
  -4345736.384 3  -3386285.022 3  24801315.829    24801313.680    24801314.065
        19.300          18.600
    538206.490 2    419382.350 2  25155061.225    25155064.490    25155062.223
        16.100          16.100
 13 10  8  0 18 30.0000000  0 12G 5G10G28G26G21G 9G 8G 3G 7G15G19G27
 -22843616.883 7 -17800206.131 6  21361453.012    21361453.713    21361453.733
        42.300          41.000
  -3295694.259 2  -2568054.691 2  24711321.005    24711323.384    24711320.981
        17.000          16.100
 -17699922.760 6 -13792143.862 5  21886445.428    21886445.699    21886445.297
        37.700          34.100
 -28217107.158 7 -21987344.504 7  19963571.783    19963572.686    19963572.341
        44.900          43.400
  -5339812.774 2  -4160892.896 2  24913677.745    24913676.737    24913677.272
        15.100          12.600
 -27829483.416 7 -21685301.775 7  20081041.028    20081041.759    20081041.245
        45.500          43.000
 -25899338.337 7 -20181293.139 7  20794273.849    20794274.402    20794273.659
        44.900          42.000
    656528.047 2    511579.930 2  24512592.786    24512593.985    24512593.813
        17.000          13.900
 -13506556.478 5 -10524579.957 5  22616087.632    22616088.453    22616088.471
        34.100          30.600
 -12159541.023 4  -9474961.551 4  23315201.915    23315202.700    23315202.395
        29.200          27.100
  -4375725.574 2  -3409653.221 2  24795608.183    24795607.042    24795607.912
        17.800          17.800
    565036.898 2    440289.120 2  25160166.758    25160170.197    25160167.475
        17.000          17.000
 13 10  8  0 19  0.0000000  0 12G 5G10G28G26G21G 9G 8G 3G 7G15G19G27
 -22785023.141 7 -17754548.689 6  21372602.948    21372603.710    21372603.718
        42.100          40.900
  -3178541.296 3  -2476766.670 2  24733614.316    24733616.830    24733613.604
        19.300          16.100
 -17753957.265 6 -13834248.650 5  21876162.737    21876163.283    21876162.796
        37.500          34.500
 -28257131.812 7 -22018532.543 7  19955955.625    19955956.183    19955955.891
        44.800          43.300
  -5358350.976 2  -4175338.275 2  24910149.290    24910148.004    24910149.235
        12.600          13.900
 -27787829.751 7 -21652844.377 7  20088967.288    20088968.258    20088967.703
        45.400          43.100
 -25863411.868 7 -20153298.492 6  20801110.467    20801111.065    20801110.255
        45.000          41.900
    689247.474 2    537075.577 1  24518818.259    24518820.504    24518819.226
        16.100           9.000
 -13418570.613 5 -10456019.558 5  22632831.049    22632831.825    22632831.708
        34.300          31.000
 -12254203.441 4  -9548724.430 4  23297189.147    23297188.507    23297189.579
        29.500          24.600
  -4405168.932 2  -3432596.042 3  24790005.844    24790004.855    24790005.427
        16.100          18.600
    592410.945 2    461619.582 2  25165376.698    25165379.175    25165377.458
        17.800          15.100
 13 10  8  0 19 30.0000000  0 12G 5G10G28G26G21G 9G 8G 3G 7G15G19G27
 -22725925.308 7 -17708498.454 6  21383848.966    21383849.666    21383849.635
        42.100          40.700
  -3061350.740 3  -2385449.354 2  24755915.209    24755917.510    24755915.132
        19.900          17.800
 -17807522.126 6 -13875987.481 5  21865970.236    21865970.108    21865970.135
        38.300          34.400
 -28296673.730 7 -22049344.423 7  19948430.647    19948431.589    19948431.199
        44.700          43.400
  -5376399.026 2  -4189401.693 2  24906714.385    24906714.354    24906715.405
        12.600          15.100
 -27745671.481 7 -21619993.776 7  20096989.889    20096990.538    20096990.163
        45.400          43.000
 -25827068.553 7 -20124979.027 7  20808026.164    20808026.972    20808026.075
        44.700          42.000
    722563.122 2    563035.826 1  24525158.634    24525160.547    24525159.590
        17.800          11.000
 -13330377.514 5 -10387297.683 5  22649613.942    22649614.418    22649614.417
        33.900          30.800
 -12348715.160 4  -9622369.887 4  23279202.981    23279204.213    23279203.542
        29.000          26.800
  -4434064.739 3  -3455112.233 2  24784507.406    24784505.558    24784506.077
        19.300          17.000
    620327.474 2    483372.739 2  25170688.544    25170691.374    25170689.768
        17.000          17.800
 13 10  8  0 20  0.0000000  0 12G 5G10G28G26G21G 9G 8G 3G 7G15G19G27
 -22666325.421 7 -17662057.001 6  21395190.746    21395190.968    21395191.190
        42.100          40.600
  -2944124.939 3  -2294104.607 2  24778222.331    24778224.754    24778222.471
        18.600          17.000
 -17860615.802 6 -13917359.164 5  21855866.783    21855866.498    21855866.617
        38.100          33.900
 -28335731.675 7 -22079779.181 7  19940998.416    19940999.098    19940998.716
        44.800          43.400
  -5393956.252 2  -4203082.630 2  24903374.395    24903373.638    24903373.994
        17.800          15.100
 -27703010.042 7 -21586751.105 7  20105107.994    20105108.862    20105108.225
        45.500          43.000
 -25790309.543 7 -20096335.647 6  20815021.119    20815021.870    20815021.134
        45.000          41.700
    756473.984 2    589459.873 2  24531611.195    24531612.776    24531611.699
        15.100          12.600
 -13241978.934 5 -10318415.692 5  22666435.498    22666435.980    22666436.323
        34.100          30.400
 -12443074.750 4  -9695896.851 4  23261246.855    23261247.606    23261247.897
        29.000          25.600
  -4462411.423 2  -3477200.524 3  24779112.397    24779111.892    24779111.047
        17.800          19.900
    648785.417 2    505547.664 2  25176103.652    25176107.075    25176104.932
        17.800          16.100
 13 10  8  0 20 30.0000000  0 12G 5G10G28G26G21G 9G 8G 3G 7G15G19G27
 -22606224.676 7 -17615225.268 6  21406627.572    21406628.015    21406628.120
        42.000          40.800
  -2826866.082 2  -2202734.063 3  24800536.956    24800538.517    24800536.636
        17.800          18.600
 -17913236.748 6 -13958362.477 5  21845853.302    21845853.301    21845853.152
        38.300          34.300
 -28374304.460 7 -22109835.895 7  19933657.532    19933658.946    19933658.566
