     2.10           OBSERVATION DATA    G (GPS)             RINEX VERSION / TYPE
teqc  2005Sep1                          20131008 00:15:19UTCPGM / RUN BY / DATE
OBSERVATION MODE: IGS-Net                                   COMMENT
WSRT Westerbork_Synth (WSRT)                                MARKER NAME
13506M005                                                   MARKER NUMBER
229                 AOA SNR-12 ACT       3.3.32.2N          REC # / TYPE / VERS
273                 AOAD/M_T        DUTD                    ANT # / TYPE
        0.3888        0.0000        0.0000                  ANTENNA: DELTA H/E/N
  3828735.6941  443305.1350  5064884.8236                   APPROX POSITION XYZ
  6.60450833  52.91461271  82.2809  LonLatAlt  RSW          COMMENT
Linux 2.4.20-8|Pentium IV|gcc|Linux|486/DX+                 COMMENT
HANS VAN DER MAREL  DUT/DEOS                                OBSERVER / AGENCY
     1     1                                                WAVELENGTH FACT L1/2
     7    L1    L2    C1    P2    P1    S1    S2            # / TYPES OF OBSERV
RUN BY HANS VAN DER MAREL                                   COMMENT
H.VANDERMAREL@TUDELFT.NL                                    COMMENT
    P1 =    P1  TurboRogue; =    Y1  Benchmark              COMMENT
    L1 = L1(CA)                                             COMMENT
    P2 =    P2  TurboRogue; =    Y2  Benchmark              COMMENT
    L2 = L2(P2) TurboRogue; = L2(Y2) Benchmark              COMMENT
 SNR is mapped to RINEX snr flag value [0-9]                COMMENT
  L1 & L2: min(max(int(snr_dBHz/6), 0), 9)                  COMMENT
  2013    10     7     0     0    0.0000000     GPS         TIME OF FIRST OBS
  2013    10     7    23    59   30.0000000     GPS         TIME OF LAST OBS
                                                            END OF HEADER
 13 10  7  0  0  0.0000000  0 12G 5G28G15G21G26G19G 7G10G 9G 3G27G 8
 -24819643.376 7 -19339968.612 7  20962728.711    20962729.057    20962729.417
        43.400          44.000
 -14634677.711 5 -11403642.267 4  22438622.757    22438622.727    22438622.731
        34.700          28.600
  -7789144.085 3  -6069458.597 3  24159260.914    24159262.362    24159262.376
        22.600          19.900
  -6257785.038 2  -4876193.987 2  25169561.205    25169562.219    25169560.491
        16.100          13.900
 -26253193.149 7 -20457024.450 6  20399463.822    20399464.545    20399464.149
        42.300          40.000
  -2569571.769 2  -2002262.661 2  25151674.115    25151672.859    25151673.693
        15.100          15.100
 -17215360.831 6 -13414558.789 5  21906153.063    21906152.992    21906153.707
        38.400          35.100
  -8535215.440 4  -6650801.398 3  23718154.235    23718155.868    23718153.656
        27.100          23.800
 -29523432.003 7 -23005264.950 7  19828245.171    19828245.633    19828245.428
        45.700          44.800
      7232.986 3      5636.619 2  24353045.336    24353045.783    24353045.722
        19.300          16.100
    -86338.376 1    -67277.307 3  25034562.977    25034567.162    25034564.652
        11.000          20.500
 -26771710.257 7 -20861066.911 7  20571912.251    20571912.802    20571912.319
        45.200          43.300
 13 10  7  0  0 30.0000000  0 12G 5G28G15G21G26G19G 7G10G 9G 3G27G 8
 -24785267.897 7 -19313182.539 7  20969269.968    20969270.407    20969270.869
        43.400          43.800
 -14707994.668 5 -11460772.351 4  22424670.794    22424670.859    22424670.803
        34.600          28.600
  -7889182.799 3  -6147410.803 3  24140224.036    24140225.469    24140225.071
        22.100          21.100
  -6297804.015 2  -4907377.612 2  25161946.563    25161945.964    25161946.253
        15.100          15.100
 -26313626.613 7 -20504115.458 6  20387963.547    20387964.477    20387964.026
        42.400          40.200
  -2621799.765 2  -2042959.789 2  25141735.410    25141734.354    25141735.601
        16.100          17.800
 -17138627.477 6 -13354766.574 5  21920755.262    21920754.946    21920755.880
        38.600          34.800
  -8422060.145 4  -6562628.446 3  23739686.134    23739688.006    23739686.184
        26.800          21.600
 -29506047.207 7 -22991718.351 7  19831553.394    19831553.865    19831553.708
        45.900          44.800
     12255.322 2      9550.130 2  24354000.302    24354001.911    24354000.919
        17.800          16.100
    -84125.599 2    -65553.100 2  25034983.707    25034987.512    25034985.799
        16.100          17.000
 -26755831.373 7 -20848693.758 7  20574933.951    20574934.523    20574933.922
        45.100          43.500
 13 10  7  0  1  0.0000000  0 12G 5G28G15G21G26G19G 7G10G 9G 3G27G 8
 -24750329.688 7 -19285957.977 7  20975918.501    20975919.011    20975919.284
        43.200          43.900
 -14780930.518 5 -11517605.460 4  22410791.175    22410791.593    22410791.366
        34.700          28.800
  -7989132.748 3  -6225293.857 3  24121204.637    24121205.931    24121205.124
        22.600          21.600
  -6337369.261 1  -4938207.655 2  25154417.946    25154417.053    25154416.865
        11.000          16.100
 -26373639.362 7 -20550878.631 6  20376543.272    20376544.315    20376543.984
        42.500          40.500
  -2673569.370 2  -2083299.705 2  25131884.179    25131882.872    25131883.879
        15.100          17.000
 -17061604.174 6 -13294748.424 5  21935412.528    21935412.036    21935412.971
        38.400          34.700
  -8308767.051 4  -6474348.146 3  23761245.477    23761247.261    23761245.161
        26.500          22.100
 -29488095.943 7 -22977730.353 7  19834969.656    19834969.888    19834969.758
        45.800          44.700
     17899.031 3     13947.878 2  24355074.316    24355075.334    24355074.987
        18.600          16.100
    -81350.484 2    -63390.636 2  25035510.748    25035514.926    25035513.544
        15.100          16.100
 -26739485.013 7 -20835956.330 7  20578044.970    20578045.310    20578044.674
        45.200          43.400
 13 10  7  0  1 30.0000000  0 12G 5G28G15G21G26G19G 7G10G 9G 3G27G 8
 -24714830.179 7 -19258296.037 7  20982674.102    20982674.345    20982674.890
        43.200          43.900
 -14853482.947 5 -11574139.799 4  22396985.317    22396985.356    22396985.337
        34.600          28.600
  -8088992.352 3  -6303106.489 3  24102202.826    24102202.826    24102203.233
        20.500          20.500
  -6376479.677 2  -4968683.289 2  25146974.731    25146974.591    25146975.185
        13.900          12.600
 -26433230.026 7 -20597312.915 6  20365203.914    20365204.539    20365204.243
        42.500          40.300
  -2724878.264 2  -2123280.634 2  25122120.888    25122118.800    25122119.850
        16.100          16.100
 -16984292.490 6 -13234505.544 5  21950123.861    21950124.173    21950124.778
        38.100          35.100
  -8195338.581 4  -6385962.347 3  23782829.757    23782831.929    23782829.718
        24.200          22.100
 -29469579.110 7 -22963301.650 7  19838492.896    19838493.474    19838493.280
        45.900          44.700
     24164.789 2     18830.304 2  24356266.276    24356268.657    24356267.156
        16.100          16.100
    -78012.986 2    -60789.998 2  25036148.952    25036150.515    25036149.173
        16.100          17.800
 -26722672.147 7 -20822855.394 7  20581243.884    20581244.578    20581243.935
        45.100          43.400
 13 10  7  0  2  0.0000000  0 12G 5G28G15G21G26G19G 7G10G 9G 3G27G 8
 -24678769.804 7 -19230197.061 7  20989535.531    20989536.406    20989536.732
        43.100          43.500
 -14925649.532 5 -11630373.510 4  22383252.442    22383252.173    22383252.462
        34.700          29.700
  -8188760.301 3  -6380847.697 3  24083217.828    24083217.498    24083217.959
        23.800          22.600
  -6415134.425 2  -4998803.876 1  25139618.182    25139618.338    25139619.174
        13.900           9.000
 -26492396.985 7 -20643417.030 6  20353944.808    20353945.329    20353945.177
        42.700          40.300
  -2775723.863 2  -2162900.582 2  25112444.117    25112442.929    25112444.064
        16.100          12.600
 -16906694.519 6 -13174039.622 5  21964890.058    21964890.689    21964890.952
        37.700          34.800
  -8081776.778 4  -6297472.673 3  23804440.473    23804442.228    23804440.118
        26.200          21.600
 -29450497.946 7 -22948433.210 7  19842124.052    19842124.563    19842124.311
        45.900          44.800
     31052.018 3     24196.937 2  24357576.129    24357579.028    24357577.914
        18.600          13.900
    -74113.093 2    -57751.158 2  25036890.532    25036892.632    25036891.105
        17.000          17.000
 -26705393.647 7 -20809391.627 7  20584532.013    20584532.493    20584531.934
        45.400          43.400
 13 10  7  0  2 30.0000000  0 12G 5G28G15G21G26G19G 7G10G 9G 3G27G 8
 -24642149.618 7 -19201661.870 7  20996504.685    20996505.018    20996505.458
        43.400          43.600
 -14997428.501 5 -11686305.161 5  22369593.288    22369593.591    22369593.189
        34.500          30.100
  -8288435.638 3  -6458516.757 3  24064249.416    24064249.547    24064249.965
        23.000          21.100
  -6453332.052 2  -5028568.247 2  25132349.321    25132349.891    25132349.816
        13.900          13.900
 -26551138.876 7 -20689189.929 6  20342766.578    20342767.194    20342767.038
        42.700          40.600
  -2826103.757 2  -2202157.614 2  25102857.612    25102856.385    25102857.103
        15.100          15.100
 -16828812.069 6 -13113352.007 5  21979710.350    21979710.988    21979711.390
        37.800          34.500
  -7968084.136 4  -6208881.028 3  23826075.729    23826077.374    23826075.344
        25.900          22.600
 -29430853.417 7 -22933125.780 7  19845862.061    19845862.734    19845862.512
        45.800          44.600
     38560.456 2     30047.689 2  24359005.921    24359007.217    24359006.717
        17.000          13.900
    -69650.744 2    -54274.036 2  25037739.442    25037742.017    25037739.232
        15.100          16.100
 -26687650.409 7 -20795565.726 7  20587908.169    20587909.002    20587908.351
        45.200          43.400
 13 10  7  0  3  0.0000000  0 12G 5G28G15G21G26G19G 7G10G 9G 3G27G 8
 -24604970.608 7 -19172691.230 7  21003579.810    21003580.081    21003580.330
        43.300          43.700
 -15068817.075 5 -11741932.602 5  22356008.673    22356009.083    22356008.681
        34.600          30.200
  -8388017.165 3  -6536112.707 3  24045299.197    24045300.192    24045299.733
        23.800          22.600
  -6491071.252 2  -5057975.375 1  25125168.887    25125168.351    25125168.458
        15.100           9.000
 -26609454.109 7 -20734630.365 6  20331669.560    20331670.254    20331669.966
        42.700          40.500
  -2876015.719 2  -2241050.024 2  25093360.904    25093358.665    25093360.235
        16.100          16.100
 -16750647.039 6 -13052444.199 5  21994584.978    21994585.143    21994585.658
        37.200          34.400
  -7854262.702 4  -6120189.021 3  23847735.526    23847736.818    23847734.990
        26.500          21.600
 -29410646.741 7 -22917380.320 7  19849707.588    19849707.915    19849707.752
        46.000          44.600
     46690.137 2     36382.501 2  24360553.244    24360554.600    24360553.316
        15.100          17.800
    -64625.804 2    -50358.506 2  25038695.243    25038697.513    25038695.835
        16.100          15.100
 -26669443.379 7 -20781378.427 7  20591373.142    20591373.791    20591373.040
        45.200          43.400
 13 10  7  0  3 30.0000000  0 12G 5G28G15G21G26G19G 7G10G 9G 3G27G 8
 -24567233.606 7 -19143285.783 7  21010760.605    21010761.055    21010761.568
        43.100          43.400
 -15139813.392 5 -11797254.389 4  22342498.812    22342498.370    22342498.610
        35.500          29.700
  -8487503.524 4  -6613634.506 3  24026367.342    24026368.054    24026368.663
        24.600          21.100
  -6528351.547 1  -5087024.971 2  25118074.375    25118073.218    25118074.184
        11.000          13.900
 -26667341.304 7 -20779737.264 6  20320654.182    20320654.665    20320654.426
        42.800          40.700
  -2925457.677 2  -2279576.223 2  25083951.510    25083949.258    25083951.279
        16.100          16.100
 -16672201.389 6 -12991317.726 5  22009512.368    22009513.083    22009513.273
        37.200          34.300
  -7740314.724 4  -6031398.411 3  23869419.168    23869420.435    23869418.844
        26.800          22.600
 -29389878.905 7 -22901197.587 7  19853659.513    19853659.954    19853659.671
        45.800          44.600
     55441.304 2     43201.613 2  24362218.902    24362220.808    24362218.686
        17.000          13.900
    -59038.457 2    -46004.761 3  25039758.650    25039761.564    25039759.097
        13.900          18.600
 -26650773.479 7 -20766830.451 7  20594925.997    20594926.428    20594925.907
        45.200          43.400
 13 10  7  0  4  0.0000000  0 12G 5G28G15G21G26G19G 7G10G 9G 3G27G 8
 -24528939.568 7 -19113446.295 7  21018047.708    21018048.206    21018048.558
        43.100          43.400
 -15210415.250 5 -11852268.810 4  22329063.404    22329063.239    22329063.302
        34.700          29.500
  -8586893.359 3  -6691081.111 3  24007453.418    24007454.883    24007455.252
        22.600          23.000
  -6565171.696 2  -5115716.001 2  25111066.858    25111066.867    25111067.638
        13.900          12.600
 -26724798.905 7 -20824509.416 6  20309720.235    20309720.895    20309720.566
        42.900          40.900
  -2974427.106 2  -2317734.211 2  25074634.065    25074631.196    25074632.605
        17.000          16.100
 -16593476.969 6 -12929974.037 5  22024493.605    22024493.796    22024494.259
        37.400          34.400
  -7626242.521 4  -5942511.009 4  23891126.004    23891127.829    23891125.581
        25.300          24.200
 -29368551.188 7 -22884578.582 7  19857718.033    19857718.577    19857718.302
        45.900          44.700
     64813.853 2     50504.884 2  24364002.862    24364003.954    24364002.099
        17.000          16.100
    -52888.617 1    -41212.673 2  25040929.258    25040931.798    25040929.330
        11.000          17.000
 -26631641.783 7 -20751922.636 7  20598566.419    20598566.898    20598566.426
        45.200          43.200
 13 10  7  0  4 30.0000000  0 12G 5G28G15G21G26G19G 7G10G 9G 3G27G 8
 -24490089.718 7 -19083173.701 7  21025440.935    21025441.102    21025441.471
        43.100          43.300
 -15280620.402 5 -11906974.105 4  22315703.838    22315703.590    22315703.626
        34.800          29.700
  -8686185.383 4  -6768451.460 3  23988558.599    23988559.719    23988560.622
        24.900          22.600
  -6601530.338 2  -5144047.392 1  25104148.649    25104148.898    25104148.326
        13.900           9.000
 -26781825.435 7 -20868945.668 6  20298868.441    20298869.057    20298868.767
        42.900          40.800
  -3022922.150 3  -2355522.552 2  25065404.502    25065402.921    25065403.365
        18.600          16.100
 -16514475.592 6 -12868414.530 5  22039527.525    22039527.213    22039528.010
        37.800          34.400
  -7512048.125 4  -5853528.395 3  23912856.368    23912858.116    23912855.691
        24.600          23.400
 -29346664.939 7 -22867524.361 7  19861882.772    19861883.429    19861883.066
        45.800          44.700
     74807.627 2     58292.239 2  24365903.702    24365905.193    24365904.010
        15.100          16.100
    -46176.384 2    -35982.348 3  25042206.804    25042209.289    25042207.690
        15.100          18.600
 -26612049.259 7 -20736655.733 7  20602294.774    20602295.305    20602294.703
        45.200          43.200
 13 10  7  0  5  0.0000000  0 12G 5G28G15G21G26G19G 7G10G 9G 3G27G 8
 -24450685.076 7 -19052468.801 7  21032939.358    21032939.536    21032940.001
        43.100          43.200
 -15350426.787 5 -11961368.675 4  22302420.358    22302420.146    22302420.296
        35.700          29.900
  -8785378.290 3  -6845744.603 3  23969684.485    23969685.062    23969685.228
        22.100          23.400
  -6637426.515 2  -5172018.389 2  25097317.340    25097317.888    25097317.906
        16.100          12.600
 -26838419.431 7 -20913044.886 6  20288098.868    20288099.537    20288099.303
        43.100          40.700
  -3070939.873 2  -2392938.939 2  25056266.515    25056266.112    25056266.008
        17.000          17.000
 -16435199.089 6 -12806640.641 5  22054612.935    22054612.962    22054613.719
        37.100          34.700
  -7397733.996 3  -5764452.494 4  23934609.072    23934611.801    23934609.086
        23.000          24.600
 -29324221.120 7 -22850035.667 7  19866153.805    19866154.219    19866154.014
        45.700          44.500
     85422.420 2     66563.522 2  24367924.648    24367925.054    24367924.207
        17.000          17.000
    -38901.880 2    -30313.921 2  25043590.970    25043592.939    25043591.610
        17.800          17.800
 -26591996.963 7 -20721030.567 7  20606110.543    20606111.230    20606110.535
        45.300          43.200
 13 10  7  0  5 30.0000000  0 12G 5G28G15G21G26G19G 7G10G 9G 3G27G 8
 -24410726.222 7 -19021332.051 7  21040543.039    21040543.509    21040543.918
        43.000          43.200
 -15419832.180 5 -12015450.791 4  22289212.352    22289212.611    22289212.528
        35.600          29.900
  -8884470.821 3  -6922959.533 3  23950826.961    23950827.262    23950827.551
        22.100          20.500
  -6672858.820 2  -5199627.980 1  25090575.341    25090575.115    25090576.200
        17.800           6.500
 -26894579.481 7 -20956805.953 6  20277412.029    20277412.603    20277412.382
        43.200          41.000
  -3118478.433 3  -2429981.950 2  25047220.570    25047219.497    25047219.763
        19.900          16.100
 -16355649.388 6 -12744653.853 5  22069750.636    22069750.948    22069751.395
        37.200          33.900
  -7283302.351 3  -5675285.029 3  23956384.583    23956387.109    23956384.517
        23.000          22.600
 -29301220.980 7 -22832113.481 7  19870530.570    19870531.097    19870530.797
        45.900          44.600
     96657.984 2     75318.526 2  24370062.267    24370063.261    24370062.077
        16.100          16.100
    -31065.155 3    -24207.402 2  25045082.225    25045084.167    25045082.414
        18.600          17.000
 -26571485.963 7 -20705047.970 7  20610013.474    20610014.305    20610013.592
        45.000          43.100
 13 10  7  0  6  0.0000000  0 12G 5G28G15G21G26G19G 7G10G 9G 3G27G 8
 -24370214.640 7 -18989764.602 7  21048252.293    21048252.643    21048253.056
        43.000          43.400
 -15488834.309 5 -12069218.664 5  22276081.670    22276081.796    22276081.610
        35.200          30.100
  -8983461.622 4  -7000095.199 3  23931990.640    23931990.826    23931990.615
        24.200          23.400
  -6707826.677 2  -5226875.654 2  25083921.215    25083921.358    25083921.059
        13.900          12.600
 -26950304.120 7 -21000227.749 6  20266807.707    20266808.556    20266808.289
        43.100          41.000
  -3165535.333 2  -2466649.665 2  25038265.714    25038264.910    25038264.307
        13.900          17.000
 -16275828.457 6 -12682455.735 5  22084940.157    22084940.491    22084940.934
        37.400          34.100
  -7168755.349 3  -5586027.663 3  23978182.660    23978184.628    23978182.428
        23.000          20.500
 -29277665.618 7 -22813758.650 7  19875013.125    19875013.622    19875013.245
        45.900          44.400
    108514.321 3     84557.212 2  24372318.666    24372319.497    24372319.079
        18.600          15.100
    -22666.385 2    -17662.898 2  25046680.234    25046682.741    25046680.480
        17.800          17.000
 -26550517.144 7 -20688708.629 7  20614003.936    20614004.609    20614003.836
        45.200          43.200
 13 10  7  0  6 30.0000000  0 12G 5G28G15G21G26G19G 7G10G 9G 3G27G 8
 -24329151.336 7 -18957767.246 7  21056066.290    21056066.729    21056067.044
        42.900          43.100
 -15557431.301 6 -12122670.848 5  22263028.323    22263028.166    22263028.345
        36.000          30.100
  -9082349.728 4  -7077150.815 3  23913173.056    23913172.273    23913172.959
        24.600          22.100
  -6742329.052 1  -5253760.612 2  25077356.870    25077355.546    25077355.842
        11.000          15.100
 -27005591.927 7 -21043309.155 6  20256286.762    20256287.629    20256287.383
        43.100          41.100
  -3212108.659 3  -2502940.541 2  25029402.352    25029401.979    25029402.715
        18.600          15.100
 -16195738.140 6 -12620047.705 5  22100180.828    22100181.070    22100181.598
        37.100          33.800
  -7054095.219 4  -5496682.124 3  24000001.720    24000003.589    24000001.599
        24.600          21.100
 -29253556.211 7 -22794972.098 7  19879600.930    19879601.390    19879601.052
        45.800          44.600
    120991.098 2     94279.384 2  24374692.347    24374694.207    24374693.406
        13.900          17.800
    -13705.745 2    -10680.570 2  25048384.596    25048388.141    25048385.369
        17.000          17.000
 -26529091.721 7 -20672013.494 7  20618080.936    20618081.775    20618080.954
        45.100          43.100
 13 10  7  0  7  0.0000000  0 12G 5G28G15G21G26G19G 7G10G 9G 3G27G 8
 -24287537.321 7 -18925340.753 7  21063985.224    21063985.564    21063986.134
        43.000          42.900
 -15625620.855 5 -12175805.555 5  22250052.124    22250052.371    22250052.241
        35.500          30.800
  -9181133.475 3  -7154125.138 3  23894374.077    23894374.582    23894374.881
        23.800          22.100
  -6776364.679 1  -5280281.861 2  25070879.028    25070878.033    25070879.745
        11.000          16.100
 -27060441.354 7 -21086048.967 6  20245849.767    20245850.192    20245850.043
        43.100          41.100
  -3258196.004 2  -2538852.757 2  25020633.505    25020631.808    25020633.451
        13.900          17.800
 -16115380.173 6 -12557431.127 5  22115472.422    22115472.736    22115473.098
        37.000          34.100
  -6939324.351 4  -5407250.287 3  24021842.559    24021844.198    24021842.360
        25.300          21.600
 -29228894.144 7 -22775754.900 7  19884293.633    19884294.373    19884293.976
        45.800          44.400
    134087.833 3    104484.619 2  24377184.908    24377186.179    24377184.986
        19.300          17.800
     -4183.411 2     -3260.553 3  25050196.937    25050200.201    25050197.700
        13.900          18.600
 -26507210.400 7 -20654963.111 7  20622245.125    20622245.624    20622244.948
        45.000          43.000
 13 10  7  0  7 30.0000000  0 12G 5G28G15G21G26G19G 7G10G 9G 3G27G 8
 -24245373.614 7 -18892485.937 7  21072008.642    21072009.229    21072009.401
        42.700          43.000
 -15693401.332 5 -12228621.492 5  22237154.136    22237153.940    22237153.980
        35.700          30.400
  -9279811.612 3  -7231017.187 3  23875595.959    23875596.632    23875597.187
        23.800          23.400
  -6809932.494 2  -5306438.592 2  25064491.124    25064490.718    25064491.208
        13.900          13.900
 -27114851.105 7 -21128446.169 6  20235496.016    20235496.456    20235496.185
        43.200          41.300
  -3303795.477 2  -2574384.756 3  25011956.388    25011954.611    25011956.121
        16.100          18.600
 -16034756.862 6 -12494607.779 5  22130815.167    22130814.636    22130815.571
        37.100          33.600
  -6824445.035 3  -5317733.964 3  24043703.444    24043705.130    24043702.632
        23.800          19.900
 -29203680.863 7 -22756108.187 7  19889091.604    19889092.271    19889092.029
        45.800          44.300
    147804.428 2    115172.907 2  24379794.321    24379796.162    24379794.412
        15.100          17.000
      5900.423 2      4596.959 2  25052116.381    25052118.473    25052117.532
        17.000          17.000
 -26484874.312 7 -20637558.370 7  20626495.275    20626496.009    20626495.264
        45.200          42.900
 13 10  7  0  8  0.0000000  0 12G 5G28G15G21G26G19G 7G10G 9G 3G27G 8
 -24202661.646 7 -18859203.912 7  21080137.026    21080137.014    21080137.464
        43.000          43.100
 -15760770.265 5 -12281116.750 5  22224334.081    22224334.022    22224334.046
        35.500          30.800
  -9378382.830 4  -7307825.907 3  23856837.835    23856839.612    23856839.309
        24.200          22.100
  -6843031.685 2  -5332230.170 2  25058193.308    25058191.813    25058192.841
        13.900          13.900
 -27168819.625 7 -21170499.561 6  20225225.848    20225226.625    20225226.257
        43.400          41.400
  -3348904.765 2  -2609534.825 2  25003371.383    25003370.434    25003371.617
        16.100          15.100
 -15953869.570 6 -12431578.728 5  22146207.698    22146206.959    22146208.032
        37.600          33.200
  -6709459.310 4  -5228134.726 3  24065583.963    24065586.000    24065583.498
        24.200          20.500
 -29177917.416 7 -22736032.776 7  19893994.298    19893994.917    19893994.640
        45.800          44.400
    162140.681 1    126344.007 2  24382522.873    24382523.782    24382523.178
        11.000          15.100
     16545.547 2     12891.857 2  25054142.243    25054145.018    25054142.322
        17.000          17.000
 -26462084.603 7 -20619800.152 7  20630831.956    20630832.782    20630831.984
        45.200          43.000
 13 10  7  0  8 30.0000000  0 12G 5G28G15G21G26G19G 7G10G 9G 3G27G 8
 -24159402.242 7 -18825495.301 7  21088368.811    21088368.972    21088369.441
        43.000          42.700
 -15827725.478 6 -12333289.632 5  22211593.110    22211593.097    22211593.035
        36.100          30.800
  -9476845.783 3  -7384550.247 3  23838101.628    23838102.408    23838102.472
        23.800          23.400
  -6875661.390 1  -5357655.899 2  25051982.919    25051982.754    25051982.611
         9.000          15.100
 -27222345.564 7 -21212208.080 6  20215040.358    20215040.955    20215040.595
        43.300          41.600
  -3393521.768 2  -2644301.335 2  24994882.394    24994879.349    24994881.191
        15.100          16.100
 -15872720.283 6 -12368345.524 5  22161649.355    22161649.332    22161650.012
        36.900          33.400
  -6594369.326 3  -5138454.253 3  24087484.543    24087486.904    24087484.406
        23.000          19.300
 -29151605.048 7 -22715529.627 7  19899001.597    19899001.997    19899001.692
        45.700          44.200
    177096.127 3    137997.610 2  24385368.760    24385370.216    24385369.393
        19.300          15.100
     27751.642 3     21623.850 2  25056274.019    25056277.366    25056274.689
        18.600          17.800
 -26438842.299 7 -20601689.262 7  20635255.110    20635255.560    20635254.961
        45.200          43.000
 13 10  7  0  9  0.0000000  0 12G 5G28G15G21G26G19G 7G10G 9G 3G27G 8
 -24115596.822 7 -18791361.234 7  21096704.622    21096704.938    21096705.308
        42.800          42.700
 -15894265.076 6 -12385138.653 5  22198931.150    22198931.068    22198931.048
        36.100          31.100
  -9575199.259 4  -7461189.298 3  23819385.876    23819386.047    23819386.244
        25.600          21.600
  -6907820.731 2  -5382715.133 2  25045863.192    25045863.075    25045863.049
        12.600          15.100
 -27275427.471 7 -21253570.599 6  20204939.330    20204939.699    20204939.489
        43.300          41.500
  -3437644.401 2  -2678682.582 3  24986486.022    24986483.949    24986484.812
        17.000          18.600
 -15791311.470 6 -12304910.104 5  22177140.815    22177140.970    22177141.564
        36.700          33.500
  -6479177.278 3  -5048694.238 3  24109405.865    24109406.971    24109405.263
        23.000          19.300
 -29124744.970 7 -22694599.694 7  19904112.858    19904113.233    19904112.952
        45.800          44.200
    192670.359 2    150133.361 3  24388331.995    24388334.020    24388332.381
        15.100          18.600
     39518.542 2     30792.874 3  25058513.634    25058515.988    25058514.842
        17.800          19.300
 -26415148.598 7 -20583226.639 7  20639763.691    20639764.226    20639763.651
        45.100          42.800
 13 10  7  0  9 30.0000000  0 12G 5G28G15G21G26G19G 7G10G 9G 3G27G 8
 -24071246.493 7 -18756802.555 7  21105144.291    21105144.482    21105144.986
        42.900          42.600
 -15960386.926 5 -12436662.150 5  22186348.108    22186348.632    22186348.048
        35.400          31.300
  -9673441.907 4  -7537741.971 3  23800691.237    23800691.519    23800691.758
        24.600          22.100
  -6939508.645 2  -5407407.012 2  25039833.814    25039833.257    25039833.351
        17.000          13.900
 -27328063.843 7 -21294585.953 6  20194922.544    20194923.299    20194923.042
        43.300          41.500
  -3481270.365 3  -2712676.752 2  24978183.746    24978182.131    24978183.041
        18.600          17.800
 -15709643.958 6 -12241273.094 5  22192681.656    22192681.644    22192682.411
        37.300          33.600
  -6363885.390 3  -4958856.409 3  24131344.808    24131345.848    24131344.199
        22.600          18.600
 -29097338.502 7 -22673244.004 7  19909327.906    19909328.534    19909328.186
        45.600          44.100
    208863.220 3    162751.186 2  24391413.696    24391415.679    24391414.072
        18.600          15.100
     51845.879 2     40398.589 3  25060859.112    25060861.979    25060860.178
        15.100          18.600
 -26391004.512 7 -20564413.063 7  20644358.238    20644358.625    20644358.247
        45.300          42.600
 13 10  7  0 10  0.0000000  0 12G 5G28G15G21G26G19G 7G10G 9G 3G27G 8
 -24026352.226 7 -18721820.027 7  21113687.480    21113687.699    21113688.095
        43.000          42.600
 -16026089.150 5 -12487858.665 5  22173845.154    22173845.627    22173845.343
        35.900          31.100
  -9771572.462 4  -7614207.317 3  23782017.597    23782017.183    23782018.068
        24.600          23.400
  -6970724.014 2  -5431730.662 2  25033892.910    25033892.566    25033893.180
        15.100          13.900
 -27380253.364 7 -21335253.106 6  20184991.382    20184991.861    20184991.760
        43.400          41.600
  -3524397.833 3  -2746282.553 3  24969977.638    24969974.619    24969977.173
        18.600          18.600
 -15627720.048 6 -12177436.288 5  22208271.147    22208271.240    22208271.848
        36.400          33.200
  -6248496.106 3  -4868942.700 3  24153302.649    24153304.253    24153301.951
        22.100          22.100
 -29069387.134 7 -22651463.716 7  19914646.679    19914647.570    19914647.178
        45.700          44.100
    225673.800 2    175850.350 2  24394612.565    24394614.050    24394613.417
        13.900          13.900
     64733.327 2     50440.777 2  25063311.437    25063313.905    25063312.037
        13.900          17.800
 -26366410.925 7 -20545249.225 7  20649038.333    20649038.757    20649038.242
        45.200          42.800
 13 10  7  0 10 30.0000000  0 12G 5G28G15G21G26G19G 7G10G 9G 3G27G 8
 -23980915.496 7 -18686414.799 7  21122333.522    21122334.161    21122334.299
        42.700          42.800
 -16091369.527 6 -12538726.476 5  22161423.248    22161422.914    22161423.276
        36.500          30.800
  -9869589.353 4  -7690584.111 3  23763365.081    23763365.963    23763366.313
        24.900          23.400
  -7001466.181 2  -5455685.589 1  25028043.372    25028043.576    25028043.382
        12.600           9.000
 -27431994.609 7 -21375570.955 6  20175145.072    20175145.864    20175145.683
        43.400          41.500
  -3567024.499 2  -2779498.132 3  24961864.384    24961863.850    24961864.135
        15.100          18.600
 -15545541.957 6 -12113401.423 5  22223909.091    22223909.220    22223909.816
        36.500          33.200
  -6133011.713 3  -4778954.908 3  24175278.695    24175280.334    24175278.086
        23.400          19.300
 -29040892.166 7 -22629259.845 7  19920069.424    19920069.941    19920069.567
        45.700          44.100
    243102.110 3    189430.836 2  24397929.660    24397930.717    24397929.640
        18.600          12.600
     78180.574 2     60919.138 3  25065870.758    25065873.355    25065871.430
        17.000          19.300
 -26341369.020 7 -20525736.053 7  20653803.448    20653804.186    20653803.459
        45.300          42.800
 13 10  7  0 11  0.0000000  0 12G 5G28G15G21G26G19G 7G10G 9G 3G27G 8
 -23934937.433 7 -18650587.760 7  21131082.864    21131083.381    21131083.581
        42.700          42.600
 -16156226.218 6 -12589264.148 5  22149081.273    22149081.437    22149081.281
        36.200          32.000
  -9967491.558 4  -7766871.518 3  23744734.605    23744735.437    23744735.944
        26.800          23.000
  -7031733.940 2  -5479270.854 2  25022283.741    25022284.137    25022282.782
        12.600          13.900
 -27483286.148 7 -21415538.388 6  20165385.251    20165385.466    20165385.313
        43.700          41.900
  -3609148.529 2  -2812322.020 2  24953849.050    24953846.892    24953848.323
        16.100          13.900
 -15463111.257 6 -12049169.716 5  22239594.966    22239595.436    22239595.802
        36.500          33.200
  -6017434.347 3  -4688894.633 3  24197272.130    24197274.112    24197271.843
        23.400          22.100
 -29011855.066 7 -22606633.535 7  19925594.881    19925595.462    19925595.159
        45.700          43.900
    261147.457 2    203492.140 2  24401363.038    24401363.741    24401363.597
        17.800          15.100
     92187.251 2     71833.447 3  25068536.367    25068538.589    25068537.187
        16.100          18.600
 -26315880.119 7 -20505874.566 7  20658653.922    20658654.486    20658653.898
        45.300          42.700
 13 10  7  0 11 30.0000000  0 12G 5G28G15G21G26G19G 7G10G 9G 3G27G 8
 -23888419.403 7 -18614339.952 7  21139935.073    21139935.432    21139935.827
        42.700          42.400
 -16220657.565 6 -12639470.377 5  22136820.073    22136820.538    22136820.217
        36.200          31.600
 -10065277.645 4  -7843068.436 3  23726126.524    23726127.739    23726127.908
        25.300          23.800
  -7061526.945 2  -5502486.178 2  25016615.035    25016614.545    25016614.499
        16.100          16.100
 -27534126.672 7 -21455154.385 6  20155710.011    20155710.824    20155710.609
        43.700          41.800
  -3650767.795 2  -2844752.570 3  24945929.689    24945927.928    24945928.796
        17.800          19.900
 -15380429.593 6 -11984742.465 5  22255328.577    22255329.318    22255329.756
        36.400          33.400
  -5901766.296 3  -4598763.725 3  24219283.098    24219285.200    24219282.761
        22.600          19.900
 -28982276.900 7 -22583585.610 7  19931223.535    19931224.064    19931223.740
        45.800          43.800
    279809.415 2    218033.933 2  24404913.991    24404916.243    24404914.914
        17.000          15.100
    106752.984 2     83183.376 2  25071307.916    25071310.493    25071308.523
        16.100          16.100
 -26289945.296 7 -20485665.613 7  20663589.244    20663589.721    20663589.169
        45.300          42.800
 13 10  7  0 12  0.0000000  0 12G 5G28G15G21G26G19G 7G10G 9G 3G27G 8
 -23841362.833 7 -18577672.516 7  21148889.341    21148890.183    21148890.316
        42.500          42.600
 -16284661.012 6 -12689343.173 5  22124640.659    22124640.881    22124640.858
        36.500          31.600
 -10162945.937 4  -7919173.593 3  23707541.204    23707541.352    23707541.792
        24.900          22.600
  -7090844.395 2  -5525330.914 2  25011034.078    25011034.590    25011035.667
        13.900          12.600
 -27584514.683 7 -21494417.766 7  20146121.799    20146122.335    20146122.049
        43.600          42.000
  -3691880.360 2  -2876788.356 2  24938104.401    24938104.037    24938104.467
        16.100          16.100
 -15297499.121 6 -11920121.327 5  22271109.917    22271110.235    22271110.934
        36.400          32.700
  -5786009.686 3  -4508563.803 3  24241310.555    24241313.128    24241310.416
        23.000          22.100
 -28952159.007 7 -22560117.121 7  19936954.934    19936955.293    19936955.023
        45.700          43.800
    299087.769 2    233056.008 2  24408583.247    24408584.875    24408583.678
        17.000          17.000
    121877.255 2     94968.572 2  25074186.598    25074188.162    25074186.112
        17.000          17.000
 -26263565.551 7 -20465109.969 7  20668609.061    20668609.675    20668609.084
        45.400          42.700
 13 10  7  0 12 30.0000000  0 12G 5G28G15G21G26G19G 7G10G 9G 3G27G 8
 -23793768.844 7 -18540586.308 7  21157946.665    21157946.938    21157947.224
        42.700          42.400
 -16348234.694 6 -12738881.099 5  22112543.127    22112543.044    22112543.279
        36.500          31.500
 -10260495.431 4  -7995186.160 3  23688978.781    23688978.595    23688979.085
        26.200          23.800
  -7119685.321 2  -5547804.358 2  25005545.659    25005546.631    25005546.361
        12.600          12.600
 -27634448.803 7 -21533327.469 6  20136619.236    20136620.138    20136619.808
        43.800          41.800
  -3732484.267 2  -2908427.746 2  24930378.391    24930376.947    24930379.257
        17.800          15.100
 -15214321.511 6 -11855307.614 5  22286937.787    22286938.305    22286939.027
        36.100          32.300
  -5670166.605 3  -4418296.489 3  24263354.838    24263357.076    24263355.190
        21.600          20.500
 -28921503.019 7 -22536229.338 7  19942788.160    19942788.913    19942788.597
        45.700          43.800
    318981.516 2    248557.654 2  24412369.658    24412369.721    24412368.981
        15.100          12.600
    137559.754 2    107188.733 2  25077171.264    25077172.870    25077171.155
        17.800          15.100
 -26236742.013 7 -20444208.504 7  20673713.373    20673713.938    20673713.392
        45.200          42.500
 13 10  7  0 13  0.0000000  0 12G 5G28G15G21G26G19G 7G10G 9G 3G27G 8
 -23745639.043 7 -18503082.580 7  21167105.334    21167105.633    21167106.026
        42.800          42.200
 -16411376.750 6 -12788082.689 5  22100527.504    22100527.521    22100527.536
        36.500          31.600
 -10357924.511 4  -8071104.910 3  23670437.794    23670438.438    23670438.953
        25.600          23.800
  -7148048.724 2  -5569905.695 2  25000149.749    25000149.424    25000149.922
        17.000          15.100
 -27683927.648 7 -21571882.408 6  20127203.872    20127204.603    20127204.327
        43.700          41.900
  -3772577.342 2  -2939669.094 3  24922750.078    24922748.320    24922749.817
        17.800          19.300
 -15130898.545 6 -11790302.714 5  22302813.145    22302813.184    22302814.102
        36.400          32.700
  -5554239.569 3  -4327963.763 3  24285415.164    24285417.195    24285415.045
        21.600          22.600
 -28890310.068 7 -22511923.142 7  19948724.172    19948724.732    19948724.398
        45.700          43.800
    339490.255 2    264538.469 2  24416272.133    24416272.867    24416271.681
        15.100          15.100
    153799.899 2    119843.390 2  25080260.246    25080262.719    25080261.186
        17.000          17.000
 -26209475.889 7 -20422962.174 7  20678902.119    20678902.458    20678902.016
        45.200          42.600
 13 10  7  0 13 30.0000000  0 12G 5G28G15G21G26G19G 7G10G 9G 3G27G 8
 -23696974.158 7 -18465161.907 7  21176365.775    21176366.425    21176366.545
        42.600          42.100
 -16474085.337 6 -12836946.502 5  22088594.266    22088594.567    22088594.463
        36.300          32.000
 -10455232.095 4  -8146928.989 4  23651920.098    23651921.882    23651921.830
        25.900          25.300
  -7175933.747 2  -5591634.299 2  24994844.160    24994843.519    24994843.949
        15.100          17.800
 -27732949.923 7 -21610081.584 7  20117875.474    20117875.972    20117875.718
        43.800          42.000
  -3812157.748 2  -2970510.955 3  24915216.727    24915216.398    24915216.336
        17.000          18.600
 -15047232.201 6 -11725108.174 5  22318734.203    22318734.551    22318735.284
        36.300          32.700
  -5438230.630 3  -4237567.200 3  24307491.110    24307492.731    24307491.259
        23.400          19.300
 -28858581.664 7 -22487199.711 7  19954761.737    19954762.574    19954762.083
        45.600          43.800
    360613.256 2    280997.955 2  24420290.367    24420290.976    24420290.952
        17.000          13.900
    170597.212 2    132932.212 3  25083457.140    25083459.776    25083457.794
        17.000          20.500
 -26181768.387 7 -20401371.912 7  20684174.657    20684175.100    20684174.552
        45.300          42.600
 13 10  7  0 14  0.0000000  0 12G 5G28G15G21G26G19G 7G10G 9G 3G27G 8
 -23647775.701 7 -18426825.465 7  21185728.165    21185728.482    21185728.876
        42.700          42.200
 -16536358.242 6 -12885470.832 5  22076744.738    22076744.266    22076744.667
        37.000          31.300
 -10552416.579 4  -8222657.151 3  23633427.353    23633427.632    23633428.531
        27.600          23.000
  -7203339.591 2  -5612989.471 2  24989628.645    24989627.752    24989628.008
        16.100          13.900
 -27781514.273 7 -21647923.928 7  20108634.184    20108634.441    20108634.376
        43.800          42.000
  -3851223.723 2  -3000951.921 2  24907784.335    24907781.251    24907783.082
        17.800          17.000
 -14963324.227 6 -11659725.354 5  22334701.589    22334701.701    22334702.410
        36.300          32.700
  -5322142.073 3  -4147108.598 3  24329582.223    24329583.926    24329581.691
        22.100          19.300
 -28826319.267 7 -22462060.176 7  19960901.228    19960901.903    19960901.402
        45.600          43.700
    382349.941 2    297935.638 2  24424426.365    24424428.895    24424427.541
        17.800          15.100
    187951.228 3    146454.812 2  25086760.074    25086761.836    25086759.974
        19.300          17.000
 -26153620.729 7 -20379438.671 7  20689530.753    20689531.339    20689530.816
        45.200          42.500
 13 10  7  0 14 30.0000000  0 12G 5G28G15G21G26G19G 7G10G 9G 3G27G 8
 -23598045.356 7 -18388074.564 7  21195191.024    21195191.873    21195192.175
        42.600          42.100
 -16598193.957 6 -12933654.489 5  22064977.156    22064977.522    22064977.310
        36.900          32.000
 -10649476.659 4  -8298288.351 4  23614957.356    23614958.222    23614958.157
        26.200          24.200
  -7230265.665 2  -5633970.848 2  24984504.697    24984504.030    24984504.526
        16.100          16.100
 -27829619.256 7 -21685408.334 7  20099479.723    20099480.367    20099480.239
        43.900          42.100
  -3889772.941 3  -3030990.289 2  24900448.000    24900446.435    24900448.364
        20.500          17.000
 -14879176.438 5 -11594155.681 5  22350714.660    22350714.560    22350715.303
        35.800          32.400
  -5205975.990 3  -4056589.613 3  24351687.999    24351689.836    24351687.649
        21.100          19.300
 -28793524.423 7 -22436505.747 7  19967141.618    19967142.551    19967142.028
        45.600          43.700
    404699.706 2    315351.049 2  24428680.731    24428681.502    24428680.252
        17.800          13.900
    205861.422 2    160410.777 3  25090167.846    25090169.882    25090168.149
        15.100          18.600
 -26125033.998 7 -20357163.297 7  20694970.803    20694971.251    20694970.723
        45.200          42.400
 13 10  7  0 15  0.0000000  0 12G 5G28G15G21G26G19G 7G10G 9G 3G27G 8
 -23547784.479 7 -18348910.265 6  21204755.699    21204756.274    21204756.635
        42.600          41.900
 -16659590.397 6 -12981495.848 5  22053294.325    22053294.161    22053294.141
        36.500          32.100
 -10746410.917 4  -8373821.519 3  23596511.040    23596511.660    23596511.971
        25.600          23.000
  -7256711.438 2  -5654577.941 2  24979472.420    24979471.401    24979472.243
        17.000          15.100
 -27877263.514 7 -21722533.723 7  20090413.804    20090414.001    20090413.876
        44.000          42.300
  -3927803.930 3  -3060624.793 2  24893211.057    24893208.674    24893209.993
        19.900          17.000
 -14794790.797 5 -11528400.633 5  22366772.436    22366772.586    22366773.353
        35.900          32.100
  -5089734.759 3  -3966012.033 2  24373807.762    24373809.013    24373807.181
        18.600          16.100
 -28760198.288 7 -22410537.336 7  19973483.694    19973484.262    19973483.900
        45.600          43.700
    427661.959 3    333243.701 3  24433050.728    24433051.858    24433050.840
        18.600          18.600
    224327.204 2    174799.664 3  25093680.985    25093683.354    25093681.429
        17.000          18.600
 -26096009.310 7 -20334546.656 7  20700493.846    20700494.531    20700493.820
        45.200          42.400
 13 10  7  0 15 30.0000000  0 12G 5G28G15G21G26G19G 7G10G 9G 3G27G 8
 -23496994.340 7 -18309333.549 6  21214420.905    21214421.267    21214421.627
        42.700          41.900
 -16720545.538 6 -13028993.346 5  22041694.914    22041694.507    22041694.796
        36.700          32.100
 -10843218.025 4  -8449255.618 4  23578089.301    23578090.346    23578090.254
        26.500          25.300
  -7282676.068 2  -5674810.126 2  24974531.490    24974531.076    24974530.551
        17.000          15.100
 -27924445.772 7 -21759299.121 7  20081434.945    20081435.556    20081435.416
        44.000          42.200
  -3965314.902 3  -3089854.118 3  24886073.351    24886071.229    24886071.957
        19.300          18.600
 -14710169.223 5 -11462461.759 5  22382876.016    22382875.671    22382876.112
        35.700          32.300
  -4973420.533 3  -3875377.601 2  24395940.819    24395943.589    24395940.718
        19.300          17.000
 -28726342.452 7 -22384156.165 7  19979926.261    19979926.788    19979926.481
        45.700          43.600
    451235.917 3    351613.018 2  24437536.158    24437536.688    24437536.521
        18.600          16.100
    243347.982 2    189621.052 3  25097300.296    25097304.367    25097301.055
        15.100          18.600
 -26066547.713 7 -20311589.562 7  20706099.999    20706100.905    20706100.158
        45.200          42.400
 13 10  7  0 16  0.0000000  0 12G 5G28G15G21G26G19G 7G10G 9G 3G27G 8
 -23445676.362 7 -18269345.530 7  21224186.391    21224186.871    21224187.133
        42.700          42.000
 -16781057.741 6 -13076145.696 5  22030179.866    22030179.622    22030179.744
        36.900          32.100
 -10939896.648 4  -8524589.600 3  23559691.706    23559692.388    23559693.341
        26.800          23.800
  -7308158.833 2  -5694666.802 2  24969681.288    24969681.873    24969681.276
        16.100          12.600
 -27971164.656 7 -21795703.441 7  20072544.737    20072545.272    20072545.047
        44.000          42.300
  -4002303.596 3  -3118676.450 3  24879033.893    24879031.803    24879033.560
        18.600          18.600
 -14625313.219 5 -11396340.216 5  22399023.354    22399023.166    22399023.752
        35.900          32.100
  -4857035.505 3  -3784687.980 2  24418089.102    24418090.299    24418088.451
        19.300          16.100
 -28691958.594 7 -22357363.546 7  19986469.229    19986469.867    19986469.519
        45.600          43.700
    475420.947 2    370458.506 2  24442138.654    24442139.422    24442139.144
        15.100          16.100
    262923.270 3    204874.508 3  25101025.925    25101029.286    25101026.754
        18.600          19.900
 -26036650.412 7 -20288292.962 7  20711789.511    20711790.148    20711789.597
        45.200          42.300
 13 10  7  0 16 30.0000000  0 12G 5G28G15G21G26G19G 7G10G 9G 3G27G 8
 -23393832.126 7 -18228947.448 6  21234052.008    21234052.566    21234052.805
        42.700          41.800
 -16841125.206 6 -13122951.498 5  22018749.066    22018749.328    22018749.267
        37.500          32.700
 -11036445.342 4  -8599822.315 4  23541319.921    23541320.035    23541320.485
        26.200          24.200
  -7333158.988 2  -5714147.419 1  24964923.994    24964924.344    24964924.119
        16.100          11.000
 -28017418.872 7 -21831745.686 7  20063742.621    20063743.345    20063743.192
        44.000          42.300
  -4038768.576 2  -3147090.710 2  24872094.175    24872093.515    24872093.892
        16.100          16.100
 -14540224.870 5 -11330037.616 5  22415214.981    22415215.072    22415215.553
        35.900          32.300
  -4740581.675 3  -3693944.759 3  24440249.313    24440251.567    24440248.896
        21.600          19.300
 -28657048.073 7 -22330160.542 7  19993112.523    19993113.010    19993112.781
        45.600          43.400
    500215.561 2    389778.941 2  24446856.965    24446858.118    24446856.642
        17.000          17.800
    283052.310 2    220559.482 2  25104855.529    25104858.817    25104856.616
        12.600          17.000
 -26006318.530 7 -20264657.727 7  20717561.536    20717562.077    20717561.579
        45.200          42.400
 13 10  7  0 17  0.0000000  0 12G 5G28G15G21G26G19G 7G10G 9G 3G27G 8
 -23341463.143 7 -18188140.466 6  21244017.456    21244017.964    21244018.286
        42.700          41.700
 -16900745.716 6 -13169409.019 5  22007403.571    22007403.747    22007403.583
        36.500          32.700
 -11132862.712 4  -8674952.736 4  23522972.094    23522972.720    23522972.946
        27.100          24.900
  -7357676.149 2  -5733251.708 2  24960258.163    24960258.801    24960259.438
        17.800          12.600
 -28063206.992 7 -21867424.731 7  20055029.687    20055030.107    20055030.067
        44.200          42.600
  -4074707.772 2  -3175095.253 3  24865254.850    24865254.212    24865255.448
        16.100          18.600
 -14454905.914 5 -11263555.350 5  22431451.046    22431450.535    22431451.214
        35.900          31.800
  -4624061.333 3  -3603149.712 3  24462421.777    24462424.651    24462421.961
        19.900          21.100
 -28621612.374 7 -22302548.313 7  19999855.717    19999856.172    19999855.941
        45.700          43.400
    525619.390 2    409574.109 2  24451690.609    24451691.978    24451690.787
        15.100          15.100
    303734.557 2    236675.491 2  25108792.844    25108793.793    25108792.329
        17.000          16.100
 -25975553.570 7 -20240685.032 7  20723415.965    20723416.489    20723415.869
        45.100          42.300
 13 10  7  0 17 30.0000000  0 12G 5G28G15G21G26G19G 7G10G 9G 3G27G 8
 -23288570.886 7 -18146925.736 6  21254082.604    21254083.139    21254083.415
        42.500          41.500
 -16959917.953 6 -13215517.242 5  21996143.963    21996143.819    21996143.717
        37.200          32.600
 -11229147.329 4  -8749979.690 4  23504650.129    23504649.987    23504650.912
        28.600          24.900
  -7381709.371 2  -5751978.893 2  24955685.460    24955684.717    24955684.830
        15.100          16.100
 -28108527.777 7 -21902739.630 7  20046405.321    20046405.842    20046405.773
        44.300          42.400
  -4110119.137 3  -3202688.504 3  24858517.644    24858516.544    24858516.884
        19.300          21.100
 -14369357.879 5 -11196894.553 5  22447729.614    22447729.828    22447730.317
        35.300          31.600
  -4507476.927 3  -3512304.740 3  24484606.724    24484609.940    24484607.113
        22.100          19.300
 -28585652.836 7 -22274527.894 7  20006698.646    20006699.119    20006698.820
        45.500          43.400
    551631.932 2    429843.632 2  24456640.098    24456642.017    24456640.393
        13.900          15.100
    324969.322 2    253222.055 2  25112832.890    25112835.621    25112833.838
        15.100          16.100
 -25944356.439 7 -20216375.581 7  20729352.544    20729353.160    20729352.542
        45.000          42.300
 13 10  7  0 18  0.0000000  0 12G 5G28G15G21G26G19G 7G10G 9G 3G27G 8
 -23235156.570 7 -18105304.210 6  21264246.849    21264247.638    21264247.725
        42.400          41.600
 -17018639.824 6 -13261274.522 5  21984969.347    21984969.503    21984969.347
        37.600          33.400
 -11325297.623 4  -8824901.959 4  23486353.233    23486353.627    23486353.729
        27.900          25.300
  -7405257.896 2  -5770328.381 2  24951203.891    24951203.510    24951203.839
        15.100          13.900
 -28153379.859 7 -21937689.295 7  20037870.203    20037870.807    20037870.660
        44.200          42.600
  -4145001.401 3  -3229869.467 3  24851880.198    24851877.705    24851879.165
        20.500          18.600
 -14283582.816 5 -11130056.862 5  22464051.893    22464052.383    22464052.991
        35.500          31.600
  -4390830.589 3  -3421411.506 3  24506804.732    24506806.655    24506804.505
        19.300          19.900
 -28549171.344 7 -22246100.762 7  20013640.859    20013641.249    20013641.020
        45.600          43.300
    578251.870 2    450586.478 2  24461706.426    24461708.308    24461706.532
        16.100          13.900
    346755.888 2    270198.583 2  25116979.011    25116981.938    25116979.564
        15.100          15.100
 -25912728.868 7 -20191730.718 7  20735370.994    20735371.777    20735371.070
        45.100          42.500
 13 10  7  0 18 30.0000000  0 12G 5G28G15G21G26G19G 7G10G 9G 3G27G 8
 -23181221.764 7 -18063277.110 6  21274510.651    21274510.728    21274511.264
        42.400          41.400
 -17076909.315 6 -13306679.305 5  21973880.889    21973880.991    21973880.933
        37.400          33.400
 -11421312.362 4  -8899718.647 4  23468081.828    23468081.955    23468082.337
        27.100          24.900
  -7428321.482 2  -5788300.017 2  24946815.451    24946815.150    24946815.712
        16.100          12.600
 -28197762.011 7 -21972272.787 7  20029424.892    20029425.232    20029425.086
        44.200          42.700
  -4179352.724 3  -3256636.688 3  24845343.120    24845341.012    24845342.276
        19.300          18.600
 -14197582.565 5 -11063043.692 5  22480417.196    22480417.661    22480418.043
        35.100          31.500
  -4274124.505 3  -3330471.726 3  24529012.739    24529014.833    24529012.808
        22.600          18.600
 -28512169.149 7 -22217267.883 7  20020682.045    20020682.627    20020682.288
        45.400          43.400
    605478.884 2    471802.332 2  24466887.561    24466888.310    24466888.070
        15.100          12.600
    369093.530 2    287604.505 3  25121229.514    25121232.843    25121230.654
        15.100          21.100
 -25880671.634 7 -20166751.055 7  20741471.471    20741472.024    20741471.317
        45.000          42.300
 13 10  7  0 19  0.0000000  0 12G 5G28G15G21G26G19G 7G10G 9G 3G27G 8
 -23126768.256 7 -18020845.824 6  21284872.700    21284873.172    21284873.524
        42.600          41.500
 -17134724.877 6 -13351730.375 5  21962878.885    21962878.744    21962878.922
        37.000          32.800
 -11517190.140 4  -8974428.572 4  23449837.671    23449837.492    23449838.262
        28.800          25.900
  -7450899.601 2  -5805893.362 1  24942519.348    24942517.962    24942519.297
        15.100          11.000
 -28241672.964 7 -22006489.110 7  20021068.254    20021069.290    20021068.968
        44.300          42.600
  -4213171.414 3  -3282988.922 3  24838906.099    24838906.055    24838906.042
        20.500          18.600
 -14111358.890 5 -10995856.432 5  22496825.034    22496825.266    22496825.861
        35.200          31.100
  -4157360.913 3  -3239487.116 3  24551231.983    24551234.559    24551231.625
        20.500          20.500
 -28474647.759 7 -22188030.436 7  20027821.956    20027822.786    20027822.330
        45.700          43.400
    633311.628 2    493490.174 2  24472183.803    24472184.931    24472183.428
        17.000          12.600
    391981.475 2    305439.207 2  25125584.645    25125587.279    25125586.227
        16.100          16.100
 -25848186.003 7 -20141437.573 7  20747652.943    20747653.729    20747653.073
        44.900          42.300
 13 10  7  0 19 30.0000000  0 12G 5G28G15G21G26G19G 7G10G 9G 3G27G 8
 -23071797.409 7 -17978011.416 6  21295333.247    21295333.754    21295333.992
        42.600          41.300
 -17192084.869 6 -13396426.464 5  21951963.801    21951963.733    21951963.875
        37.700          33.400
 -11612929.447 4  -9049030.599 4  23431618.274    23431618.433    23431619.409
        27.400          24.900
  -7472991.246 1  -5823107.646 2  24938315.202    24938313.976    24938315.533
        11.000          13.900
 -28285111.277 7 -22040337.143 7  20012802.598    20012803.221    20012802.921
        44.300          42.800
  -4246455.728 3  -3308924.706 2  24832573.464    24832571.456    24832572.444
        18.600          17.000
 -14024913.457 5 -10928496.371 5  22513274.739    22513275.672    22513275.928
        34.700          31.600
  -4040541.785 3  -3148459.281 3  24573462.126    24573464.813    24573462.254
        19.900          19.900
 -28436608.823 7 -22158389.705 7  20035060.512    20035061.337    20035060.942
        45.600          43.300
    661749.342 2    515649.441 2  24477594.433    24477596.640    24477595.075
        13.900          13.900
    415419.033 2    323702.208 2  25130045.125    25130047.744    25130046.135
        17.000          17.800
 -25815273.320 7 -20115791.326 7  20753916.168    20753916.811    20753916.169
        45.100          42.100
 13 10  7  0 20  0.0000000  0 12G 5G28G15G21G26G19G 7G10G 9G 3G27G 8
 -23016310.931 7 -17934775.221 6  21305892.036    21305892.357    21305892.774
        42.500          41.100
 -17248987.327 6 -13440766.019 5  21941135.602    21941135.657    21941135.590
        37.600          33.800
 -11708528.873 4  -9123523.659 4  23413426.375    23413426.620    23413427.309
        28.400          25.900
  -7494596.153 2  -5839942.585 2  24934202.858    24934203.150    24934203.396
        16.100          13.900
 -28328075.758 7 -22073815.958 7  20004626.461    20004627.331    20004627.025
        44.500          42.800
  -4279203.763 3  -3334442.625 2  24826341.979    24826339.673    24826341.157
        19.300          17.000
 -13938248.252 5 -10860965.058 5  22529767.132    22529767.489    22529767.902
        35.200          31.000
  -3923669.560 3  -3057390.029 2  24595703.246    24595704.743    24595702.563
        20.500          17.800
 -28398053.524 7 -22128346.615 7  20042397.462    20042398.225    20042397.811
        45.600          43.400
    690791.176 2    538279.471 2  24483121.462    24483122.746    24483121.930
        17.800          12.600
    439405.481 2    342392.931 2  25134610.350    25134612.662    25134609.934
        16.100          17.800
 -25781934.888 7 -20089813.329 7  20760260.058    20760260.970    20760260.154
        45.000          42.100
 13 10  7  0 20 30.0000000  0 12G 5G28G15G21G26G19G 7G10G 9G 3G27G 8
 -22960310.369 7 -17891138.435 6  21316548.681    21316548.967    21316549.398
