     2.10           OBSERVATION DATA    G (GPS)             RINEX VERSION / TYPE
teqc  2005Sep1                          20131007 00:15:20UTCPGM / RUN BY / DATE
OBSERVATION MODE: IGS-Net                                   COMMENT
WSRT Westerbork_Synth (WSRT)                                MARKER NAME
13506M005                                                   MARKER NUMBER
229                 AOA SNR-12 ACT       3.3.32.2N          REC # / TYPE / VERS
273                 AOAD/M_T        DUTD                    ANT # / TYPE
        0.3888        0.0000        0.0000                  ANTENNA: DELTA H/E/N
  3828735.6941  443305.1350  5064884.8236                   APPROX POSITION XYZ
  6.60450833  52.91461271  82.2809  LonLatAlt  RSW          COMMENT
Linux 2.4.20-8|Pentium IV|gcc|Linux|486/DX+                 COMMENT
HANS VAN DER MAREL  DUT/DEOS                                OBSERVER / AGENCY
     1     1                                                WAVELENGTH FACT L1/2
     7    L1    L2    C1    P2    P1    S1    S2            # / TYPES OF OBSERV
RUN BY HANS VAN DER MAREL                                   COMMENT
H.VANDERMAREL@TUDELFT.NL                                    COMMENT
    P1 =    P1  TurboRogue; =    Y1  Benchmark              COMMENT
    L1 = L1(CA)                                             COMMENT
    P2 =    P2  TurboRogue; =    Y2  Benchmark              COMMENT
    L2 = L2(P2) TurboRogue; = L2(Y2) Benchmark              COMMENT
 SNR is mapped to RINEX snr flag value [0-9]                COMMENT
  L1 & L2: min(max(int(snr_dBHz/6), 0), 9)                  COMMENT
  2013    10     6     0     0    0.0000000     GPS         TIME OF FIRST OBS
  2013    10     6    23    59   30.0000000     GPS         TIME OF LAST OBS
                                                            END OF HEADER
 13 10  6  0  0  0.0000000  0 12G28G26G 6G15G21G 8G13G 7G 9G19G10G 5
 -14099923.032 5 -10986950.258 4  22555507.827    22555508.018    22555507.780
        33.200          28.400
 -26023054.395 6 -20277698.573 6  20496658.504    20496659.470    20496659.194
        41.500          39.400
    330492.521 2    257527.295 2  25302263.410    25302265.260    25302264.248
        15.100          12.600
  -6883639.990 3  -5363872.530 3  24320550.032    24320550.963    24320551.387
        19.300          19.300
  -5993477.896 2  -4670244.865 1  25236088.988    25236087.730    25236088.253
        15.100           6.500
 -26811500.170 7 -20892070.132 7  20550531.710    20550532.409    20550531.918
        45.200          43.600
  -1913969.514 2  -1491388.454 1  25095991.460    25095993.543    25095991.788
        13.900          11.000
 -17900697.017 6 -13948587.271 5  21788660.855    21788660.779    21788661.711
        38.600          35.600
 -29478206.643 7 -22970024.867 7  19805633.116    19805633.426    19805633.293
        46.000          45.000
  -2081478.580 2  -1621930.554 2  25235844.044    25235842.966    25235843.730
        15.100          12.600
  -9454679.048 4  -7367265.552 3  23542856.543    23542858.234    23542856.317
        27.400          22.600
 -25190388.322 7 -19628863.645 7  20913483.055    20913483.441    20913483.917
        43.400          44.600
 13 10  6  0  0 30.0000000  0 12G28G26G 6G15G21G 8G13G 7G 9G19G10G 5
 -14176275.633 5 -11046445.765 4  22540978.878    22540978.775    22540978.590
        33.600          28.100
 -26086861.625 6 -20327418.491 6  20484516.751    20484517.319    20484517.082
        41.800          39.300
    356585.196 2    277859.209 1  25307227.998    25307229.247    25307229.699
        17.800          11.000
  -6984383.248 3  -5442373.768 3  24301380.308    24301380.189    24301380.776
        19.300          21.100
  -6037200.696 2  -4704314.603 2  25227769.242    25227767.022    25227768.172
        13.900          17.000
 -26799459.592 7 -20882687.861 7  20552823.022    20552823.668    20552823.123
        45.100          43.500
  -1808997.285 1  -1409591.934 2  25115966.282    25115969.092    25115967.868
         6.500          12.600
 -17826410.163 6 -13890701.420 5  21802797.384    21802797.261    21802798.117
        38.700          35.600
 -29465432.221 7 -22960070.763 7  19808063.711    19808064.249    19808064.059
        45.800          44.900
  -2137331.593 2  -1665452.363 1  25225214.627    25225214.247    25225215.545
        13.900          11.000
  -9342737.176 4  -7280038.130 3  23564158.896    23564159.524    23564158.348
        27.600          22.600
 -25160592.232 7 -19605645.924 7  20919152.850    20919153.334    20919153.934
        43.400          44.300
 13 10  6  0  1  0.0000000  0 12G28G26G 6G15G21G 8G13G 7G 9G19G10G 5
 -14252265.575 5 -11105658.694 4  22526518.189    22526517.915    22526518.223
        34.000          27.900
 -26150260.471 6 -20376820.185 6  20472452.201    20472452.877    20472452.578
        41.800          39.400
    383200.355 2    298598.272 2  25312294.100    25312294.037    25312294.044
        13.900          12.600
  -7085048.104 3  -5520813.874 3  24282223.509    24282224.221    24282224.342
        21.100          22.100
  -6080480.413 2  -4738039.044 2  25219533.353    25219532.029    25219531.909
        15.100          15.100
 -26786944.429 7 -20872935.787 7  20555204.659    20555205.271    20555204.776
        45.100          43.700
  -1703976.001 1  -1327757.203    25135952.417    25135953.166    25135952.534
         6.500           3.000
 -17751817.630 6 -13832577.375 5  21816991.922    21816991.693    21816992.696
        38.700          35.500
 -29452083.245 7 -22949668.964 7  19810604.210    19810604.522    19810604.297
        45.800          44.900
  -2192745.906 2  -1708632.314 2  25214670.851    25214669.325    25214670.686
        16.100          17.800
  -9230639.105 4  -7192688.988 4  23585489.608    23585491.721    23585489.589
        27.400          24.200
 -25130227.361 7 -19581984.999 7  20924931.421    20924931.636    20924932.187
        43.400          44.300
 13 10  6  0  1 30.0000000  0 12G28G26G 6G15G21G 8G13G 7G 9G19G10G 5
 -14327890.580 5 -11164587.258 4  22512127.160    22512126.456    22512127.156
        33.500          27.100
 -26213249.504 6 -20425902.548 6  20460465.974    20460466.330    20460466.252
        41.800          39.500
    410337.583 2    319744.173    25317457.314    25317458.039    25317457.691
        12.600           3.000
  -7185633.059 3  -5599191.737 3  24263083.658    24263083.365    24263084.221
        22.600          19.900
  -6123315.627 2  -4771417.098 2  25211380.963    25211381.271    25211382.306
        16.100          12.600
 -26773955.502 7 -20862814.541 7  20557676.576    20557676.922    20557676.501
        45.200          43.400
  -1598906.276 2  -1245884.672 1  25155946.738    25155948.463    25155947.427
        12.600          11.000
 -17676921.296 6 -13774216.600 5  21831243.938    21831243.987    21831244.790
        38.600          35.200
 -29438160.546 7 -22938820.104 7  19813253.364    19813253.952    19813253.698
        45.700          44.900
  -2247718.714 2  -1751468.259 1  25204210.639    25204207.704    25204208.905
        16.100          11.000
  -9118387.114 4  -7105219.923 4  23606850.501    23606852.429    23606850.210
        27.400          24.200
 -25099294.738 7 -19557881.672 7  20930817.772    20930817.984    20930818.524
        43.400          44.300
 13 10  6  0  2  0.0000000  0 12G28G26G 6G15G21G 8G13G 7G 9G19G10G 5
 -14403148.470 5 -11223229.757 4  22497806.049    22497805.813    22497805.944
        33.400          28.100
 -26275827.180 7 -20474664.367 6  20448557.623    20448558.308    20448558.206
        42.200          39.600
    437995.572 1    341295.868 2  25322720.762    25322721.473    25322721.035
        11.000          13.900
  -7286137.059 3  -5677506.498 3  24243959.381    24243958.055    24243958.980
        22.100          20.500
  -6165704.836 2  -4804447.645 1  25203315.256    25203313.728    25203315.155
        17.000          11.000
 -26760493.794 7 -20852324.902 7  20560238.002    20560238.539    20560237.981
        44.900          43.300
  -1493789.331 2  -1163975.415    25175949.981    25175949.977    25175950.972
        15.100           3.000
 -17601722.945 6 -13715620.494 5  21845553.842    21845554.041    21845554.632
        38.600          35.400
 -29423665.247 7 -22927525.063 7  19816011.974    19816012.320    19816012.203
        45.700          44.800
  -2302247.900 2  -1793958.522 2  25193833.504    25193830.307    25193831.841
        12.600          15.100
  -9005983.523 4  -7017632.744 3  23628240.456    23628241.897    23628240.114
        26.200          23.400
 -25067794.861 7 -19533336.323 7  20936812.188    20936812.084    20936812.717
        43.500          44.200
 13 10  6  0  2 30.0000000  0 12G28G26G 6G15G21G 8G13G 7G 9G19G10G 5
 -14478037.046 5 -11281584.465 4  22483555.048    22483555.319    22483555.124
        33.800          28.600
 -26337991.949 7 -20523104.445 6  20436728.415    20436728.735    20436728.711
        42.100          39.700
    466173.888 2    363252.958 2  25328083.682    25328083.724    25328083.383
        16.100          12.600
  -7386558.899 3  -5755757.262 3  24224849.615    24224848.526    24224849.419
        20.500          19.900
  -6207647.167 1  -4837129.987 2  25195333.407    25195332.324    25195333.282
         9.000          16.100
 -26746559.992 7 -20841467.388 7  20562889.547    20562890.044    20562889.480
        45.200          43.500
  -1388625.975 1  -1082029.975 2  25195961.683    25195961.995    25195963.097
        11.000          12.600
 -17526224.643 6 -13656790.655 5  21859920.712    21859920.718    21859921.576
        38.300          35.100
 -29408598.095 7 -22915784.425 7  19818879.075    19818879.589    19818879.286
        45.800          45.000
  -2356330.838 2  -1836101.060 2  25183542.271    25183539.913    25183542.115
        13.900          16.100
  -8893430.557 4  -6929929.148 3  23649658.760    23649660.157    23649658.391
        26.500          22.600
 -25035728.062 7 -19508349.222 7  20942913.938    20942914.317    20942914.777
        43.400          44.000
 13 10  6  0  3  0.0000000  0 12G28G26G 6G15G21G 8G13G 7G 9G19G10G 5
 -14552553.725 5 -11339649.387 4  22469375.110    22469375.092    22469375.016
        33.800          28.800
 -26399742.268 7 -20571221.570 6  20424977.494    20424978.056    20424977.970
        42.100          39.800
    494871.209 2    385614.503 2  25333544.918    25333544.924    25333544.499
        17.000          15.100
  -7486897.227 3  -5833942.964 3  24205754.250    24205754.522    24205754.658
        18.600          19.300
  -6249141.470 1  -4869463.194 1  25187436.934    25187436.981    25187437.861
        11.000          11.000
 -26732154.796 7 -20830242.558 7  20565630.886    20565631.362    20565630.819
        45.000          43.500
  -1283416.982 1  -1000048.986 1  25215982.483    25215983.633    25215982.697
         6.500           6.500
 -17450427.955 6 -13597728.314 5  21874344.030    21874344.222    21874345.018
        37.900          35.400
 -29392960.363 7 -22903599.179 7  19821854.651    19821855.374    19821855.002
        45.700          44.800
  -2409965.390 2  -1877894.203 2  25173335.178    25173333.131    25173334.147
        15.100          15.100
  -8780730.497 4  -6842110.937 4  23671104.435    23671106.550    23671104.299
        25.300          24.600
 -25003095.302 7 -19482921.111 7  20949124.099    20949124.059    20949124.690
        43.400          44.100
 13 10  6  0  3 30.0000000  0 12G28G26G 6G15G21G 8G13G 7G 9G19G10G 5
 -14626696.341 5 -11397422.843 4  22455266.278    22455266.040    22455266.281
        34.500          28.100
 -26461076.646 7 -20619014.591 6  20413305.896    20413306.593    20413306.457
        42.400          39.800
    524086.817 2    408379.908 1  25339103.255    25339105.300    25339102.999
        16.100           9.000
  -7587150.939 3  -5912062.733 3  24186677.486    24186677.274    24186678.019
        22.100          20.500
  -6290186.201 2  -4901446.106 1  25179627.688    25179626.320    25179626.384
        15.100          11.000
 -26717279.286 7 -20818651.250 7  20568461.528    20568462.079    20568461.538
        45.200          43.400
  -1178163.303     -918033.185 1  25236011.627    25236013.182    25236012.394
         3.000           9.000
 -17374335.021 6 -13538435.122 5  21888823.875    21888824.144    21888824.928
        37.900          34.700
 -29376752.821 7 -22890969.926 7  19824939.121    19824939.486    19824939.340
        45.900          44.700
  -2463149.004 2  -1919335.978 2  25163214.292    25163212.139    25163213.671
        17.000          13.900
  -8667885.503 4  -6754179.801 3  23692578.443    23692580.414    23692578.248
        26.200          23.000
 -24969897.574 7 -19457052.757 7  20955441.353    20955441.445    20955442.009
        43.500          44.100
 13 10  6  0  4  0.0000000  0 11G28G26G 6G15G21G 8G 7G 9G19G10G 5
 -14700462.926 5 -11454903.293 4  22441229.150    22441228.676    22441228.981
        34.400          28.600
 -26521993.635 7 -20666482.371 6  20401713.759    20401714.574    20401714.178
        42.200          40.100
    553819.592 2    431548.261 1  25344762.922    25344762.609    25344761.684
        17.000           9.000
  -7687318.702 3  -5990115.483 3  24167614.867    24167615.228    24167616.752
        21.100          21.600
  -6330780.115 1  -4933077.743 1  25171902.252    25171901.859    25171902.223
        11.000          11.000
 -26701934.237 7 -20806694.067 7  20571381.590    20571382.031    20571381.614
        45.200          43.300
 -17297947.776 6 -13478912.604 5  21903360.055    21903360.166    21903361.030
        38.000          35.100
 -29359976.706 7 -22877897.627 7  19828131.348    19828131.858    19828131.646
        45.800          44.700
  -2515879.059 3  -1960424.333 2  25153180.121    25153178.721    25153179.675
        19.900          13.900
  -8554897.880 4  -6666137.535 3  23714079.589    23714081.215    23714079.371
        26.800          23.000
 -24936135.627 7 -19430744.763 7  20961865.873    20961866.197    20961866.588
        43.300          43.900
 13 10  6  0  4 30.0000000  0 11G28G26G 6G15G21G 8G 7G 9G19G10G 5
 -14773850.906 5 -11512088.712 4  22427263.587    22427263.599    22427263.612
        34.300          28.400
 -26582491.793 7 -20713623.789 6  20390201.363    20390202.227    20390201.787
        42.400          40.000
    584068.572 2    455118.906 2  25350518.597    25350518.423    25350518.578
        12.600          12.600
  -7787399.264 3  -6068100.331 3  24148570.845    24148571.113    24148571.400
        21.600          22.100
  -6370921.992 2  -4964357.100 2  25164263.695    25164262.802    25164263.922
        15.100          12.600
 -26686120.535 7 -20794371.702 7  20574390.793    20574391.308    20574390.804
        45.100          43.400
 -17221268.244 6 -13419162.332 5  21917952.411    21917951.886    21917952.895
        38.200          34.800
 -29342632.944 7 -22864383.004 7  19831431.838    19831432.318    19831432.122
        45.900          44.800
  -2568153.288 2  -2001157.503 2  25143233.677    25143231.462    25143232.603
        17.800          17.000
  -8441769.959 4  -6577985.908 3  23735606.730    23735608.015    23735607.045
        27.600          21.600
 -24901810.472 7 -19403997.900 7  20968397.652    20968397.893    20968398.559
        43.300          43.700
 13 10  6  0  5  0.0000000  0 11G28G26G 6G15G21G 8G 7G 9G19G10G 5
 -14846858.036 5 -11568977.369 4  22413370.661    22413370.658    22413370.755
        34.400          28.800
 -26642569.408 7 -20760437.507 6  20378768.694    20378769.693    20378769.379
        42.400          40.200
    614832.545 2    479090.857 1  25356371.839    25356373.189    25356372.369
        13.900           9.000
  -7887391.301 3  -6146016.171 3  24129542.690    24129543.224    24129543.367
        22.100          21.600
  -6410610.895 2  -4995283.540 2  25156710.898    25156711.114    25156710.220
        13.900          15.100
 -26669839.203 7 -20781684.946 7  20577489.418    20577489.737    20577489.158
        45.100          43.500
 -17144298.358 6 -13359185.806 5  21932599.412    21932598.825    21932599.862
        38.300          34.600
 -29324722.409 7 -22850426.742 7  19834840.303    19834840.555    19834840.449
        45.900          44.700
  -2619969.132 2  -2041533.466 2  25133373.296    25133371.645    25133371.897
        13.900          12.600
  -8328503.741 4  -6489726.530 3  23757160.664    23757162.181    23757160.534
        25.600          21.100
 -24866922.867 7 -19376812.769 7  20975036.547    20975036.867    20975037.303
        43.200          43.900
 13 10  6  0  5 30.0000000  0 12G28G26G 6G15G21G 8G27G 7G 9G19G10G 5
 -14919481.841 5 -11625567.325 4  22399550.940    22399550.920    22399550.990
        34.300          29.200
 -26702225.130 7 -20806922.489 6  20367416.888    20367417.548    20367417.338
        42.400          40.200
    646110.622 2    503463.367 1  25362323.535    25362324.444    25362324.356
        13.900          11.000
  -7987293.701 3  -6223862.161 3  24110532.586    24110532.075    24110533.289
        22.600          20.500
  -6449845.676 1  -5025856.098 2  25149245.072    25149244.822    25149245.699
        11.000          15.100
 -26653091.290 7 -20768634.625 7  20580676.112    20580676.660    20580676.102
        45.100          43.400
      5222.692 2      4069.959 3  25035846.739    25035847.141    25035846.689
        17.000          18.600
 -17067039.803 6 -13298984.338 5  21947300.683    21947300.829    21947301.605
        38.000          34.700
 -29306246.332 7 -22836029.800 7  19838355.844    19838356.309    19838356.200
        45.800          44.600
  -2671324.385 2  -2081550.503 2  25123599.722    25123597.694    25123599.537
        15.100          12.600
  -8215101.585 4  -6401361.227 3  23778740.275    23778742.050    23778740.196
        24.600          20.500
 -24831473.333 7 -19349189.767 7  20981782.497    20981782.741    20981783.328
        43.200          43.800
 13 10  6  0  6  0.0000000  0 12G28G26G 6G15G21G 8G27G 7G 9G19G10G 5
 -14991720.559 5 -11681857.230 4  22385804.432    22385804.029    22385804.551
        34.900          29.000
 -26761457.417 7 -20853077.515 6  20356145.452    20356145.886    20356145.740
        42.600          40.200
    677901.864 2    528235.747 2  25368373.229    25368375.085    25368373.060
        16.100          12.600
  -8087105.515 3  -6301637.605 3  24091539.110    24091538.646    24091539.478
        22.100          23.000
  -6488624.091 2  -5056073.030 2  25141865.352    25141865.555    25141865.124
        13.900          12.600
 -26635877.676 7 -20755221.415 7  20583951.772    20583952.198    20583951.676
        45.100          43.400
      9004.807 2      7017.049 2  25036565.912    25036567.422    25036565.711
        17.000          17.800
 -16989494.453 6 -13238559.401 5  21962056.896    21962057.397    21962057.822
        37.700          34.800
 -29287205.691 7 -22821192.931 7  19841979.247    19841979.728    19841979.537
        45.800          44.800
  -2722216.528 2  -2121206.745 2  25113914.855    25113913.123    25113916.127
        16.100          17.000
  -8101565.882 3  -6312891.893 3  23800345.236    23800347.317    23800345.076
        23.800          19.300
 -24795463.040 7 -19321129.808 7  20988634.547    20988635.293    20988635.730
        43.000          43.600
 13 10  6  0  6 30.0000000  0 12G28G26G 6G15G21G 8G27G 7G 9G19G10G 5
 -15063571.809 5 -11737845.209 5  22372131.321    22372131.435    22372131.351
        34.400          30.100
 -26820264.726 7 -20898901.389 6  20344954.625    20344955.225    20344955.065
        42.600          40.300
    710204.749 2    553406.836 1  25374520.615    25374521.337    25374519.878
        16.100           6.500
  -8186824.999 3  -6379341.073 3  24072562.707    24072563.024    24072563.470
        22.600          21.100
  -6526946.321 1  -5085934.488 2  25134571.397    25134573.347    25134572.824
         6.500          13.900
 -26618199.117 7 -20741445.919 7  20587315.654    20587316.375    20587315.848
        45.400          43.300
     13349.393 2     10402.476 3  25037391.847    25037394.299    25037392.136
        16.100          18.600
 -16911664.299 6 -13177912.530 5  21976866.944    21976867.813    21976868.322
        37.600          34.400
 -29267601.650 7 -22805917.055 7  19845709.667    19845710.228    19845710.026
        45.700          44.700
  -2772643.968 3  -2160500.860 2  25104320.098    25104318.255    25104319.809
        18.600          17.000
  -7987898.626 4  -6224320.025 3  23821975.906    23821977.482    23821975.662
        26.800          23.000
 -24758892.855 7 -19292633.576 7  20995593.982    20995594.292    20995594.916
        43.300          43.400
 13 10  6  0  7  0.0000000  0 12G28G26G 6G15G21G 8G27G 7G 9G19G10G 5
 -15135033.548 5 -11793529.658 4  22358532.822    22358533.116    22358532.795
        34.500          29.200
 -26878645.706 7 -20944393.059 6  20333845.155    20333845.740    20333845.513
        42.600          40.300
    743018.644 1    578976.060 2  25380764.943    25380765.741    25380764.964
        11.000          12.600
  -8286451.049 3  -6456971.740 3  24053604.359    24053604.289    24053604.548
        23.000          22.600
  -6564810.939 2  -5115439.378 2  25127367.471    25127367.432    25127367.506
        12.600          13.900
 -26600056.694 7 -20727308.960 7  20590768.291    20590768.851    20590768.243
        45.000          43.100
     18256.504 2     14226.200 2  25038325.472    25038327.568    25038325.666
        16.100          15.100
 -16833551.079 6 -13117045.098 5  21991731.862    21991732.038    21991732.701
        37.500          34.300
 -29247435.336 7 -22790203.047 7  19849547.287    19849547.710    19849547.538
        45.800          44.400
  -2822603.441 2  -2199430.340 2  25094813.605    25094811.328    25094812.776
        16.100          15.100
  -7874102.421 4  -6135647.673 3  23843631.057    23843631.898    23843630.635
        26.200          21.600
 -24721763.469 7 -19263701.600 7  21002659.771    21002660.000    21002660.276
        43.000          43.400
 13 10  6  0  7 30.0000000  0 12G28G26G 6G15G21G 8G27G 7G 9G19G10G 5
 -15206103.147 5 -11848908.550 4  22345009.096    22345008.681    22345008.998
        35.300          29.700
 -26936598.817 7 -20989551.325 6  20322817.162    20322817.693    20322817.407
        42.800          40.500
    776342.284 2    604942.516 1  25387105.318    25387107.065    25387106.057
        13.900          11.000
  -8385982.474 3  -6534528.672 3  24034662.856    24034663.872    24034665.123
        23.400          21.600
  -6602216.069 2  -5144586.200 2  25120249.860    25120248.575    25120250.214
        12.600          13.900
 -26581451.403 7 -20712811.333 7  20594308.867    20594309.227    20594308.774
        45.200          43.100
     23726.098 2     18488.232 3  25039365.845    25039369.349    25039366.129
        15.100          19.300
 -16755156.988 6 -13055958.786 5  22006649.740    22006650.059    22006650.560
        37.200          34.300
 -29226708.062 7 -22774051.927 7  19853491.531    19853492.048    19853491.754
        45.700          44.600
  -2872092.775 2  -2237993.455 2  25085395.874    25085392.789    25085394.947
        17.800          13.900
  -7760179.388 4  -6046876.487 3  23865310.111    23865310.677    23865309.746
        27.400          21.100
 -24684076.188 7 -19234334.894 7  21009831.283    21009831.526    21009831.988
        43.200          43.400
 13 10  6  0  8  0.0000000  0 12G28G26G 6G15G21G 8G27G 7G 9G19G10G 5
 -15276778.721 5 -11903980.420 4  22331559.696    22331559.341    22331559.685
        34.900          29.900
 -26994122.571 7 -21034375.026 6  20311870.693    20311871.356    20311871.039
        43.000          40.600
    810174.526 1    631305.314 2  25393543.561    25393545.799    25393543.940
        11.000          15.100
  -8485418.033 3  -6612010.909 3  24015741.274    24015742.459    24015742.750
        23.000          22.600
  -6639161.716 2  -5173375.007 2  25113218.896    25113218.015    25113219.066
        12.600          12.600
 -26562384.010 7 -20697953.621 7  20597937.112    20597937.479    20597937.064
        45.200          43.000
     29758.138 2     23188.551 3  25040514.848    25040516.908    25040515.261
        17.000          18.600
 -16676483.647 6 -12994654.899 5  22021620.730    22021621.204    22021621.528
        36.700          33.900
 -29205420.910 7 -22757464.533 7  19857542.457    19857542.946    19857542.652
        46.000          44.700
  -2921110.019 2  -2276188.685 2  25076068.503    25076065.633    25076067.714
        17.800          13.900
  -7646131.568 4  -5958008.072 3  23887012.092    23887013.517    23887011.867
        25.900          22.600
 -24645832.049 7 -19204534.280 7  21017108.574    21017109.130    21017109.554
        42.900          43.400
 13 10  6  0  8 30.0000000  0 12G28G26G 6G15G21G 8G27G 7G 9G19G10G 5
 -15347058.161 5 -11958743.603 4  22318185.946    22318185.655    22318185.834
        34.300          29.500
 -27051215.472 7 -21078862.997 6  20301006.485    20301006.863    20301006.667
        42.900          40.700
    844514.201 2    658063.462 2  25400078.505    25400079.471    25400078.758
        15.100          12.600
  -8584756.367 3  -6689417.387 3  23996838.733    23996838.569    23996839.461
        23.000          21.600
  -6675646.050 2  -5201804.368 2  25106275.488    25106276.272    25106277.369
        17.000          13.900
 -26542855.622 7 -20682736.698 7  20601653.168    20601653.669    20601653.106
        44.900          43.200
     36352.640 3     28327.135 3  25041769.158    25041771.542    25041769.366
        18.600          19.300
 -16597532.892 6 -12933134.837 5  22036645.535    22036644.912    22036645.809
        37.200          34.700
 -29183574.910 7 -22740441.681 7  19861699.371    19861700.195    19861699.747
        45.700          44.700
  -2969652.687 2  -2314014.133 2  25066830.035    25066828.720    25066829.308
        16.100          15.100
  -7531961.092 3  -5869044.090 3  23908737.856    23908739.637    23908737.611
        22.600          22.600
 -24607032.271 7 -19174300.704 7  21024492.365    21024492.538    21024492.998
        43.100          43.400
 13 10  6  0  9  0.0000000  0 12G28G26G 6G15G21G 8G27G 7G 9G19G10G 5
 -15416939.255 5 -12013196.386 5  22304888.370    22304888.003    22304888.230
        35.500          30.400
 -27107876.055 7 -21123014.100 6  20290224.065    20290224.689    20290224.465
        43.000          40.800
    879359.911 1    685215.939 2  25406709.889    25406710.710    25406709.595
         9.000          13.900
  -8683996.094 3  -6766747.048 3  23977954.224    23977954.143    23977954.452
        22.600          21.100
  -6711667.619 2  -5229873.105 2  25099421.615    25099422.000    25099422.094
        15.100          12.600
 -26522867.234 7 -20667161.329 7  20605456.752    20605457.459    20605456.845
        45.100          43.100
     43509.427 2     33903.847 2  25043130.822    25043133.271    25043132.240
        17.800          16.100
 -16518306.874 6 -12871400.281 5  22051721.281    22051721.084    22051722.016
        37.100          34.100
 -29161171.205 7 -22722984.246 7  19865962.917    19865963.335    19865963.133
        45.800          44.600
  -3017718.720 2  -2351468.175 2  25057683.408    25057682.243    25057682.903
        17.000          17.000
  -7417670.089 3  -5779986.200 4  23930485.993    23930488.695    23930486.098
        23.400          24.200
 -24567677.116 7 -19143634.358 7  21031981.375    21031981.508    21031982.038
        43.000          43.300
 13 10  6  0  9 30.0000000  0 12G28G26G 6G15G21G 8G27G 7G 9G19G10G 5
 -15486419.703 5 -12067336.983 5  22291666.407    22291666.158    22291666.430
        35.300          30.200
 -27164102.949 7 -21166827.262 6  20279524.481    20279525.037    20279524.856
        43.000          40.800
    914710.820 2    712762.108 1  25413435.950    25413438.466    25413436.662
        12.600          11.000
  -8783135.742 4  -6843998.715 3  23959089.252    23959088.543    23959089.276
        24.200          22.100
  -6747226.258 2  -5257581.093 2  25092654.892    25092655.027    25092656.011
        15.100          15.100
 -26502419.885 7 -20651228.331 7  20609347.677    20609348.403    20609347.765
        45.100          43.100
     51228.433 2     39918.660 2  25044599.804    25044602.116    25044600.515
        16.100          17.800
 -16438807.296 6 -12809452.567 5  22066849.326    22066849.457    22066850.046
        36.800          33.900
 -29138211.107 7 -22705093.261 7  19870332.033    19870332.562    19870332.311
        45.900          44.500
  -3065305.789 3  -2388549.029 3  25048628.285    25048626.378    25048628.088
        19.900          19.900
  -7303261.346 3  -5690836.560 3  23952257.324    23952260.182    23952257.526
        21.100          22.600
 -24527767.656 7 -19112536.089 7  21039575.703    21039576.052    21039576.608
        43.100          43.100
 13 10  6  0 10  0.0000000  0 12G28G26G 6G15G21G 8G27G 7G 9G19G10G 5
 -15555497.485 5 -12121163.810 5  22278520.903    22278520.957    22278521.042
        35.600          30.200
 -27219894.588 7 -21210301.265 6  20268907.530    20268908.267    20268908.057
        42.900          40.900
    950565.209 2    740700.562 2  25420260.515    25420260.487    25420260.667
        16.100          15.100
  -8882174.599 4  -6921171.808 3  23940242.652    23940241.629    23940242.879
        25.300          22.600
  -6782320.645 2  -5284927.386 2  25085977.794    25085975.972    25085977.430
        16.100          16.100
 -26481514.550 7 -20634938.459 7  20613325.920    20613326.613    20613325.892
        45.000          43.100
     59509.502 2     46371.445 2  25046174.471    25046178.236    25046175.716
        15.100          17.800
 -16359036.033 6 -12747293.155 5  22082029.373    22082029.667    22082030.187
        37.200          34.400
 -29114695.837 7 -22686769.674 7  19874806.905    19874807.469    19874807.111
        45.700          44.500
  -3112411.460 2  -2425254.757 2  25039663.671    25039662.619    25039662.582
        15.100          17.800
  -7188736.764 3  -5601596.660 3  23974050.891    23974053.063    23974050.845
        22.600          22.600
 -24487305.349 7 -19081007.028 7  21047275.631    21047275.779    21047276.305
        42.700          43.100
 13 10  6  0 10 30.0000000  0 12G28G26G 6G15G21G 8G27G 7G 9G19G10G 5
 -15624170.536 5 -12174675.260 4  22265452.927    22265452.746    22265453.063
        35.400          29.500
 -27275249.602 7 -21253435.041 6  20258373.747    20258374.561    20258374.273
        43.100          41.000
    986922.164 2    769030.652    25427178.828    25427178.800    25427178.289
        12.600           3.000
  -8981111.045 3  -6998265.114 3  23921414.687    23921414.567    23921415.483
        21.600          22.100
  -6816949.587 2  -5311910.967 2  25079387.662    25079386.505    25079387.149
        13.900          17.000
 -26460152.148 7 -20618292.433 7  20617391.072    20617391.814    20617391.059
        45.100          43.100
     68352.531 2     53262.122 3  25047857.031    25047860.926    25047858.547
        13.900          18.600
 -16278995.011 6 -12684923.540 5  22097260.451    22097260.846    22097261.470
        37.000          33.800
 -29090626.419 7 -22668014.281 7  19879387.207    19879387.583    19879387.294
        45.700          44.300
  -3159033.872 3  -2461583.899 2  25030791.464    25030790.233    25030791.978
        18.600          13.900
  -7074098.615 4  -5512268.230 3  23995865.921    23995867.922    23995865.808
        24.600          21.100
 -24446291.225 7 -19049047.989 7  21055080.209    21055080.597    21055080.843
        42.600          43.100
 13 10  6  0 11  0.0000000  0 12G28G26G 6G15G21G 8G27G 7G 9G19G10G 5
 -15692436.791 5 -12227869.738 5  22252462.642    22252462.326    22252462.540
        35.800          30.100
 -27330166.535 7 -21296227.458 6  20247923.756    20247924.192    20247924.028
        43.100          40.900
   1023780.694 2    797751.567 1  25434192.111    25434193.684    25434192.480
        13.900           9.000
  -9079943.846 4  -7075277.702 3  23902607.463    23902607.470    23902608.060
        24.900          23.800
  -6851112.162 2  -5338531.156 2  25072887.122    25072885.582    25072886.813
        16.100          15.100
 -26438333.984 7 -20601291.262 7  20621543.109    20621543.646    20621542.988
        44.900          43.000
     77757.315 2     60590.524 2  25049647.587    25049650.110    25049648.150
        16.100          13.900
 -16198686.328 6 -12622345.356 5  22112542.938    22112543.045    22112543.431
        36.500          34.000
 -29066004.054 7 -22648828.021 7  19884072.245    19884073.067    19884072.629
        45.600          44.300
  -3205170.583 3  -2497534.591 2  25022012.602    25022010.590    25022012.245
        19.300          16.100
  -6959349.166 4  -5422853.078 3  24017702.668    24017703.933    24017702.398
        25.300          20.500
 -24404726.206 7 -19016659.675 7  21062989.845    21062990.030    21062990.740
        43.100          42.900
 13 10  6  0 11 30.0000000  0 12G28G26G 6G15G21G 8G27G 7G 9G19G10G 5
 -15760293.951 5 -12280745.424 4  22239549.583    22239549.434    22239549.546
        35.400          29.700
 -27384643.881 7 -21338677.337 6  20237557.223    20237557.555    20237557.359
        43.200          41.200
   1061139.079 2    826861.962 1  25441301.521    25441301.957    25441301.953
        17.000          11.000
  -9178671.523 4  -7152208.321 3  23883820.157    23883820.498    23883820.982
        25.300          22.100
  -6884807.087 1  -5364786.928 2  25066474.274    25066473.826    25066473.721
        11.000          12.600
 -26416061.016 7 -20583935.703 7  20625781.371    20625781.993    20625781.281
        45.100          43.000
     87723.671 2     68356.516 2  25051544.834    25051546.257    25051545.541
        13.900          17.800
 -16118111.553 6 -12559559.828 5  22127875.786    22127875.878    22127876.578
        37.000          33.500
 -29040830.175 7 -22629212.010 7  19888862.799    19888863.431    19888863.144
        45.700          44.200
  -3250819.504 2  -2533105.156 3  25013326.527    25013324.281    25013325.710
        12.600          18.600
  -6844490.909 4  -5333353.130 3  24039559.751    24039560.849    24039558.980
        24.600          19.300
 -24362611.577 7 -18983843.093 7  21071003.740    21071004.289    21071004.665
        42.600          43.000
 13 10  6  0 12  0.0000000  0 12G28G26G 6G15G21G 8G27G 7G 9G19G10G 5
 -15827740.081 5 -12333300.837 5  22226715.161    22226714.860    22226715.081
        35.700          30.200
 -27438680.265 7 -21380783.605 6  20227274.268    20227274.816    20227274.523
        43.100          41.300
   1098996.107 1    856360.909 1  25448504.891    25448505.754    25448505.649
         6.500           6.500
  -9277293.014 3  -7229056.222 3  23865053.022    23865053.354    23865053.777
        23.800          23.000
  -6918034.065 2  -5390678.055 1  25060151.533    25060150.535    25060151.065
        16.100          11.000
 -26393334.546 7 -20566226.765 7  20630105.969    20630106.727    20630106.009
        45.100          43.000
     98251.356 2     76559.901 2  25053548.275    25053550.260    25053548.030
        17.000          17.800
 -16037272.550 6 -12496568.399 5  22143259.477    22143258.941    22143259.876
        37.100          33.500
 -29015106.087 7 -22609167.268 7  19893757.967    19893758.569    19893758.321
        45.700          44.100
  -3295978.396 2  -2568293.885 2  25004732.218    25004730.648    25004731.701
        17.800          17.800
  -6729525.916 3  -5243770.026 3  24061436.422    24061438.046    24061436.103
        23.400          21.100
 -24319948.527 7 -18950599.178 7  21079122.874    21079122.858    21079123.331
        42.900          42.800
 13 10  6  0 12 30.0000000  0 12G28G26G 6G15G21G 8G27G 7G 9G19G10G 5
 -15894772.891 6 -12385534.181 5  22213959.406    22213959.182    22213959.266
        36.100          31.300
 -27492274.262 7 -21422545.163 6  20217075.551    20217076.281    20217075.913
        43.200          41.400
   1137350.648 2    886247.544 1  25455803.722    25455804.590    25455803.800
        16.100           9.000
  -9375807.078 4  -7305820.401 3  23846306.763    23846306.680    23846307.550
        25.300          23.400
  -6950791.459 2  -5416203.311 2  25053918.051    25053916.836    25053917.587
        16.100          12.600
 -26370155.199 7 -20548164.933 7  20634517.199    20634517.556    20634517.047
        45.200          42.800
    109340.100 2     85200.480 2  25055658.273    25055660.359    25055658.688
        15.100          17.800
 -15956171.551 6 -12433372.822 5  22158691.908    22158692.135    22158692.694
        36.700          33.200
 -28988832.860 7 -22588694.622 7  19898757.762    19898758.220    19898757.945
        45.600          44.200
  -3340645.415 3  -2603099.373 2  24996233.759    24996230.914    24996232.879
        18.600          16.100
  -6614456.350 3  -5154105.430 3  24083333.370    24083334.991    24083333.181
        23.400          19.900
 -24276737.995 7 -18916928.646 7  21087345.544    21087345.474    21087346.130
        43.100          43.000
 13 10  6  0 13  0.0000000  0 12G28G26G 6G15G21G 8G27G 7G 9G19G10G 5
 -15961390.426 5 -12437443.936 5  22201282.105    22201282.177    22201282.197
        35.700          32.000
 -27545424.399 7 -21463960.851 6  20206961.788    20206962.138    20206961.846
        43.500          41.500
   1176201.294 2    916520.769 1  25463196.400    25463197.839    25463196.830
        17.000           9.000
  -9474212.052 4  -7382499.589 3  23827581.083    23827580.753    23827581.830
        24.900          23.400
  -6983078.788 2  -5441362.239 2  25047773.317    25047773.322    25047774.640
        16.100          12.600
 -26346523.942 7 -20529750.969 7  20639013.898    20639014.330    20639013.831
        45.100          42.800
    120989.670 3     94278.081 2  25057875.041    25057877.316    25057876.078
        18.600          17.000
 -15874810.043 6 -12369974.253 5  22174174.419    22174174.637    22174175.360
        36.500          33.400
 -28962011.775 7 -22567795.074 7  19903861.810    19903862.043    19903861.859
        45.700          44.100
  -3384818.143 3  -2637519.668 2  24987827.146    24987824.929    24987826.238
        19.300          17.800
  -6499284.471 3  -5064361.118 3  24105250.720    24105251.183    24105249.842
        21.600          19.300
 -24232981.338 7 -18882832.566 7  21095671.924    21095672.150    21095672.658
        42.700          42.700
 13 10  6  0 13 30.0000000  0 12G28G26G 6G15G21G 8G27G 7G 9G19G10G 5
 -16027590.806 5 -12489028.628 5  22188684.564    22188684.707    22188684.625
        35.600          31.100
 -27598129.317 7 -21505029.618 6  20196931.906    20196932.637    20196932.403
        43.400          41.400
   1215546.553 1    947179.346 1  25470684.060    25470684.777    25470685.001
        11.000           9.000
  -9572506.611 4  -7459092.752 4  23808875.944    23808876.477    23808876.642
        24.200          24.600
  -7014894.813 2  -5466153.932 2  25041720.005    25041718.478    25041720.033
        16.100          13.900
 -26322442.078 7 -20510985.881 7  20643596.574    20643596.923    20643596.574
        45.200          42.800
    133199.750 2    103792.447 3  25060198.284    25060201.112    25060199.125
        17.800          18.600
 -15793189.857 6 -12306374.109 5  22189706.259    22189706.346    22189707.272
        36.900          33.200
 -28934644.153 7 -22546469.654 7  19909069.244    19909069.923    19909069.659
        45.600          44.200
  -3428494.512 2  -2671553.151 3  24979516.068    24979513.725    24979515.099
        17.800          19.300
  -6384012.552 3  -4974538.841 2  24127185.448    24127186.446    24127184.742
        23.000          17.800
 -24188679.567 7 -18848311.721 7  21104102.455    21104102.471    21104103.041
        42.800          42.700
 13 10  6  0 14  0.0000000  0 12G28G26G 6G15G21G 8G27G 7G 9G19G10G 5
 -16093371.979 5 -12540286.671 5  22176166.651    22176166.988    22176166.794
        35.500          31.600
 -27650387.493 7 -21545750.272 6  20186987.465    20186988.111    20186987.973
        43.400          41.400
   1255384.914 1    978222.225 1  25478264.870    25478266.280    25478265.122
        11.000           9.000
  -9670689.565 4  -7535598.941 3  23790192.915    23790192.179    23790193.231
        24.900          23.800
  -7046238.531 2  -5490577.618 2  25035754.120    25035754.268    25035755.954
        13.900          15.100
 -26297910.764 7 -20491870.568 7  20648264.840    20648265.184    20648264.757
        45.300          42.700
    145970.016 2    113743.317 2  25062628.542    25062630.947    25062629.213
        15.100          17.000
 -15711312.887 6 -12242573.877 5  22205286.924    22205287.194    22205287.778
        36.300          33.400
 -28906731.554 7 -22524719.577 7  19914380.771    19914381.605    19914381.243
        45.600          43.900
  -3471672.446 2  -2705198.332 2  24971299.580    24971297.284    24971299.132
        17.800          17.800
  -6268642.861 3  -4884640.398 3  24149139.171    24149141.136    24149138.394
        21.600          19.900
 -24143833.919 7 -18813367.076 7  21112636.409    21112636.439    21112636.981
        43.000          42.600
 13 10  6  0 14 30.0000000  0 12G28G26G 6G15G21G 8G27G 7G 9G19G10G 5
 -16158731.829 6 -12591216.414 5  22163729.281    22163728.979    22163729.518
        36.500          31.100
 -27702197.633 7 -21586121.809 6  20177128.339    20177128.977    20177128.858
        43.600          41.400
   1295715.219 2   1009648.410 2  25485940.951    25485941.534    25485941.409
        13.900          12.600
  -9768759.624 4  -7612017.167 3  23771530.057    23771529.894    23771530.984
        24.600          23.800
  -7077109.363 2  -5514632.794 2  25029880.137    25029879.509    25029880.215
        15.100          12.600
 -26272931.007 7 -20472405.827 7  20653018.146    20653018.837    20653018.090
        45.100          42.800
    159300.131 2    124130.406 3  25065165.281    25065167.333    25065165.357
        15.100          19.300
 -15629181.245 6 -12178575.197 5  22220916.128    22220916.195    22220916.877
        36.900          33.000
 -28878275.220 7 -22502545.809 7  19919796.122    19919796.622    19919796.267
        45.700          43.900
  -3514350.119 3  -2738453.683 3  24963177.851    24963176.275    24963177.059
        18.600          18.600
  -6153177.465 3  -4794667.387 3  24171111.693    24171113.790    24171111.407
        22.100          21.100
 -24098445.722 7 -18777999.662 7  21121273.246    21121273.657    21121273.938
        42.700          42.700
 13 10  6  0 15  0.0000000  0 12G28G26G 6G15G21G 8G27G 7G 9G19G10G 5
 -16223668.210 6 -12641816.183 5  22151372.387    22151372.291    22151372.479
        36.300          31.300
 -27753558.222 7 -21626143.045 6  20167355.166    20167355.453    20167355.302
        43.600          41.600
   1336536.290 1   1041456.929 2  25493708.487    25493708.326    25493708.448
         9.000          12.600
  -9866715.540 4  -7688346.437 3  23752889.591    23752889.823    23752890.661
        26.500          23.400
  -7107506.265 2  -5538318.687 2  25024096.271    25024095.512    25024096.101
        15.100          12.600
 -26247503.935 7 -20452592.523 7  20657856.832    20657857.372    20657856.804
        45.200          42.700
    173189.778 2    134953.504 3  25067808.423    25067810.879    25067808.999
        16.100          19.900
 -15546796.632 6 -12114379.403 5  22236593.234    22236593.547    22236594.143
        36.500          33.200
 -28849276.520 7 -22479949.421 7  19925314.388    19925314.889    19925314.559
        45.600          43.800
  -3556525.226 1  -2771317.418 2  24955151.918    24955150.045    24955151.369
        11.000          17.000
  -6037618.495 3  -4704621.452 3  24193102.337    24193103.871    24193102.082
        23.000          22.600
 -24052516.140 7 -18742210.401 7  21130013.206    21130013.739    21130013.978
        42.500          42.600
 13 10  6  0 15 30.0000000  0 12G28G26G 6G15G21G 8G27G 7G 9G19G10G 5
 -16288179.172 6 -12692084.455 5  22139096.316    22139096.314    22139096.353
        36.000          32.300
 -27804467.942 7 -21665812.955 6  20157667.215    20157667.642    20157667.514
        43.600          41.500
   1377846.484 2   1073646.683 1  25501568.466    25501569.657    25501569.454
        13.900           6.500
  -9964555.982 4  -7764585.729 3  23734271.269    23734271.218    23734271.600
        24.200          22.100
  -7137428.519 1  -5561634.703 2  25018402.311    25018401.834    25018401.305
        11.000          12.600
 -26221630.613 7 -20432431.492 7  20662780.425    20662780.888    20662780.319
        45.100          42.700
    187638.536 2    146212.277 2  25070557.941    25070560.692    25070558.512
        17.000          17.000
 -15464160.759 6 -12049987.828 5  22252318.160    22252318.793    22252319.128
        36.300          32.800
 -28819736.651 7 -22456931.344 7  19930935.507    19930936.197    19930935.847
        45.500          43.800
  -3598195.975 3  -2803788.065 2  24947221.681    24947220.502    24947221.759
        18.600          17.800
  -5921968.349 3  -4614504.474 3  24215109.459    24215111.366    24215108.926
        23.000          23.400
 -24006046.717 7 -18706000.468 7  21138856.273    21138856.372    21138856.999
        42.900          42.100
 13 10  6  0 16  0.0000000  0 12G28G26G 6G15G21G 8G27G 7G 9G19G10G 5
 -16352262.949 6 -12742019.845 5  22126901.288    22126901.326    22126901.590
        36.000          31.600
 -27854925.415 7 -21705130.465 6  20148065.352    20148065.973    20148065.716
        43.600          41.800
   1419644.232 2   1106216.298 2  25509522.848    25509523.148    25509522.921
        15.100          13.900
 -10062279.255 4  -7840733.726 3  23715675.188    23715675.189    23715675.948
        25.600          23.800
  -7166875.145 2  -5584580.101 2  25012799.130    25012798.201    25012798.513
        12.600          15.100
 -26195312.453 7 -20411923.835 7  20667788.420    20667789.113    20667788.475
        45.200          42.600
    202645.935 2    157906.368 2  25073414.130    25073416.575    25073414.672
        15.100          16.100
 -15381275.568 6 -11985401.977 5  22268090.782    22268091.022    22268091.870
        36.500          32.700
 -28789656.953 7 -22433492.616 7  19936659.757    19936660.116    19936659.855
        45.600          43.800
  -3639360.016 2  -2835863.919 2  24939388.036    24939386.854    24939388.196
        12.600          16.100
  -5806229.324 3  -4524318.231 3  24237133.990    24237135.818    24237133.876
        22.100          21.100
 -23959038.241 7 -18669370.500 7  21147801.184    21147802.007    21147802.244
        42.400          42.300
 13 10  6  0 16 30.0000000  0 12G28G26G 6G15G21G 8G27G 7G 9G19G10G 5
 -16415917.325 6 -12791620.650 5  22114788.608    22114788.229    22114788.698
        36.700          30.800
 -27904929.237 7 -21744094.484 6  20138549.817    20138550.549    20138550.258
        43.600          41.900
   1461928.209 2   1139164.780 1  25517568.512    25517570.217    25517569.696
        13.900           9.000
 -10159884.206 4  -7916789.523 3  23697102.139    23697101.772    23697102.391
        25.300          23.800
  -7195845.492 2  -5607154.389 2  25007284.212    25007285.322    25007285.044
        17.000          15.100
 -26168550.506 7 -20391070.364 7  20672881.150    20672881.647    20672881.118
        45.100          42.700
    218211.617 2    170035.461 2  25076376.783    25076377.482    25076376.421
        16.100          13.900
 -15298143.283 6 -11920623.579 5  22283910.118    22283910.433    22283911.370
        36.400          31.800
 -28759038.841 7 -22409634.348 7  19942485.772    19942486.548    19942486.227
        45.600          43.800
  -3680015.480 3  -2867543.511 2  24931652.389    24931650.360    24931652.257
        19.300          16.100
  -5690403.419 4  -4434064.293 3  24259174.588    24259176.326    24259174.682
        24.200          21.600
 -23911492.161 7 -18632321.626 7  21156849.452    21156849.714    21156850.116
        42.800          42.400
 13 10  6  0 17  0.0000000  0 12G28G26G 6G15G21G 8G27G 7G 9G19G10G 5
 -16479140.254 6 -12840885.256 5  22102757.408    22102757.268    22102757.496
        36.400          31.300
 -27954478.042 7 -21782703.936 6  20129120.828    20129121.727    20129121.405
        43.700          41.900
   1504696.825 1   1172490.914    25525706.663    25525708.821    25525707.003
         6.500           3.000
 -10257369.552 4  -7992752.121 3  23678550.721    23678550.278    23678551.254
        24.900          22.100
  -7224338.776 2  -5629356.938 2  25001862.637    25001863.484    25001862.812
        15.100          16.100
 -26141345.670 7 -20369871.791 7  20678058.023    20678058.499    20678058.086
        45.100          42.700
    234335.149 2    182599.238 2  25079443.361    25079446.261    25079443.858
        17.800          17.800
 -15214765.297 6 -11855653.727 5  22299776.594    22299776.746    22299777.675
        36.500          32.800
 -28727884.034 7 -22385357.873 7  19948414.591    19948415.108    19948414.826
        45.600          43.800
  -3720160.504 2  -2898825.379 3  24924013.554    24924011.836    24924013.518
        16.100          19.900
  -5574493.040 3  -4343744.525 3  24281231.741    24281233.303    24281231.711
        22.600          19.900
 -23863409.821 7 -18594854.883 7  21165999.110    21165999.342    21165999.844
        42.700          42.200
 13 10  6  0 17 30.0000000  0 12G28G26G 6G15G21G 8G27G 7G 9G19G10G 5
 -16541930.421 6 -12889812.647 5  22090808.692    22090808.896    22090808.901
        36.200          31.800
 -28003570.419 7 -21820957.737 7  20119779.235    20119779.726    20119779.449
        43.900          42.000
   1547948.773 1   1206193.696 1  25533939.124    25533939.392    25533938.491
        11.000          11.000
 -10354733.725 4  -8068620.310 4  23660022.938    23660023.582    23660023.904
        26.800          25.600
  -7252353.681 2  -5651186.738 2  24996531.986    24996532.340    24996532.303
        13.900          12.600
 -26113699.165 7 -20348329.063 7  20683319.094    20683319.542    20683318.976
        45.100          42.500
    251015.936 2    195597.275 3  25082617.969    25082620.451    25082619.013
        17.800          19.300
 -15131143.439 6 -11790493.845 5  22315689.309    22315689.631    22315690.610
        36.100          32.400
 -28696193.910 7 -22360664.270 7  19954444.822    19954445.578    19954445.219
        45.600          43.700
  -3759792.874 2  -2929707.713 3  24916470.826    24916470.121    24916469.992
        15.100          18.600
  -5458500.251 3  -4253360.550 3  24303304.937    24303306.126    24303304.708
        22.100          19.900
 -23814792.718 7 -18556971.441 6  21175250.455    21175250.883    21175251.317
        42.600          41.900
 13 10  6  0 18  0.0000000  0 12G28G26G 6G15G21G 8G27G 7G 9G19G10G 5
 -16604285.670 6 -12938401.133 5  22078943.160    22078942.911    22078943.251
        36.600          32.000
 -28052205.119 7 -21858854.901 7  20110524.352    20110524.866    20110524.628
        43.600          42.200
   1591682.480 2   1240271.885 1  25542260.354    25542262.308    25542260.303
        12.600           6.500
 -10451975.316 4  -8144392.937 3  23641518.350    23641518.081    23641519.756
        27.100          23.400
  -7279889.996 2  -5672643.615 2  24991292.882    24991291.382    24991292.401
        12.600          12.600
 -26085612.114 7 -20326443.048 7  20688663.631    20688664.263    20688663.706
        45.000          42.500
    268253.581 2    209029.171 2  25085898.707    25085900.626    25085899.636
        17.000          16.100
 -15047279.576 6 -11725145.388 5  22331648.392    22331648.407    22331649.246
        36.200          32.400
 -28663969.536 7 -22335554.369 7  19960577.085    19960577.763    19960577.287
        45.500          43.600
  -3798911.397 2  -2960189.670 3  24909028.176    24909024.689    24909027.703
        16.100          19.300
  -5342427.390 3  -4162914.166 3  24325393.060    24325394.384    24325392.538
        20.500          20.500
 -23765642.162 7 -18518672.320 7  21184603.871    21184604.042    21184604.561
        42.700          42.000
 13 10  6  0 18 30.0000000  0 12G28G26G 6G15G21G 8G27G 7G 9G19G10G 5
 -16666203.773 6 -12986648.995 5  22067160.376    22067160.270    22067160.348
        36.200          31.800
 -28100380.573 7 -21896394.217 7  20101356.745    20101357.359    20101357.148
        43.800          42.000
   1635896.358 2   1274724.245 1  25550674.288    25550675.227    25550674.760
        12.600          11.000
 -10549093.286 4  -8220069.273 4  23623037.496    23623038.762    23623037.939
        25.300          24.900
  -7306946.655 2  -5693726.715 2  24986144.832    24986142.869    24986143.937
        17.000          12.600
 -26057085.599 7 -20304214.598 7  20694092.337    20694092.585    20694092.249
        45.100          42.300
    286047.539 2    222894.573 3  25089285.232    25089286.905    25089284.953
        16.100          18.600
 -14963175.772 6 -11659609.968 5  22347653.036    22347652.850    22347653.813
        36.100          32.600
 -28631212.271 7 -22310029.222 7  19966810.428    19966811.229    19966810.802
        45.500          43.800
  -3837513.531 2  -2990269.277 2  24901682.294    24901680.175    24901681.967
        16.100          16.100
  -5226276.802 3  -4072407.231 3  24347495.917    24347497.289    24347495.338
        23.000          20.500
 -23715959.598 7 -18479958.646 6  21194057.607    21194058.266    21194058.638
        42.400          41.900
 13 10  6  0 19  0.0000000  0 12G28G26G 6G15G21G 8G27G 7G 9G19G10G 5
 -16727682.792 6 -13034554.702 5  22055461.552    22055461.402    22055461.480
        36.700          31.600
 -28148095.587 7 -21933574.745 7  20092276.899    20092277.496    20092277.221
        44.000          42.300
   1680588.854 1   1309549.515 1  25559179.092    25559179.991    25559178.787
         9.000           6.500
 -10646085.944 4  -8295647.965 3  23604580.011    23604579.952    23604580.858
        26.800          23.800
  -7333522.917 2  -5714435.473 2  24981086.362    24981085.724    24981086.573
        12.600          13.900
 -26028121.064 7 -20281644.829 7  20699603.866    20699604.453    20699603.892
        45.200          42.600
    304397.205 2    237192.999 2  25092775.628    25092778.257    25092776.642
        15.100          16.100
 -14878833.619 6 -11593888.809 5  22363702.538    22363702.471    22363703.717
        36.300          32.400
 -28597923.634 7 -22284090.031 7  19973145.168    19973145.824    19973145.462
        45.500          43.800
  -3875597.403 2  -3019944.986 3  24894434.518    24894432.374    24894433.441
        17.800          18.600
  -5110050.532 3  -3981841.306 3  24369612.866    24369613.506    24369612.336
        21.100          18.600
 -23665746.261 7 -18440831.391 6  21203613.181    21203613.644    21203614.077
        42.700          41.900
 13 10  6  0 19 30.0000000  0 12G28G26G 6G15G21G 8G27G 7G 9G19G10G 5
 -16788721.098 6 -13082117.003 5  22043846.483    22043846.094    22043846.265
        36.600          32.300
 -28195348.738 7 -21970395.380 7  20083284.885    20083285.535    20083285.307
        44.000          42.200
   1725758.363 2   1344746.487 1  25567773.671    25567774.142    25567773.326
        13.900           9.000
 -10742952.053 4  -8371128.027 4  23586147.589    23586148.139    23586148.196
        26.800          24.900
  -7359618.292 2  -5734769.521 2  24976120.520    24976120.206    24976120.090
        16.100          15.100
 -25998719.408 7 -20258734.447 7  20705198.682    20705199.501    20705198.849
        45.000          42.300
    323302.030 2    251924.035 3  25096373.947    25096376.221    25096373.942
        17.000          18.600
 -14794255.020 5 -11527983.421 5  22379797.976    22379797.594    22379798.204
        35.700          32.400
 -28564105.231 7 -22257738.030 7  19979580.687    19979581.189    19979580.941
        45.500          43.600
  -3913161.163 3  -3049215.441 3  24887286.987    24887284.843    24887285.877
        18.600          18.600
  -4993750.862 3  -3891218.199 2  24391742.934    24391744.756    24391742.743
        19.900          15.100
 -23615003.422 7 -18401291.529 6  21213269.251    21213269.595    21213270.149
        42.600          41.400
 13 10  6  0 20  0.0000000  0 12G28G26G 6G15G21G 8G27G 7G 9G19G10G 5
 -16849316.713 6 -13129334.349 5  22032315.089    22032315.022    22032315.231
        36.600          32.300
 -28242138.751 7 -22006855.126 7  20074381.003    20074381.791    20074381.396
        44.000          42.300
   1771403.363 2                  25576459.868                    25576460.507
        13.900
 -10839690.323 4  -8446508.478 3  23567738.921    23567738.634    23567739.717
        27.600          23.000
  -7385232.101 2  -5754728.340 2  24971245.814    24971246.552    24971245.736
        13.900          16.100
 -25968881.848 7 -20235484.402 7  20710876.760    20710877.402    20710876.829
        45.100          42.300
    342761.487 2    267087.251 3  25100076.693    25100079.512    25100077.005
        13.900          20.500
 -14709441.835 5 -11461895.238 5  22395937.281    22395936.801    22395937.667
        35.700          31.800
 -28529758.467 7 -22230974.317 7  19986116.621    19986117.208    19986116.912
        45.500          43.600
  -3950203.133 3  -3078079.276 3  24880237.655    24880235.681    24880236.473
        18.600          19.300
  -4877379.779 3  -3800539.439 3  24413887.759    24413889.590    24413887.740
        18.600          19.300
 -23563732.799 7 -18361340.406 6  21223025.895    21223026.174    21223026.634
        42.600          41.800
 13 10  6  0 20 30.0000000  0 12G28G26G 6G15G21G 8G27G 7G 9G19G10G 5
 -16909467.839 6 -13176205.347 5  22020869.227    22020868.981    22020869.113
        37.200          32.600
 -28288464.230 7 -22042952.905 7  20065565.461    20065566.289    20065565.955
        44.200          42.400
   1817522.206     1416250.668 1  25585235.888    25585237.747    25585237.920
         3.000           9.000
 -10936299.039 4  -8521787.984 4  23549354.578    23549355.243    23549355.351
        26.800          24.600
