     2.10           OBSERVATION DATA    G (GPS)             RINEX VERSION / TYPE
teqc  2005Sep1                          20131010 00:15:19UTCPGM / RUN BY / DATE
OBSERVATION MODE: IGS-Net                                   COMMENT
WSRT Westerbork_Synth (WSRT)                                MARKER NAME
13506M005                                                   MARKER NUMBER
229                 AOA SNR-12 ACT       3.3.32.2N          REC # / TYPE / VERS
273                 AOAD/M_T        DUTD                    ANT # / TYPE
        0.3888        0.0000        0.0000                  ANTENNA: DELTA H/E/N
  3828735.6941  443305.1350  5064884.8236                   APPROX POSITION XYZ
  6.60450833  52.91461271  82.2809  LonLatAlt  RSW          COMMENT
Linux 2.4.20-8|Pentium IV|gcc|Linux|486/DX+                 COMMENT
HANS VAN DER MAREL  DUT/DEOS                                OBSERVER / AGENCY
     1     1                                                WAVELENGTH FACT L1/2
     7    L1    L2    C1    P2    P1    S1    S2            # / TYPES OF OBSERV
RUN BY HANS VAN DER MAREL                                   COMMENT
H.VANDERMAREL@TUDELFT.NL                                    COMMENT
    P1 =    P1  TurboRogue; =    Y1  Benchmark              COMMENT
    L1 = L1(CA)                                             COMMENT
    P2 =    P2  TurboRogue; =    Y2  Benchmark              COMMENT
    L2 = L2(P2) TurboRogue; = L2(Y2) Benchmark              COMMENT
 SNR is mapped to RINEX snr flag value [0-9]                COMMENT
  L1 & L2: min(max(int(snr_dBHz/6), 0), 9)                  COMMENT
  2013    10     9     0     0    0.0000000     GPS         TIME OF FIRST OBS
  2013    10     9    23    59   30.0000000     GPS         TIME OF LAST OBS
                                                            END OF HEADER
 13 10  9  0  0  0.0000000  0 12G 5G13G26G21G28G 7G15G 9G19G10G 6G 8
 -24303294.458 7 -18937618.609 7  21082218.363    21082218.604    21082218.964
        42.800          43.100
   1666597.460     1298662.715 1  25585755.345    25585754.216    25585755.711
         3.000           9.000
 -27337144.271 7 -21301660.736 6  20221523.551    20221524.558    20221523.838
        43.100          41.500
  -4719651.087 2  -3677643.220 2  25053921.446    25053921.840    25053921.344
        12.600          16.100
 -15808094.231 5 -12317991.265 5  22219700.108    22219700.217    22219700.033
        35.300          31.000
 -16553109.269 6 -12898518.272 5  22152225.821    22152225.978    22152226.463
        36.600          33.200
  -9373511.876 4  -7304033.094 4  23841018.821    23841020.369    23841019.867
        24.600          24.200
 -28821279.727 7 -22458132.274 7  19894608.170    19894609.013    19894608.435
        45.200          44.300
  -3316862.542 2  -2584578.066 2  25000547.783    25000549.760    25000547.842
        17.000          12.600
  -6776565.316 3  -5280421.848 3  24074160.156    24074162.403    24074159.734
        23.400          19.900
   1096329.774 2    854283.299 1  25450701.313    25450704.343    25450700.574
        15.100           9.000
 -26552700.252 7 -20690407.480 7  20632309.938    20632310.921    20632309.904
        44.700          43.000
 13 10  9  0  0 30.0000000  0 12G 5G13G26G21G28G 7G15G 9G19G10G 6G 8
 -24259927.722 7 -18903826.359 7  21090470.711    21090471.049    21090471.213
        42.600          43.100
   1772524.795 1   1381204.509 1  25605911.741    25605913.190    25605913.287
         9.000          11.000
 -27390541.612 7 -21343269.059 6  20211362.651    20211363.400    20211362.667
        43.100          41.600
  -4752019.291 1  -3702865.027 2  25047760.725    25047762.243    25047761.213
        11.000          12.600
 -15874891.884 5 -12370041.362 5  22206988.927    22206989.171    22206988.997
        35.500          31.000
 -16471862.216 5 -12835208.910 5  22167686.484    22167686.887    22167686.955
        35.800          33.800
  -9471873.837 4  -7380678.722 3  23822301.788    23822301.962    23822302.297
        24.900          23.400
 -28794886.015 7 -22437565.749 7  19899630.899    19899631.578    19899630.986
        45.300          44.100
  -3361387.654 2  -2619272.867 2  24992076.356    24992076.685    24992075.040
        15.100          17.800
  -6661433.887 3  -5190709.074 3  24096068.898    24096071.084    24096068.483
        23.400          20.500
   1134979.791 2    884400.278 1  25458055.407    25458058.548    25458056.248
        17.000           6.500
 -26529326.195 7 -20672193.934 7  20636758.045    20636758.748    20636757.906
        44.500          42.800
 13 10  9  0  1  0.0000000  0 12G 5G13G26G21G28G 7G15G 9G19G10G 6G 8
 -24216015.162 7 -18869608.798 7  21098827.021    21098827.335    21098827.595
        42.500          43.000
   1878481.429 1   1463768.082 2  25626074.013    25626075.520    25626073.931
         6.500          12.600
 -27443494.524 7 -21384531.063 6  20201285.729    20201286.705    20201286.100
        43.200          41.800
  -4783916.602 2  -3727719.984 2  25041691.516    25041692.094    25041691.353
        15.100          17.800
 -15941273.057 5 -12421766.935 5  22194356.895    22194357.309    22194356.862
        35.500          31.100
 -16390355.784 6 -12771697.426 5  22183196.570    22183197.036    22183197.434
        36.300          33.600
  -9570125.331 3  -7457238.352 4  23803604.266    23803605.661    23803605.782
        23.800          24.200
 -28767944.983 7 -22416572.729 7  19904757.552    19904758.223    19904757.673
        45.200          44.200
  -3405417.784 2  -2653581.800 3  24983696.214    24983698.764    24983696.031
        16.100          20.500
  -6546201.464 3  -5100917.590 3  24117997.389    24117998.789    24117996.880
        21.100          19.300
   1174125.121 2    914903.237 1  25465504.923    25465506.875    25465505.585
        12.600          11.000
 -26505501.286 7 -20653629.075 7  20641291.589    20641292.387    20641291.595
        44.600          42.800
 13 10  9  0  1 30.0000000  0 11G 5G26G21G28G 7G15G 9G19G10G 6G 8
 -24171557.753 7 -18834966.674 7  21107286.876    21107287.309    21107287.566
        42.700          42.800
 -27496001.622 7 -21425445.683 6  20191293.683    20191294.838    20191294.259
        43.300          41.600
  -4815342.717 2  -3752208.007 1  25035710.870    25035711.921    25035710.921
        17.000           9.000
 -16007235.956 5 -12473166.569 5  22181804.348    22181805.074    22181804.259
        35.100          31.500
 -16308591.868 6 -12707985.276 5  22198755.663    22198756.081    22198756.402
        36.100          33.000
  -9668264.984 3  -7533710.802 3  23784929.842    23784930.112    23784930.091
        22.600          22.600
 -28740458.094 7 -22395154.377 7  19909987.913    19909988.854    19909988.216
        45.000          44.200
  -3448952.138 3  -2687504.918 3  24975412.849    24975414.388    24975412.925
        19.900          18.600
  -6430870.071 3  -5011048.973 3  24139944.212    24139945.302    24139943.327
        21.600          21.600
   1213763.744 2    945790.268 2  25473047.607    25473050.415    25473047.107
        12.600          12.600
 -26481226.329 7 -20634713.528 7  20645911.314    20645911.782    20645911.142
        44.700          42.800
 13 10  9  0  2  0.0000000  0 11G 5G26G21G28G 7G15G 9G19G10G 6G 8
 -24126557.191 7 -18799901.322 7  21115850.381    21115850.796    21115850.939
        42.600          42.900
 -27548061.556 7 -21466011.862 6  20181387.240    20181388.079    20181387.607
        43.200          41.600
  -4846296.802 2  -3776328.620 2  25029820.952    25029821.692    25029821.361
        15.100          12.600
 -16072778.546 5 -12524238.699 5  22169331.937    22169332.304    22169332.211
        35.600          30.400
 -16226572.237 6 -12644073.885 5  22214363.156    22214363.873    22214364.129
        36.000          33.100
  -9766291.355 4  -7610095.062 3  23766276.355    23766276.770    23766276.836
        24.600          23.800
 -28712426.392 7 -22373311.496 7  19915321.980    19915323.171    19915322.450
        45.100          44.100
  -3491987.599 3  -2721039.401 2  24967224.167    24967224.858    24967223.737
        22.100          17.000
  -6315442.231 3  -4921105.219 3  24161908.876    24161911.503    24161908.512
        22.600          21.600
   1253894.810 2    977060.945 2  25480684.467    25480687.744    25480685.793
        15.100          13.900
 -26456502.517 7 -20615448.224 7  20650615.851    20650616.696    20650615.827
        44.600          42.700
 13 10  9  0  2 30.0000000  0 11G 5G26G21G28G 7G15G 9G19G10G 6G 8
 -24081013.989 7 -18764413.124 7  21124516.705    21124517.494    21124517.364
        42.200          42.800
 -27599672.847 7 -21506228.444 6  20171565.758    20171566.841    20171566.268
        43.200          41.900
  -4876776.857 2  -3800079.657 2  25024021.418    25024023.611    25024021.668
        13.900          12.600
 -16137898.539 5 -12574981.538 5  22156940.526    22156940.418    22156940.429
        35.600          31.000
 -16144298.924 5 -12579964.824 5  22230019.397    22230020.106    22230020.206
        35.800          33.100
  -9864203.036 4  -7686389.853 3  23747643.322    23747644.457    23747644.935
        25.300          22.600
 -28683851.215 7 -22351045.134 7  19920760.026    19920760.761    19920760.140
        45.200          44.100
  -3534521.793 2  -2754183.221 2  24959128.294    24959130.929    24959129.102
        16.100          13.900
  -6199919.957 3  -4831087.888 3  24183892.748    24183894.328    24183892.106
        21.100          22.100
   1294517.286 2   1008714.688 1  25488415.701    25488417.642    25488416.335
        17.000           9.000
 -26431330.813 7 -20595833.911 7  20655405.891    20655406.807    20655405.845
        44.800          42.800
 13 10  9  0  3  0.0000000  0 12G 5G27G26G21G28G 7G15G 9G19G10G 6G 8
 -24034929.948 7 -18728503.511 7  21133286.313    21133286.843    21133286.974
        42.700          42.700
     18855.586 2     14691.972 3  25069806.752    25069810.356    25069807.007
        17.800          19.300
 -27650834.105 7 -21546094.348 6  20161830.536    20161831.234    20161830.659
        43.300          41.900
  -4906781.274 2  -3823459.611 2  25018312.461    25018313.745    25018311.932
        12.600          13.900
 -16202594.012 5 -12625393.571 5  22144629.029    22144629.388    22144629.053
        35.400          31.600
 -16061773.737 5 -12515659.510 5  22245723.196    22245724.314    22245724.268
        35.900          33.200
  -9961998.520 4  -7762594.053 4  23729033.671    23729034.798    23729034.564
        24.600          24.200
 -28654734.114 7 -22328356.498 7  19926300.700    19926301.536    19926300.957
        45.000          44.000
  -3576552.364 2  -2786934.426 2  24951132.225    24951133.021    24951131.479
        17.800          17.000
  -6084305.739 3  -4740998.891 3  24205892.872    24205894.856    24205892.675
        21.100          22.100
   1335629.340 1   1040749.815 1  25496239.021    25496240.716    25496239.283
         9.000          11.000
 -26405712.486 7 -20575871.577 7  20660280.933    20660281.707    20660280.844
        44.600          42.700
 13 10  9  0  3 30.0000000  0 12G 5G27G26G21G28G 7G15G 9G19G10G 6G 8
 -23988306.168 7 -18692173.300 7  21142158.229    21142159.071    21142159.159
        42.500          42.500
     33650.180 2     26220.319 2  25072621.321    25072625.281    25072622.015
        17.000          17.000
 -27701543.929 7 -21585608.501 6  20152180.126    20152181.468    20152180.836
        43.400          41.900
  -4936310.177 2  -3846469.136 2  25012692.542    25012694.302    25012692.981
        15.100          15.100
 -16266863.165 5 -12675473.405 5  22132398.752    22132399.410    22132399.049
        35.400          32.000
 -15978998.383 5 -12451159.258 5  22261475.175    22261475.778    22261476.002
        35.300          32.700
 -10059676.769 4  -7838706.987 3  23710446.276    23710446.958    23710447.184
        25.300          21.600
 -28625076.238 7 -22305246.445 7  19931944.481    19931945.326    19931944.690
        45.300          44.000
  -3618077.374 3  -2819291.611 2  24943230.714    24943231.594    24943229.159
        18.600          16.100
  -5968601.743 3  -4650839.960 3  24227910.369    24227912.859    24227910.089
        21.600          22.100
   1377230.356 2   1073166.325 1  25504156.092    25504157.685    25504155.172
        12.600           9.000
 -26379648.208 7 -20555561.743 7  20665240.795    20665241.569    20665240.743
        44.700          42.600
 13 10  9  0  4  0.0000000  0 12G 5G27G26G21G28G 7G15G 9G19G10G 6G 8
 -23941143.907 7 -18655423.510 7  21151132.892    21151133.865    21151133.760
        42.100          42.600
     49003.187 2     38183.832 2  25075543.144    25075547.216    25075542.931
        16.100          16.100
 -27751800.919 7 -21624769.801 7  20142617.001    20142617.902    20142617.232
        43.600          42.100
  -4965363.307 1  -3869108.014 2  25007162.405    25007164.805    25007163.842
         9.000          13.900
 -16330703.891 6 -12725219.405 5  22120250.512    22120250.587    22120250.653
        36.400          31.600
 -15895975.033 5 -12386465.738 5  22277273.846    22277274.418    22277274.839
        35.700          33.100
 -10157236.524 4  -7914727.579 4  23691881.067    23691882.051    23691882.297
        25.300          24.200
 -28594879.109 7 -22281716.211 7  19937690.890    19937691.575    19937691.040
        45.200          44.000
  -3659094.889 2  -2851253.177 2  24935421.998    24935424.789    24935422.765
        15.100          15.100
  -5852809.890 3  -4560612.567 3  24249944.730    24249947.396    24249944.735
        21.600          19.900
   1419317.950 2   1105961.750 2  25512163.652    25512167.385    25512164.151
        15.100          12.600
 -26353139.623 7 -20534905.717 7  20670285.143    20670286.022    20670285.152
        44.700          42.700
 13 10  9  0  4 30.0000000  0 12G 5G27G26G21G28G 7G15G 9G19G10G 6G 8
 -23893444.724 7 -18618255.335 7  21160209.856    21160210.655    21160210.763
        42.300          42.700
     64914.651 2     50582.717 2  25078570.817    25078574.132    25078571.518
        17.000          16.100
 -27801603.716 7 -21663577.168 7  20133139.217    20133140.758    20133140.010
        43.700          42.000
  -4993939.614 1  -3891375.557 2  25001726.725    25001727.622    25001726.481
        11.000          15.100
 -16394114.184 6 -12774630.007 5  22108183.925    22108183.962    22108184.094
        36.100          31.300
 -15812705.210 5 -12321580.181 5  22293119.422    22293120.114    22293120.471
        35.700          32.600
 -10254676.308 4  -7990654.687 3  23673338.774    23673339.912    23673340.267
        25.600          23.000
 -28564144.253 7 -22257766.969 7  19943539.292    19943540.185    19943539.662
        45.100          43.700
  -3699603.564 2  -2882818.389 2  24927715.227    24927717.268    24927715.572
        17.800          17.000
  -5736932.462 3  -4470318.486 3  24271995.722    24271997.799    24271995.978
        21.100          21.100
   1461890.751 1   1139135.245 1  25520263.355    25520268.368    25520266.273
         9.000           6.500
 -26326187.696 7 -20513904.221 7  20675413.853    20675414.788    20675413.928
        44.700          42.600
 13 10  9  0  5  0.0000000  0 12G 5G27G26G21G28G 7G15G 9G19G10G 6G 8
 -23845209.538 7 -18580669.495 7  21169388.892    21169389.416    21169389.579
        42.200          42.300
     81382.947 2     63415.211 2  25081703.472    25081707.538    25081704.122
        16.100          16.100
 -27850950.898 7 -21702029.531 6  20123749.380    20123750.201    20123749.618
        43.700          41.900
  -5022037.113 2  -3913269.573 2  24996380.050    24996381.041    24996380.006
        15.100          13.900
 -16457092.027 5 -12823703.629 5  22096199.464    22096199.709    22096199.610
        35.400          32.100
 -15729190.707 5 -12256503.946 5  22309011.997    22309012.418    22309013.040
        35.900          32.300
 -10351994.574 4  -8066487.127 4  23654819.655    23654821.343    23654820.709
        25.600          25.300
 -28532872.942 7 -22233399.718 7  19949490.028    19949490.995    19949490.313
        45.200          43.700
  -3739601.543 3  -2913985.770 3  24920104.634    24920106.591    24920103.561
        19.900          18.600
  -5620971.801 3  -4379959.554 3  24294062.755    24294064.344    24294062.547
        21.100          20.500
   1504946.501 1   1172684.609 1  25528457.918    25528463.143    25528457.963
         9.000           6.500
 -26298793.724 7 -20492558.275 7  20680627.010    20680627.634    20680626.830
        44.700          42.500
 13 10  9  0  5 30.0000000  0 12G 5G27G26G21G28G 7G15G 9G19G10G 6G 8
 -23796440.033 7 -18542667.302 7  21178669.310    21178670.092    21178670.076
        42.300          42.200
     98408.294 2     76681.706 3  25084944.030    25084947.862    25084944.682
        17.000          19.300
 -27899841.199 7 -21740125.872 7  20114445.684    20114446.725    20114446.154
        43.900          42.200
  -5049656.379 2  -3934790.988 1  24991124.084    24991124.331    24991124.185
        12.600           6.500
 -16519635.672 6 -12872438.912 5  22084297.881    22084298.134    22084298.059
        36.000          31.800
 -15645433.657 5 -12191238.731 5  22324950.355    22324951.033    22324951.303
        35.800          32.700
 -10449189.806 4  -8142223.659 3  23636324.513    23636324.823    23636325.798
        26.500          22.600
 -28501066.546 7 -22208615.520 7  19955542.561    19955543.648    19955542.908
        45.200          43.700
  -3779086.414 3  -2944753.283 2  24912590.026    24912592.083    24912589.064
        18.600          12.600
  -5504930.283 3  -4289537.600 3  24316144.760    24316146.042    24316144.404
        20.500          18.600
   1548485.470 9   1206610.851 1  25536742.956    25536748.785    25536743.858
        -3.000           6.500
 -26270958.613 7 -20470868.575 7  20685923.622    20685924.522    20685923.641
        44.700          42.400
 13 10  9  0  6  0.0000000  0 12G 5G27G26G21G28G 7G15G 9G19G10G 6G 8
 -23747137.214 7 -18504249.536 7  21188051.441    21188052.027    21188052.222
        42.300          42.200
    115989.740 2     90381.347 2  25088289.759    25088293.750    25088290.193
        17.800          17.000
 -27948273.144 7 -21777865.031 7  20105229.873    20105230.406    20105229.965
        43.600          42.300
  -5076796.452 1  -3955939.046 1  24985960.336    24985960.198    24985959.715
        11.000          11.000
 -16581743.245 6 -12920834.412 5  22072479.311    22072479.381    22072479.372
        36.100          32.300
 -15561435.722 5 -12125785.808 5  22340935.121    22340935.353    22340935.678
        35.900          32.600
 -10546260.813 4  -8217863.369 4  23617852.008    23617854.020    23617852.785
        26.800          25.600
 -28468726.565 7 -22183415.546 7  19961696.661    19961697.756    19961696.958
        45.100          43.600
  -3818055.407 3  -2975118.500 2  24905175.866    24905176.178    24905174.933
        19.300          17.800
  -5388809.934 3  -4199054.218 3  24338241.543    24338243.966    24338241.491
        19.300          21.100
   1592505.981 2   1240912.764 9  25545121.121    25545124.710    25545121.962
        12.600          -3.000
 -26242683.528 7 -20448836.045 7  20691304.264    20691305.029    20691304.240
        44.700          42.400
 13 10  9  0  6 30.0000000  0 12G 5G27G26G21G28G 7G15G 9G19G10G 6G 8
 -23697302.580 7 -18465417.373 7  21197534.489    21197535.280    21197535.334
        42.200          42.200
    134126.945 3    104513.953 2  25091741.887    25091744.902    25091742.219
        18.600          16.100
 -27996245.443 7 -21815246.043 7  20096100.569    20096101.575    20096101.028
        43.600          42.200
  -5103456.361 2  -3976712.980 2  24980885.926    24980886.760    24980886.559
        16.100          15.100
 -16643412.601 5 -12968888.431 5  22060743.782    22060744.234    22060743.766
        35.800          32.300
 -15477198.633 5 -12060146.510 5  22356964.709    22356964.986    22356965.450
        35.400          32.400
 -10643206.233 4  -8293405.241 4  23599403.931    23599404.727    23599404.558
        24.900          24.200
 -28435854.411 7 -22157800.889 7  19967951.877    19967953.130    19967952.366
        45.000          43.800
  -3856507.675 3  -3005081.155 3  24897857.644    24897859.489    24897856.916
        18.600          18.600
  -5272613.072 3  -4108511.244 2  24360353.336    24360354.841    24360352.767
        21.600          17.000
   1637005.215 1   1275587.381    25553588.953    25553592.157    25553590.222
         9.000           3.000
 -26213969.749 7 -20426461.664 7  20696768.345    20696769.159    20696768.307
        44.800          42.400
 13 10  9  0  7  0.0000000  0 12G 5G27G26G21G28G 7G15G 9G19G10G 6G 8
 -23646937.836 7 -18426172.132 7  21207118.642    21207119.413    21207119.522
        42.100          42.000
    152820.541 2    119080.659 2  25095298.335    25095302.658    25095298.235
        15.100          17.000
 -28043756.691 7 -21852267.790 7  20087060.072    20087060.490    20087060.090
        43.900          42.300
  -5129635.334 2  -3997112.126 2  24975904.553    24975905.001    24975904.800
        17.800          13.900
 -16704641.917 6 -13016599.561 5  22049092.689    22049092.494    22049092.482
        36.000          32.400
 -15392724.274 5 -11994322.343 5  22373039.511    22373040.260    22373040.518
        35.100          32.700
 -10740024.883 4  -8368848.326 4  23580979.412    23580981.490    23580980.777
        26.200          24.900
 -28402451.443 7 -22131772.613 7  19974308.633    19974309.439    19974308.772
        45.100          43.600
  -3894441.232 2  -3034639.578 2  24890639.257    24890639.649    24890638.154
        17.000          16.100
  -5156341.912 3  -4017910.342 2  24382478.045    24382480.127    24382477.806
        18.600          17.000
   1681983.907 2   1310636.444 1  25562147.005    25562150.350    25562147.927
        13.900           9.000
 -26184818.278 7 -20403746.238 7  20702315.595    20702316.529    20702315.596
        44.500          42.300
 13 10  9  0  7 30.0000000  0 12G 5G27G26G21G28G 7G15G 9G19G10G 6G 8
 -23596043.932 7 -18386514.563 7  21216803.652    21216804.125    21216804.395
        42.100          42.000
    172068.021 2    134078.489 3  25098960.689    25098965.677    25098961.429
        16.100          18.600
 -28090805.606 7 -21888929.286 7  20078106.525    20078107.444    20078106.895
        44.000          42.400
  -5155332.805 2  -4017136.074 2  24971013.556    24971016.043    24971013.660
        12.600          13.900
 -16765429.462 6 -13063966.461 5  22037525.075    22037524.959    22037525.132
        36.500          32.400
 -15308014.872 5 -11928315.032 5  22389159.617    22389159.786    22389159.870
        34.900          32.000
 -10836715.159 4  -8444191.361 3  23562580.458    23562581.226    23562581.525
        27.400          23.400
 -28368519.005 7 -22105331.756 7  19980765.693    19980766.606    19980765.993
        45.000          43.400
  -3931854.648 3  -3063792.976 2  24883520.210    24883521.004    24883518.922
        18.600          16.100
  -5039998.650 3  -3927253.271 3  24404618.030    24404620.196    24404617.508
        19.900          19.300
   1727437.382 1   1346054.737 1  25570795.613    25570800.690    25570797.555
        11.000           6.500
 -26155230.412 7 -20380690.753 7  20707945.676    20707946.907    20707945.927
        44.600          42.400
 13 10  9  0  8  0.0000000  0 12G 5G27G26G21G28G 7G15G 9G19G10G 6G 8
 -23544622.488 7 -18346445.924 7  21226588.826    21226589.510    21226589.516
        42.200          42.200
    191870.105 2    149508.600 3  25102728.428    25102733.295    25102729.634
        12.600          18.600
 -28137390.825 7 -21925229.464 7  20069241.773    20069242.601    20069242.016
        44.100          42.500
  -5180547.714 2  -4036784.075 2  24966215.664    24966217.030    24966215.799
        16.100          16.100
 -16825773.375 6 -13110987.672 5  22026042.079    22026042.176    22026042.022
        36.400          32.100
 -15223071.604 5 -11862125.491 5  22405323.567    22405323.998    22405324.186
        35.200          32.100
 -10933275.914 4  -8519433.475 4  23544205.547    23544206.310    23544206.371
        26.200          24.600
 -28334058.779 7 -22078479.628 7  19987323.272    19987324.179    19987323.530
        45.000          43.300
  -3968744.768 2  -3092538.265 2  24876499.012    24876500.019    24876497.856
        17.000          15.100
  -4923585.396 3  -3836541.674 3  24426771.160    24426772.896    24426770.588
        20.500          19.300
   1773365.490 1   1381842.939 9  25579536.142    25579539.545    25579535.346
        11.000          -3.000
 -26125207.365 7 -20357296.178 7  20713659.242    20713660.086    20713659.284
        44.700          42.200
 13 10  9  0  8 30.0000000  0 12G 5G27G26G21G28G 7G15G 9G19G10G 6G 8
 -23492675.343 7 -18305967.649 6  21236473.941    21236474.688    21236474.766
        42.000          41.900
    212225.181 2    165369.425 2  25106602.770    25106606.887    25106603.306
        15.100          16.100
 -28183511.023 7 -21961167.282 7  20060465.057    20060466.166    20060465.655
        44.000          42.500
  -5205279.952 2  -4056056.114 2  24961509.060    24961510.901    24961509.800
        17.800          12.600
 -16885671.535 6 -13157661.542 5  22014643.277    22014643.857    22014643.564
        36.400          32.700
 -15137896.516 5 -11795755.313 5  22421532.160    22421532.267    22421532.472
        34.900          31.500
 -11029705.286 4  -8594573.270 4  23525856.140    23525856.901    23525856.832
        27.100          24.900
 -28299072.242 7 -22051217.404 7  19993981.050    19993981.798    19993981.289
        45.000          43.300
  -4005111.289 2  -3120875.860 2  24869578.479    24869580.669    24869578.563
        17.000          17.000
  -4807104.417 3  -3745777.282 3  24448936.155    24448938.758    24448935.979
        19.900          19.300
   1819767.498 9   1418000.771 1  25588366.688    25588368.310    25588367.944
        -3.000           9.000
 -26094750.378 7 -20333563.467 7  20719454.788    20719455.867    20719454.984
        44.400          42.300
 13 10  9  0  9  0.0000000  0 12G 5G27G26G21G28G 7G15G 9G19G10G 6G 8
 -23440203.523 7 -18265080.539 6  21246459.103    21246459.727    21246459.869
        42.100          41.900
    233133.245 2    181661.115 2  25110581.691    25110585.196    25110581.276
        17.000          15.100
 -28229164.852 7 -21996741.686 7  20051777.909    20051778.471    20051778.023
        44.100          42.800
  -5229528.802 1  -4074951.316 2  24956894.651    24956896.462    24956894.849
         9.000          12.600
 -16945122.481 5 -13203986.935 5  22003330.591    22003330.575    22003330.467
        35.900          32.700
 -15052491.530 5 -11729205.980 5  22437783.970    22437784.234    22437784.445
        34.900          32.100
 -11126002.223 4  -8669609.800 4  23507531.788    23507532.002    23507532.517
        28.100          25.300
 -28263560.702 7 -22023546.084 7  20000738.618    20000739.444    20000738.896
        44.900          43.300
  -4040951.433 2  -3148803.212 2  24862758.341    24862759.943    24862759.146
        17.000          17.000
  -4690557.880 3  -3654961.832 3  24471113.682    24471116.754    24471113.676
        19.900          21.100
   1866640.147 2   1454524.960    25597285.937    25597289.054    25597287.808
        15.100           3.000
 -26063860.536 7 -20309493.466 7  20725333.249    20725334.037    20725333.147
        44.600          42.300
 13 10  9  0  9 30.0000000  0 12G 5G27G26G21G28G 7G15G 9G19G10G 6G 8
 -23387208.579 7 -18223785.789 6  21256543.625    21256544.454    21256544.495
        42.300          41.800
    254594.607 2    198384.539 2  25114664.987    25114670.052    25114666.084
        15.100          17.000
 -28274350.982 7 -22031951.658 7  20043178.542    20043179.846    20043179.290
        44.000          42.700
  -5253292.916 2  -4093468.685 2  24952372.531    24952373.528    24952372.364
        15.100          12.600
 -17004124.257 6 -13249962.329 5  21992103.007    21992103.117    21992102.861
        36.500          33.000
 -14966858.357 5 -11662478.849 5  22454079.098    22454079.749    22454079.934
        34.900          32.000
 -11222165.267 4  -8744542.025 4  23489231.427    23489233.245    23489232.713
        26.200          25.900
 -28227525.636 7 -21995466.821 7  20007595.844    20007596.699    20007596.115
        44.900          43.300
  -4076263.713 3  -3176319.352 3  24856039.540    24856041.708    24856038.424
        19.900          20.500
  -4573948.132 3  -3564097.121 3  24493303.827    24493306.989    24493304.334
        19.900          21.100
   1913981.568 1   1491414.024 1  25606296.360    25606299.383    25606295.844
         9.000           9.000
 -26032538.964 7 -20285087.051 7  20731293.467    20731294.372    20731293.521
        44.600          42.300
 13 10  9  0 10  0.0000000  0 12G 5G27G26G21G28G 7G15G 9G19G10G 6G 8
 -23333691.999 7 -18182084.577 6  21266727.384    21266728.284    21266728.219
        42.000          41.800
    276606.426 2    215536.383 3  25118854.411    25118859.272    25118855.191
        17.800          18.600
 -28319068.143 7 -22066796.192 7  20034669.496    20034670.486    20034669.937
        44.100          42.900
  -5276572.479 2  -4111608.643 2  24947942.944    24947944.030    24947943.368
        13.900          17.000
 -17062674.816 6 -13295586.121 5  21980961.222    21980961.405    21980961.173
        36.900          33.100
 -14880998.715 5 -11595575.229 5  22470417.806    22470418.377    22470418.569
        34.600          31.600
 -11318192.933 4  -8819368.797 3  23470958.286    23470958.794    23470959.295
        27.100          23.400
 -28190968.598 7 -21966980.836 7  20014552.625    20014553.236    20014552.769
        45.100          43.100
  -4111046.207 3  -3203422.636 3  24849420.942    24849421.765    24849420.385
        19.900          18.600
  -4457277.218 3  -3473184.746 3  24515505.953    24515508.103    24515505.991
        19.300          20.500
   1961792.761 2   1528669.911 1  25615393.487    25615395.415    25615392.997
        12.600           6.500
 -26000787.155 7 -20260345.395 7  20737335.664    20737336.648    20737335.667
        44.500          42.200
 13 10  9  0 10 30.0000000  0 12G 5G27G26G21G28G 7G15G 9G19G10G 6G 8
 -23279655.729 7 -18139978.414 6  21277010.391    21277010.803    21277011.149
        42.000          41.400
    299169.987 2    233118.545 2  25123146.958    25123152.288    25123148.155
        15.100          17.800
 -28363314.987 7 -22101274.241 7  20026249.611    20026250.634    20026250.024
        44.100          42.800
  -5299366.328 2  -4129370.058 2  24943606.115    24943606.201    24943606.270
        17.000          16.100
 -17120772.553 6 -13340857.071 5  21969905.249    21969905.362    21969905.348
        36.600          32.700
 -14794914.547 5 -11528496.674 5  22486798.776    22486799.529    22486799.683
        34.400          31.100
 -11414083.776 4  -8894088.942 4  23452711.903    23452712.140    23452712.238
        28.400          25.600
 -28153891.205 7 -21938089.352 7  20021608.011    20021608.960    20021608.335
        44.900          43.400
  -4145297.257 2  -3230111.792 2  24842902.460    24842903.855    24842902.036
        17.800          17.800
  -4340547.456 3  -3382226.488 2  24537718.788    24537721.198    24537718.499
        19.300          17.800
   2010070.185     1566289.060 1  25624579.787    25624581.157    25624580.454
         3.000           6.500
 -25968606.355 7 -20235269.450 7  20743459.591    20743460.423    20743459.469
        44.500          42.200
 13 10  9  0 11  0.0000000  0 12G 5G27G26G21G28G 7G15G 9G19G10G 6G 8
 -23225100.679 7 -18097467.999 6  21287391.655    21287392.569    21287392.661
        42.100          41.700
    322282.734 2    251128.254 2  25127545.854    25127551.120    25127546.110
        15.100          17.000
 -28407090.286 7 -22135384.860 7  20017919.136    20017920.506    20017919.766
        44.100          42.700
  -5321674.569 2  -4146753.099 2  24939360.338    24939360.197    24939360.404
        17.000          13.900
 -17178415.942 6 -13385773.983 5  21958936.311    21958936.203    21958936.230
        36.600          33.100
 -14708607.965 5 -11461244.800 5  22503222.100    22503223.136    22503223.260
        34.300          31.300
 -11509836.549 4  -8968701.473 4  23434490.002    23434490.621    23434490.518
        26.800          24.900
 -28116295.095 7 -21908793.688 7  20028762.210    20028763.307    20028762.624
        44.900          43.200
  -4179015.225 3  -3256385.527 3  24836484.954    24836488.190    24836486.003
        18.600          18.600
  -4223760.985 3  -3291224.083 3  24559942.774    24559945.327    24559942.231
        19.900          18.600
   2058810.470 1   1604267.901 9  25633854.545    25633857.746    25633855.035
         9.000          -3.000
 -25935997.424 7 -20209859.912 7  20749664.592    20749665.606    20749664.677
        44.500          42.200
 13 10  9  0 11 30.0000000  0 12G 5G27G26G21G28G 7G15G 9G19G10G 6G 8
 -23170028.545 6 -18054554.662 6  21297871.633    21297872.349    21297872.359
        41.800          41.300
    345946.201 2    269567.823 2  25132048.650    25132053.473    25132050.233
        17.800          17.000
 -28450392.681 7 -22169126.984 7  20009679.350    20009680.283    20009679.602
        44.000          43.000
  -5343496.038 2  -4163756.624 2  24935208.005    24935208.544    24935207.681
        13.900          15.100
 -17235603.002 6 -13430335.311 5  21948053.845    21948054.038    21948053.877
        36.800          33.100
 -14622080.204 5 -11393820.577 5  22519688.135    22519689.135    22519689.098
        34.400          31.500
 -11605449.558 4  -9043205.111 4  23416295.681    23416296.449    23416296.356
        28.100          26.200
 -28078181.648 7 -21879094.905 7  20036015.130    20036016.034    20036015.429
        45.000          43.200
  -4212198.561 3  -3282242.761 3  24830171.952    24830173.215    24830171.639
        18.600          18.600
  -4106920.040 3  -3200179.233 3  24582177.230    24582179.400    24582176.558
        20.500          18.600
   2108013.775 1   1642607.546 1  25643219.107    25643221.865    25643219.927
         9.000           6.500
 -25902961.695 7 -20184117.790 7  20755951.178    20755952.163    20755951.148
        44.400          42.100
 13 10  9  0 12  0.0000000  0 12G 5G27G26G21G28G 7G15G 9G19G10G 6G 8
 -23114441.260 6 -18011239.907 6  21308449.699    21308450.124    21308450.414
        41.900          41.200
    370157.051 2    288433.391 2  25136656.422    25136660.658    25136656.268
        17.000          17.800
 -28493220.933 7 -22202499.644 7  20001529.001    20001530.360    20001529.693
        44.100          42.900
  -5364830.181 2  -4180380.395 2  24931147.980    24931149.147    24931147.701
        12.600          16.100
 -17292331.599 6 -13474539.393 5  21937258.808    21937258.960    21937258.765
        37.000          33.600
 -14535333.172 5 -11326225.501 5  22536195.703    22536196.386    22536196.408
        34.500          31.500
 -11700921.492 4  -9117598.792 4  23398127.707    23398128.470    23398128.675
        27.400          25.600
 -28039552.532 7 -21848994.320 7  20043366.052    20043366.959    20043366.332
        44.900          43.000
  -4244845.422 3  -3307681.906 3  24823960.058    24823960.899    24823958.912
        22.100          19.900
  -3990026.680 3  -3109093.489 2  24604422.272    24604423.552    24604421.418
        19.900          17.800
   2157679.815 1   1681308.446 1  25652670.205    25652672.602    25652671.239
        11.000          11.000
 -25869500.551 7 -20158044.182 7  20762318.448    20762319.637    20762318.568
        44.300          42.000
 13 10  9  0 12 30.0000000  0 12G 5G27G26G21G28G 7G15G 9G19G10G 6G 8
 -23058340.163 7 -17967524.783 6  21319125.517    21319126.020    21319126.128
        42.000          41.400
    394915.536 2    307725.644 2  25141367.857    25141371.420    25141368.298
        15.100          16.100
 -28535573.777 7 -22235501.854 7  19993470.131    19993470.867    19993470.276
        44.200          43.100
  -5385676.795 2  -4196624.392 2  24927180.332    24927181.711    24927180.092
        16.100          15.100
 -17348600.537 6 -13518385.306 5  21926550.906    21926551.229    21926550.908
        36.800          33.600
 -14448368.845 5 -11258461.091 5  22552744.345    22552745.182    22552745.333
        34.100          31.000
 -11796250.987 4  -9191881.469 4  23379987.234    23379987.879    23379987.790
        26.800          25.300
 -28000409.326 7 -21818493.133 7  20050814.637    20050815.508    20050814.922
        44.800          43.100
  -4276954.264 3  -3332701.959 3  24817850.039    24817851.487    24817849.475
        19.300          18.600
  -3873083.039 2  -3017968.586 2  24626674.925    24626676.981    24626674.561
        17.800          17.000
   2207805.467 1   1720367.546    25662207.625    25662210.342    25662209.205
         6.500           3.000
 -25835615.357 7 -20131640.146 7  20768766.824    20768767.710    20768766.775
        44.300          42.000
 13 10  9  0 13  0.0000000  0 12G 5G27G26G21G28G 7G15G 9G19G10G 6G 8
 -23001727.025 6 -17923410.668 6  21329898.394    21329899.380    21329899.175
        41.800          41.400
    420221.692 2    327445.075 2  25146183.024    25146187.269    25146183.470
        13.900          12.600
 -28577449.942 7 -22268132.626 7  19985500.769    19985502.114    19985501.419
        44.300          43.100
  -5406035.658 1  -4212488.617 2  24923307.309    24923307.408    24923306.518
         9.000          13.900
 -17404408.031 6 -13561871.650 5  21915931.161    21915931.419    21915931.159
        36.700          33.200
 -14361188.754 5 -11190528.566 5  22569334.742    22569334.891    22569335.200
        34.000          31.100
 -11891436.727 4  -9266052.219 4  23361873.405    23361874.442    23361874.069
        28.100          25.600
 -27960753.562 7 -21787592.538 7  20058360.774    20058361.712    20058361.158
        44.800          42.900
  -4308523.474 3  -3357301.612 2  24811842.033    24811843.522    24811841.882
        18.600          17.000
  -3756091.622 3  -2926806.482 2  24648937.668    24648939.637    24648937.505
        18.600          17.800
   2258388.720 9   1759784.170 1  25671833.464    25671835.963    25671835.761
        -3.000           6.500
 -25801307.189 7 -20104906.526 6  20775295.368    20775296.370    20775295.299
        44.300          41.900
 13 10  9  0 13 30.0000000  0 12G 5G27G26G21G28G 7G15G 9G19G10G 6G 8
 -22944603.156 6 -17878898.579 6  21340768.813    21340769.336    21340769.567
        41.900          41.000
    446072.843 2    347588.695 2  25151102.377    25151106.175    25151103.414
        17.000          15.100
 -28618848.167 7 -22300390.986 7  19977623.343    19977624.204    19977623.716
        44.100          43.000
  -5425905.784 2  -4227971.800 2  24919525.036    24919526.573    24919525.209
        13.900          13.900
 -17459752.235 6 -13604996.982 5  21905399.572    21905399.568    21905399.603
        37.100          33.800
 -14273794.803 5 -11122429.390 5  22585964.626    22585965.299    22585965.857
        34.300          31.000
 -11986477.156 4  -9340109.732 4  23343788.588    23343788.846    23343789.239
        29.000          25.900
 -27920586.830 7 -21756293.798 7  20066004.497    20066005.364    20066004.750
        44.800          43.100
  -4339550.748 2  -3381478.732 2  24805938.036    24805939.227    24805937.165
        17.000          17.000
  -3639054.498 3  -2835608.725 2  24671209.071    24671210.831    24671209.027
        19.300          13.900
   2309428.689 1   1799555.825    25681546.363    25681548.518    25681547.257
         9.000           3.000
 -25766577.158 7 -20077844.182 7  20781904.390    20781905.323    20781904.413
        44.700          42.000
 13 10  9  0 14  0.0000000  0 12G 5G27G26G21G28G 7G15G 9G19G10G 6G 8
 -22886970.678 6 -17833990.166 6  21351735.980    21351736.542    21351736.643
        41.600          41.000
    472469.089 2    368157.007 2  25156124.842    25156129.788    25156125.090
        13.900          13.900
 -28659767.218 7 -22332275.954 7  19969836.693    19969837.605    19969837.075
        44.100          43.400
  -5445286.694 2  -4243073.775 2  24915838.003    24915837.466    24915837.392
        13.900          12.600
 -17514631.553 6 -13647760.078 5  21894956.527    21894956.456    21894956.446
        37.300          33.800
 -14186188.769 5 -11054164.955 5  22602635.200    22602636.214    22602636.438
        33.600          30.100
 -12081370.823 4  -9414052.841 4  23325730.782    23325731.110    23325731.767
        28.800          24.900
 -27879910.726 7 -21724598.146 7  20073744.921    20073745.704    20073745.211
        44.900          42.900
  -4370035.052 2  -3405232.672 2  24800136.020    24800138.217    24800136.142
        13.900          17.000
  -3521973.975 2  -2744377.168 3  24693488.306    24693490.595    24693488.457
        17.000          18.600
   2360922.581 1   1839680.900 1  25691345.272    25691347.425    25691345.019
         9.000           9.000
 -25731426.828 7 -20050454.331 6  20788593.401    20788594.160    20788593.259
        44.300          41.900
 13 10  9  0 14 30.0000000  0 12G 5G27G26G21G28G 7G15G 9G19G10G 6G 8
 -22828830.609 6 -17788686.232 6  21362799.919    21362800.375    21362800.504
        41.800          41.300
    499409.286 2    389149.138 2  25161252.766    25161256.741    25161253.030
        17.000          15.100
 -28700205.756 7 -22363786.494 7  19962141.356    19962142.400    19962141.852
        44.300          43.300
  -5464177.897 2  -4257794.116 2  24912242.687    24912243.459    24912242.067
        13.900          12.600
 -17569044.360 6 -13690159.651 5  21884601.875    21884602.124    21884601.837
        37.000          34.100
 -14098372.190 5 -10985736.460 5  22619346.702    22619347.415    22619347.266
        33.500          30.400
 -12176115.792 4  -9487880.080 4  23307700.615    23307702.026    23307701.622
        27.100          26.200
 -27838726.977 7 -21692506.932 7  20081581.933    20081582.766    20081582.185
        44.900          42.800
  -4399974.253 2  -3428561.742 3  24794438.625    24794441.326    24794437.886
        13.900          19.300
  -3404852.158 2  -2653113.444 3  24715775.705    24715778.239    24715775.707
        13.900          18.600
   2412868.912 1   1880158.660 1  25701228.712    25701231.233    25701229.910
         6.500           6.500
 -25695857.415 7 -20022737.911 6  20795361.953    20795362.837    20795361.969
        44.400          41.900
 13 10  9  0 15  0.0000000  0 12G 5G27G26G21G28G 7G15G 9G19G10G 6G 8
 -22770184.815 6 -17742988.234 6  21373959.488    21373960.247    21373960.326
        41.500          41.000
    526892.966 3    410564.820 3  25166482.492    25166487.282    25166483.300
        18.600          18.600
 -28740162.631 7 -22394921.721 7  19954538.114    19954538.800    19954538.292
        44.200          43.400
  -5482579.287 2  -4272132.737 1  24908740.516    24908740.461    24908741.215
        16.100          11.000
 -17622989.059 6 -13732194.461 5  21874336.523    21874336.897    21874336.475
        37.100          34.100
 -14010347.197 5 -10917145.564 5  22636097.077    22636098.215    22636097.842
        33.100          31.500
 -12270710.997 4  -9561590.669 4  23289700.951    23289701.540    23289701.074
        29.200          26.200
 -27797036.998 7 -21660021.240 7  20089515.309    20089516.161    20089515.604
        44.600          43.000
  -4429368.034 3  -3451466.132 3  24788846.154    24788847.855    24788846.373
        20.500          19.300
  -3287691.141 2  -2561819.158 2  24738071.027    24738073.652    24738070.935
        15.100          15.100
   2465266.734 2   1920988.542    25711200.202    25711202.832    25711201.207
        15.100           3.000
 -25659870.193 7 -19994695.943 6  20802210.352    20802211.037    20802210.178
        44.400          41.900
 13 10  9  0 15 30.0000000  0 12G 5G27G26G21G28G 7G15G 9G19G10G 6G 8
 -22711035.322 6 -17696897.740 6  21385215.389    21385216.123    21385216.102
        41.600          40.900
    554918.695 3    432402.707 3  25171815.616    25171820.324    25171816.735
        18.600          20.500
 -28779636.605 7 -22425680.650 7  19947026.309    19947027.098    19947026.579
        44.100          43.400
  -5500491.271 2  -4286090.418 2  24905331.732    24905332.556    24905332.293
        16.100          15.100
 -17676463.860 6 -13773863.126 5  21864161.169    21864160.834    21864161.025
        37.700          33.900
 -13922115.441 5 -10848393.556 5  22652887.501    22652888.023    22652887.894
        33.600          30.600
 -12365155.116 5  -9635183.460 4  23271728.780    23271728.741    23271729.561
        30.100          24.600
 -27754842.371 7 -21627142.322 7  20097544.797    20097545.414    20097545.000
        44.700          42.700
  -4458213.251 3  -3473942.696 3  24783356.993    24783358.139    24783356.495
        18.600          19.900
  -3170493.031 3  -2470495.947 2  24760373.256    24760375.805    24760373.452
        19.900          17.000
   2518112.942 2   1962167.608 1  25721256.181    25721258.614    25721256.599
        16.100           9.000
 -25623466.503 7 -19966329.447 6  20809137.572    20809138.501    20809137.518
        44.400          41.900
 13 10  9  0 16  0.0000000  0 12G 5G27G26G21G28G 7G15G 9G19G10G 6G 8
 -22651383.652 6 -17650415.938 6  21396567.037    21396567.213    21396567.472
        41.800          40.300
    583486.787 2    454663.688 3  25177251.262    25177256.611    25177253.013
        12.600          19.300
 -28818626.442 7 -22456062.333 7  19939606.748    19939607.591    19939607.032
        44.400          43.300
  -5517911.463 2  -4299664.763 2  24902018.200    24902018.863    24902018.214
        15.100          16.100
 -17729467.148 6 -13815164.376 5  21854074.831    21854074.447    21854074.631
        37.600          34.100
 -13833678.791 5 -10779481.894 5  22669716.617    22669716.875    22669716.944
        33.600          30.200
 -12459446.517 4  -9708657.245 4  23253784.901    23253786.380    23253786.043
        29.500          27.600
 -27712144.906 7 -21593871.581 7  20105669.486    20105670.599    20105669.881
        44.800          42.700
  -4486509.599 2  -3495991.601 3  24777971.293    24777973.255    24777970.626
        15.100          21.100
  -3053260.252 2  -2379145.770 3  24782681.829    24782684.779    24782681.462
        16.100          18.600
   2571406.131 1   2003694.987    25731397.950    25731400.271    25731397.238
        11.000           3.000
 -25586647.514 7 -19937639.346 6  20816144.085    20816144.831    20816143.982
        44.300          41.600
 13 10  9  0 16 30.0000000  0 12G 5G27G26G21G28G 7G15G 9G19G10G 6G 8
 -22591231.569 6 -17603544.211 6  21408013.624    21408013.985    21408014.145
        41.800          40.700
    612595.282 2    477345.833 2  25182791.416    25182795.203    25182790.846
        13.900          16.100
 -28857130.985 7 -22486065.869 7  19932279.048    19932280.445    19932279.829
        44.300          43.400
  -5534840.844 2  -4312856.527 2  24898796.043    24898797.765    24898796.484
        15.100          16.100
 -17781997.362 6 -13856096.993 5  21844078.577    21844078.472    21844078.489
        37.300          34.400
 -13745038.787 5 -10710411.774 4  22686584.131    22686584.346    22686584.752
        33.800          29.900
 -12553583.642 4  -9782010.856 4  23235871.043    23235871.807    23235871.982
        29.000          25.600
 -27668946.269 7 -21560210.341 7  20113890.045    20113891.127    20113890.345
        44.500          42.800
  -4514255.181 2  -3517611.232 3  24772692.181    24772693.143    24772691.207
        17.000          19.900
  -2935994.577 2  -2287769.921 2  24804996.969    24804999.374    24804996.756
        17.000          16.100
   2625144.444 2   2045569.109 2  25741623.545    25741627.241    25741623.495
        15.100          13.900
 -25549414.247 7 -19908626.407 6  20823229.390    20823230.081    20823229.234
        44.400          41.600
 13 10  9  0 17  0.0000000  0 12G 5G27G26G21G28G 7G15G 9G19G10G 6G 8
 -22530580.820 6 -17556283.914 6  21419554.682    21419555.587    21419555.415
        41.300          40.600
    642243.156 2    500448.230 2  25188432.866    25188436.828    25188433.220
        12.600          17.000
 -28895149.023 7 -22515690.309 7  19925045.066    19925045.737    19925045.290
        44.400          43.600
  -5551278.648 2  -4325665.097 2  24895667.474    24895669.017    24895668.067
        17.000          13.900
 -17834052.834 6 -13896659.683 5  21834172.710    21834172.820    21834172.598
        37.700          34.700
 -13656197.211 5 -10641184.594 5  22703490.372    22703490.458    22703490.438
        32.800          30.400
 -12647565.181 4  -9855243.205 4  23217987.641    23217988.248    23217988.382
        29.900          26.500
 -27625247.905 7 -21526159.644 7  20122205.524    20122206.631    20122205.837
        44.400          42.500
  -4541448.373 3  -3538800.397 3  24767516.268    24767518.978    24767515.688
        18.600          19.900
  -2818698.459 3  -2196370.337 2  24827316.422    24827319.680    24827316.932
        20.500          17.000
   2679326.585 1   2087789.388 9  25751933.939    25751937.278    25751933.537
         6.500          -3.000
 -25511768.679 7 -19879292.241 6  20830392.795    20830393.864    20830392.938
        44.300          41.600
 13 10  9  0 17 30.0000000  0 12G 5G27G26G21G28G 7G15G 9G19G10G 6G 8
 -22469433.340 6 -17508636.552 6  21431190.770    21431191.393    21431191.521
        41.600          40.300
    672430.137 2    523971.103 2  25194177.481    25194180.579    25194176.946
        17.000          16.100
 -28932679.264 7 -22544934.651 7  19917902.877    19917903.993    19917903.549
        44.400          43.600
  -5567224.667 2  -4338090.471 2  24892633.362    24892634.143    24892633.157
        15.100          17.000
 -17885632.287 6 -13936851.446 5  21824357.345    21824357.401    21824357.289
        37.900          34.800
 -13567155.627 5 -10571801.530 5  22720433.591    22720434.274    22720434.681
        32.600          30.200
 -12741389.598 4  -9928353.113 4  23200133.105    23200133.529    23200134.255
        29.700          25.900
 -27581051.629 7 -21491720.998 7  20130615.843    20130616.908    20130616.216
        44.800          42.600
  -4568088.422 3  -3559558.726 3  24762448.040    24762448.764    24762446.771
        20.500          18.600
  -2701374.055 2  -2104948.761 2  24849642.607    24849646.111    24849642.860
        17.800          15.100
   2733950.121 2   2130353.299 2  25762327.970    25762332.208    25762329.701
        12.600          13.900
 -25473711.885 7 -19849637.577 6  20837634.990    20837635.815    20837634.925
        44.100          41.500
 13 10  9  0 18  0.0000000  0 12G 5G27G26G21G28G 7G15G 9G19G10G 6G 8
 -22407790.530 6 -17460603.206 6  21442921.199    21442921.630    21442921.849
        41.600          40.200
    703153.694 2    547911.756 2  25200024.475    25200027.286    25200023.825
        17.000          15.100
 -28969720.683 7 -22573798.085 7  19910854.298    19910855.298    19910854.765
        44.500          43.400
  -5582678.268 2  -4350131.992 2  24889693.136    24889693.646    24889692.814
        17.800          17.000
 -17936733.850 6 -13976670.832 5  21814632.675    21814632.794    21814632.886
        37.300          34.000
 -13477915.945 5 -10502264.104 5  22737415.287    22737416.030    22737416.372
        33.000          30.400
 -12835055.358 4 -10001339.415 4  23182308.937    23182310.081    23182309.637
        28.600          27.100
 -27536359.324 7 -21456895.848 7  20139120.722    20139121.598    20139120.954
        44.600          42.500
  -4594173.409 2  -3579884.461 3  24757483.204    24757484.012    24757482.206
        16.100          18.600
  -2584023.409 2  -2013506.717 2  24871975.149    24871976.926    24871974.518
        16.100          15.100
   2789012.771 1   2173259.229 1  25772806.712    25772809.969    25772807.185
        11.000          11.000
 -25435245.110 7 -19819663.467 6  20844954.736    20844955.822    20844954.820
        44.100          41.200
 13 10  9  0 18 30.0000000  0 12G 5G27G26G21G28G 7G15G 9G19G10G 6G 8
 -22345654.133 6 -17412185.248 6  21454745.118    21454745.834    21454745.899
        41.100          40.300
    734413.623 3    572270.442 3  25205972.367    25205975.451    25205972.218
        19.300          18.600
 -29006271.940 7 -22602279.586 7  19903898.903    19903899.839    19903899.341
        44.700          43.600
  -5597639.694 2  -4361790.158 2  24886846.413    24886846.514    24886845.936
        12.600          16.100
 -17987356.171 6 -14016116.788 5  21804999.787    21804999.720    21804999.748
        37.300          34.600
 -13388479.906 5 -10432573.709 5  22754434.248    22754435.371    22754435.603
        32.700          30.100
 -12928561.229 5 -10074201.127 4  23164516.168    23164516.293    23164516.530
        30.200          27.100
 -27491172.673 7 -21421685.475 7  20147719.295    20147720.190    20147719.592
        44.500          42.300
  -4619702.422 3  -3599777.072 3  24752625.723    24752627.542    24752624.687
        19.300          19.300
  -2466648.892 2  -1922046.028 2  24894310.747    24894312.950    24894310.226
        17.000          15.100
   2844512.193 2   2216504.997 2  25783368.954    25783371.719    25783368.662
        12.600          17.000
 -25396369.689 7 -19789370.959 6  20852352.503    20852353.588    20852352.576
        44.100          41.200
 13 10  9  0 19  0.0000000  0 12G 5G27G26G21G28G 7G15G 9G19G10G 6G 8
 -22283026.301 6 -17363384.367 6  21466662.854    21466663.547    21466663.521
        41.100          40.000
    766207.773 2    597044.972 2  25212021.099    25212025.757    25212021.928
        15.100          16.100
 -29042332.000 7 -22630378.326 7  19897036.803    19897037.817    19897037.368
        44.500          43.700
  -5612108.117 2  -4373064.043 2  24884091.457    24884092.408    24884091.728
        17.000          16.100
 -18037497.690 6 -14055188.087 5  21795458.286    21795458.253    21795458.295
        38.000          34.500
 -13298849.290 5 -10362731.671 4  22771490.944    22771491.236    22771491.595
        32.700          29.900
 -13021905.335 4 -10146936.754 4  23146752.890    23146753.622    23146753.800
        29.900          27.600
 -27445492.985 7 -21386090.903 7  20156411.665    20156412.731    20156412.097
        44.600          42.400
  -4644673.569 3  -3619234.914 2  24747872.703    24747874.960    24747873.169
        19.900          17.000
  -2349252.750 2  -1830568.547 2  24916649.828    24916652.988    24916650.049
        17.000          15.100
   2900446.872     2260089.907 1  25794013.375    25794015.909    25794012.992
         3.000           9.000
 -25357086.887 7 -19758760.975 6  20859828.017    20859828.734    20859827.970
        44.200          41.300
 13 10  9  0 19 30.0000000  0 12G 5G27G26G21G28G 7G15G 9G19G10G 6G 8
 -22219908.566 6 -17314201.732 6  21478673.775    21478674.624    21478674.596
        41.400          40.400
    798535.986 2    622235.660 2  25218174.281    25218177.859    25218174.797
        13.900          17.800
 -29077899.675 7 -22658093.398 7  19890269.081    19890269.469    19890269.100
        44.600          43.800
  -5626083.816 2  -4383954.071 2  24881432.515    24881433.193    24881432.402
        17.000          15.100
 -18087156.988 6 -14093883.628 5  21786008.326    21786008.405    21786008.332
        37.600          35.200
 -13209025.716 5 -10292739.287 5  22788583.753    22788584.391    22788584.377
        33.100          30.100
 -13115086.249 4 -10219545.277 4  23129020.907    23129021.827    23129021.531
        29.000          27.900
 -27399322.227 7 -21350113.671 7  20165197.719    20165198.786    20165198.056
        44.400          42.300
  -4669085.330 3  -3638256.744 3  24743227.472    24743228.345    24743227.056
        18.600          19.300
  -2231837.038 3  -1739075.829 3  24938993.624    24938995.972    24938993.154
        18.600          19.900
   2956817.047 2   2304014.699 1  25804739.335    25804742.796    25804740.767
        16.100           9.000
 -25317397.922 7 -19727834.518 6  20867380.298    20867381.289    20867380.426
        44.100          41.200
 13 10  9  0 20  0.0000000  0 12G 5G27G26G21G28G 7G15G 9G19G10G 6G 8
 -22156302.866 6 -17264638.866 6  21490777.625    21490778.160    21490778.334
        41.200          39.800
    831398.146 2    647842.922 3  25224427.639    25224431.196    25224427.549
        12.600          19.300
 -29112973.735 7 -22685423.831 7  19883594.142    19883595.119    19883594.597
        44.600          43.800
  -5639566.726 2  -4394460.445 2  24878867.596    24878867.241    24878867.205
        17.800          13.900
 -18136332.553 6 -14132202.233 5  21776650.659    21776650.544    21776650.575
        38.100          35.200
 -13119010.903 5 -10222597.876 4  22805713.571    22805713.214    22805713.702
        32.600          29.700
 -13208102.404 5 -10292025.399 4  23111320.861    23111321.163    23111321.414
        30.400          27.400
 -27352661.741 7 -21313754.816 7  20174076.858    20174078.079    20174077.180
        44.500          42.400
  -4692936.046 3  -3656841.093 2  24738688.756    24738688.853    24738688.734
        20.500          17.800
  -2114403.624 2  -1647569.295 2  24961340.825    24961342.225    24961339.790
        17.000          15.100
   3013618.620 2   2348275.504 2  25815548.978    25815551.803    25815549.238
        13.900          13.900
 -25277304.162 7 -19696592.581 6  20875009.730    20875010.915    20875009.966
        44.000          41.100
 13 10  9  0 20 30.0000000  0 12G 5G27G26G21G28G 7G15G 9G19G10G 6G 8
 -22092211.098 6 -17214697.242 6  21502973.828    21502974.482    21502974.606
        41.400          39.800
    864791.802 2    673864.219 3  25230781.436    25230785.232    25230781.472
        13.900          18.600
 -29147553.043 7 -22712368.735 7  19877013.895    19877014.982    19877014.412
        44.700          43.800
  -5652555.945 2  -4404582.203 2  24876395.355    24876395.704    24876395.630
