     2.10           OBSERVATION DATA    G (GPS)             RINEX VERSION / TYPE
teqc  2004Apr5                          20041208 15:58:21UTCPGM / RUN BY / DATE
OBSERVATION MODE: Permanent                                 COMMENT
CHUM Chumysh (CHUM)                                         MARKER NAME
25601M001                                                   MARKER NUMBER
T136                ROGUE SNR-8000       3.20               REC # / TYPE / VERS
113                 AOAD/M_T        NONE                    ANT # / TYPE
        0.0900        0.0000        0.0000                  ANTENNA: DELTA H/E/N
  1228950.8688  4508079.8949  4327868.4945                  APPROX POSITION XYZ
  74.75109758  42.99850107  716.3296  LonLatAlt  S/W        COMMENT
Linux 2.0.36|Pentium II|gcc -static|Linux|486/DX+           COMMENT
BIT 2 OF LLI FLAGS DATA COLLECTED UNDER A/S CONDITION       COMMENT
Konovalov           IVTAN                                   OBSERVER / AGENCY
     1     1                                                WAVELENGTH FACT L1/2
     5    L1    L2    C1    P2    P1                        # / TYPES OF OBSERV
    30.0000                                                 INTERVAL
    P1 =    P1  TurboRogue; =    Y1  Benchmark              COMMENT
    L1 = L1(P1) TurboRogue; = L1(Y1) Benchmark              COMMENT
    P2 =    P2  TurboRogue; =    Y2  Benchmark              COMMENT
    L2 = L2(P2) TurboRogue; = L2(Y2) Benchmark              COMMENT
 SNR is mapped to RINEX snr flag value [1,4-9]              COMMENT
    SNR:  >=316 >=100 >=31.6 >=10 >=3.2    >0 bad=0         COMMENT
L1 & L2:      9     8     7     6     5     4     1         COMMENT
  2002     1     9     0     0    0.0000000     GPS         TIME OF FIRST OBS
  2002     1     9    23    59   30.0000000     GPS         TIME OF LAST OBS
                                                            END OF HEADER
 02  1  9  0  0  0.0000000  0  8G 1G25G20G30G29G14G11G22
  -8299579.44248  -6467201.17045  23495990.221    23495992.096
 -23408269.91949 -18240203.76347  20636915.654    20636915.317
 -15966243.82549 -12441225.44846  21364717.655    21364717.759
   1219448.02448    950219.62144  23932593.699    23932596.891
 -10147317.92149  -7906998.75246  21901299.829    21901299.959
  -1757435.48448  -1369429.57245  23248148.895    23248148.939
 -10543166.43448  -8215454.71444  23341647.574    23341646.046
 -11235453.69048  -8754897.77545  22743588.518    22743590.265
 02  1  9  0  0 30.0000000  0  8G 1G25G20G30G29G14G11G22
  -8378494.41348  -6528693.35745  23480972.588    23480974.970
 -23379877.36849 -18218079.70047  20642318.838    20642318.337
 -16029182.26249 -12490268.37746  21352741.479    21352741.431
   1285501.77348   1001690.09644  23945163.244    23945164.852
 -10087626.62549  -7860486.05946  21912658.371    21912658.616
  -1679365.03148  -1308595.47645  23263005.458    23263005.414
 -10470262.07848  -8158646.13044  23355521.636    23355519.640
 -11343032.99948  -8838725.76545  22723116.797    22723119.221
 02  1  9  0  1  0.0000000  0  8G 1G25G20G30G29G14G11G22
  -8457328.31448  -6590122.34645  23465971.212    23465972.597
 -23351091.31549 -18195649.00947  20647796.624    20647796.115
 -16091693.77249 -12538978.63246  21340845.604    21340845.354
   1352030.65948   1053530.75544  23957823.364    23957824.646
 -10027741.79949  -7813822.57746  21924054.105    21924054.325
  -1601169.28248  -1247663.73545  23277885.397    23277884.856
 -10397076.76848  -8101618.66744  23369447.654    23369448.213
 -11450403.19448  -8922390.80445  22702685.026    22702686.272
 02  1  9  0  1 30.0000000  0  8G 1G25G20G30G29G14G11G22
  -8536077.60048  -6651485.43245  23450986.395    23450987.520
 -23321909.97549 -18172910.30247  20653349.782    20653349.296
 -16153772.88249 -12587351.95346  21329031.746    21329031.635
   1419035.80948   1105742.56944  23970573.636    23970574.845
  -9967660.27049  -7767005.79546  21935487.076    21935487.389
  -1522845.24848  -1186632.03545  23292789.735    23292790.013
 -10323610.17748  -8044371.98944  23383427.641    23383427.617
 -11557557.95748  -9005887.97645  22682293.814    22682295.518
 02  1  9  0  2  0.0000000  0  8G 1G25G20G30G29G14G11G22
  -8614743.89548  -6712783.84145  23436015.761    23436018.070
 -23292336.59949 -18149866.11547  20658977.518    20658977.048
 -16215419.28349 -12635388.09846  21317301.450    21317301.308
   1486513.07648   1158322.27444  23983414.260    23983414.420
  -9907384.19049  -7720037.43546  21946957.755    21946957.963
  -1444395.48848  -1125502.35945  23307718.556    23307717.944
 -10249867.15148  -7986909.94944  23397460.761    23397460.780
 -11664495.93348  -9089216.23545  22661944.768    22661946.234
 02  1  9  0  2 30.0000000  0  8G 1G25G20G30G29G14G11G22
  -8693336.98648  -6774025.19845  23421060.524    23421061.915
 -23262383.04449 -18126525.68647  20664677.290    20664676.783
 -16276640.78749 -12683093.15746  21305651.346    21305651.162
   1554450.05248   1211260.16444  23996342.678    23996343.699
  -9846923.89049  -7672925.52446  21958462.585    21958463.073
  -1365830.21548  -1064282.68445  23322669.411    23322668.784
 -10175860.73548  -7929242.68044  23411544.074    23411543.355
 -11771224.01848  -9172380.95345  22641634.599    22641635.969
 02  1  9  0  3  0.0000000  0  8G 1G25G20G30G29G14G11G22
  -8771867.97048  -6835218.17145  23406116.582    23406117.257
 -23232061.95249 -18102898.87347  20670447.220    20670446.831
 -16337446.80049 -12730474.45646  21294079.784    21294079.462
   1622833.05848   1264545.62844  24009354.661    24009354.746
  -9786291.26049  -7625679.32346  21970000.642    21970001.241
  -1287161.63048  -1002982.49545  23337638.709    23337638.539
 -10101605.36448  -7871381.35444  23425673.965    23425672.547
 -11877750.40348  -9255388.49245  22621362.753    22621364.340
 02  1  9  0  3 30.0000000  0  8G 1G25G20G30G29G14G11G22
  -8850312.83148  -6896344.03245  23391189.316    23391191.554
 -23201351.41349 -18078968.58947  20676291.356    20676290.901
 -16397811.24649 -12777511.67646  21282593.331    21282593.065
   1691683.57048   1318195.40444  24022457.752    24022458.852
  -9725463.00749  -7578280.69446  21981576.071    21981576.490
  -1208366.27748   -941583.52845  23352633.564    23352633.571
 -10027080.38448  -7813309.96544  23439855.209    23439858.132
 -11984048.24848  -9338217.94945  22601135.808    22601137.928
 02  1  9  0  4  0.0000000  0  8G 1G25G20G30G29G14G11G22
  -8928681.91848  -6957410.86945  23376276.201    23376276.320
 -23170264.07949 -18054744.69247  20682206.891    20682206.578
 -16457742.85249 -12824211.62046  21271188.765    21271188.573
   1760988.28948   1372199.08844  24035644.648    24035646.201
  -9664449.89149  -7530738.00646  21993186.401    21993186.441
  -1129455.67848   -880094.77545  23367649.784    23367649.240
  -9952299.51448  -7755039.18244  23454086.228    23454085.065
 -12090125.18848  -9420875.27645  22580949.389    22580951.088
 02  1  9  0  4 30.0000000  0  8G 1G25G20G30G29G14G11G22
  -9006969.65148  -7018414.29945  23361378.198    23361381.305
 -23138795.75649 -18030223.92347  20688195.059    20688194.694
 -16517233.89549 -12870568.26547  21259868.074    21259867.998
   1830750.45748   1426559.17844  24048919.836    24048920.926
  -9603247.06849  -7483047.50446  22004832.669    22004832.811
  -1050424.79648   -818512.29145  23382688.709    23382688.321
  -9877260.42848  -7696567.21444  23468365.247    23468363.964
 -12195972.52648  -9503353.69845  22560808.042    22560808.764
 02  1  9  0  5  0.0000000  0  8G 1G25G20G30G29G14G11G22
  -9085177.10648  -7079355.20245  23346495.317    23346497.763
 -23106949.54049 -18005408.69247  20694255.194    20694254.860
 -16576283.75549 -12916581.13347  21248630.841    21248630.435
   1900966.30248   1481272.88944  24062282.551    24062283.086
  -9541855.87949  -7435210.22446  22016515.248    22016515.231
   -971275.43748   -756837.46445  23397750.076    23397749.495
  -9801967.25948  -7637897.25644  23482693.204    23482694.497
 -12301588.34148  -9585651.70945  22540709.908    22540711.809
 02  1  9  0  5 30.0000000  0  8G 1G25G20G30G29G14G11G22
  -9163304.21048  -7140233.46145  23331628.957    23331629.780
 -23074727.24949 -17980300.41247  20700386.876    20700386.561
 -16634890.65349 -12962248.83247  21237478.449    21237478.511
   1971633.16248   1536337.95744  24075729.897    24075731.473
  -9480277.31649  -7387226.93546  22028233.363    22028233.844
   -892008.25248   -695070.83445  23412834.363    23412833.391
  -9726423.51248  -7579032.02844  23497069.062    23497068.511
 -12406970.06948  -9667767.31645  22520656.362    22520659.014
 02  1  9  0  6  0.0000000  0  8G 1G25G20G30G29G14G11G22
  -9241353.06548  -7201050.75745  23316776.574    23316778.229
 -23042132.68449 -17954902.05147  20706589.335    20706589.220
 -16693054.83449 -13007571.56047  21226410.192    21226410.071
   2042746.15148   1591750.69444  24089262.609    24089259.792
  -9418513.79449  -7339099.52446  22039986.072    22039986.612
   -812626.07948   -633214.61245  23427940.333    23427940.349
  -9650634.65848  -7519975.80944  23511491.046    23511490.736
 -12512116.70449  -9749699.74345  22500647.858    22500649.623
 02  1  9  0  6 30.0000000  0  8G 1G25G20G30G29G14G11G22
  -9319318.56748  -7261803.11845  23301939.912    23301941.836
 -23009163.04149 -17929211.41947  20712863.291    20712863.285
 -16750769.22249 -13052543.79847  21215427.610    21215427.292
   2114307.57348   1647512.82744  24102879.341    24102879.522
  -9356560.91949  -7290824.56646  22051775.936    22051775.995
   -733124.84748   -571265.61145  23443068.823    23443068.376
  -9574599.03848                  23525959.476
 -12617020.31648  -9831442.79745  22480684.744    22480686.450
 02  1  9  0  7  0.0000000  0  8G 1G25G20G30G29G14G11G22
  -9397205.99948  -7322494.61845  23287118.829    23287122.021
 -22975825.54149 -17903234.14347  20719207.357    20719207.199
 -16808037.57649 -13097168.48247  21204529.696    21204529.348
   2186309.54148   1703618.27044  24116581.284    24116581.724
  -9294424.71149  -7242406.74846  22063600.140    22063600.334
   -653510.67448   -509228.60645  23458218.682    23458218.725
  -9498325.23648  -7401293.19944  23540474.457    23540471.309
 -12721683.38048  -9912998.40545  22460767.741    22460769.444
 02  1  9  0  7 30.0000000  0  8G 1G25G20G30G29G14G11G22
  -9475011.06848  -7383121.92245  23272312.896    23272314.140
 -22942117.49449 -17876968.12847  20725621.415    20725621.357
 -16864853.57849 -13141440.67647  21193718.073    21193718.048
   2258753.60448   1760068.22544  24130366.689    24130368.022
  -9232101.36949  -7193843.10846  22075459.487    22075459.764
   -573779.67248   -447100.56245  23473391.782    23473391.381
  -9421812.31048                  23555033.586
 -12826098.65449  -9994360.93545  22440898.802    22440899.546
 02  1  9  0  8  0.0000000  0  8G 1G25G20G30G29G14G11G22
  -9552735.64248  -7443686.51145  23257522.399    23257522.666
 -22908042.86549 -17850416.46147  20732105.304    20732105.405
 -16921217.48449 -13185360.59347  21182992.362    21182992.172
   2331635.08148   1816858.97844  24144235.138    24144237.339
  -9169593.56349  -7145135.73746  22087354.295    22087354.352
   -493935.20648   -384884.11245  23488584.775    23488586.115
  -9345065.48148                  23569639.332
 -12930265.40248 -10075529.79945  22421076.218    22421077.507
 02  1  9  0  8 30.0000000  0  8G 1G25G20G30G29G14G11G22
  -9630372.45048  -7504182.71645  23242747.982    23242750.210
 -22873596.49549 -17823575.12547  20738660.613    20738660.522
 -16977120.15849 -13228921.10347  21172354.149    21172354.052
   2404958.57448   1873994.16944  24158188.504    24158189.134
  -9106894.35849  -7096279.22346  22099285.916    22099286.251
   -413970.11248   -322573.66945  23503802.357    23503802.517
  -9268080.77248                  23584287.138
 -13034173.14848 -10156496.85045  22401303.001    22401305.301
 02  1  9  0  9  0.0000000  0  8G 1G25G20G30G29G14G11G22
  -9707927.84948  -7564615.45445  23227989.933    23227992.400
 -22838786.43049 -17796450.40047  20745284.876    20745284.581
 -17032566.23649 -13272125.82747  21161803.167    21161803.002
   2478714.97948   1931466.67744  24172223.350    24172223.663
  -9044010.83949  -7047279.09046  22111251.797    22111252.305
   -333891.87148   -260175.05645  23519040.512    23519041.244
  -9190867.89648                  23598981.792
 -13137825.53149 -10237264.93645  22381578.946    22381580.399
 02  1  9  0  9 30.0000000  0  8G20G 1G25G30G29G14G11G22
 -17087547.88249 -13314968.66147  21151340.567    21151340.580
  -9785395.65348  -7624979.95445  23213248.842    23213250.259
 -22803608.50649 -17769039.02047  20751978.895    20751978.735
   2552907.53748   1989279.11144  24186343.357    24186344.410
  -8980937.51749  -6998131.05446  22123254.912    22123254.615
   -253695.14848   -197684.13245  23534301.353    23534299.155
  -9113424.24347                  23613716.974
 -13241213.59349 -10317827.03845  22361904.581    22361905.876
 02  1  9  0 10  0.0000000  0  8G 1G25G20G30G29G14G11G22
  -9862791.27248  -7685288.19845  23198521.011    23198523.464
 -22768079.98949 -17741354.45747  20758739.891    20758739.680
 -17142078.62349 -13357460.13547  21140963.724    21140963.753
   2627517.91248   2047417.03444  24200539.344    24200541.313
  -8917690.58849  -6948847.73946  22135289.948    22135290.399
   -173396.08648   -135113.43545  23549582.044    23549581.440
  -9035768.58548  -7040859.61744  23628494.881    23628494.738
 -13344349.86249 -10398192.94845  22342278.696    22342280.528
 02  1  9  0 10 30.0000000  0  8G20G 1G25G30G29G14G11G22
 -17196146.48249 -13399590.92347  21130675.115    21130675.077
  -9940103.99148  -7745531.84445  23183808.296    23183810.956
 -22732192.82849 -17713390.42547  20765569.179    20765568.967
   2702554.01048   2105886.70044  24214818.733    24214819.217
  -8854260.04649  -6899421.36346  22147360.305    22147360.773
    -92984.97048    -72455.44345  23564883.845    23564882.514
  -8957893.86348                  23643315.111
 -13447221.01749 -10478352.25545  22322702.687    22322705.397
 02  1  9  0 11  0.0000000  0  8G20G 1G25G30G29G14G11G22
 -17249740.57549 -13441352.54147  21120476.317    21120476.215
 -10017324.90148  -7805703.95045  23169114.397    23169115.024
 -22695939.79049 -17685141.28847  20772467.564    20772467.396
   2778021.79948   2164692.81844  24229180.799    24229180.447
  -8790637.52749  -6849845.37346  22159467.787    22159467.659
    -12453.51548     -9703.68145  23580208.573    23580207.839
  -8879794.38548                  23658176.689
 -13549815.20249 -10558295.75645  22303179.953    22303180.902
 02  1  9  0 11 30.0000000  0  8G20G 1G25G30G29G14G11G22
 -17302871.45049 -13482753.21247  21110366.227    21110365.907
 -10094466.37548  -7865814.15545  23154434.211    23154436.309
 -22659335.31049 -17656618.30047  20779433.308    20779433.176
   2853906.41648   2223823.67744  24243620.992    24243624.472
  -8726835.97949  -6800129.89946  22171608.444    22171608.927
     68184.95548     53131.45845  23595552.989    23595553.229
  -8801485.73448                  23673079.318
 -13652141.75649 -10638030.70045  22283707.379    22283708.449
 02  1  9  0 12  0.0000000  0  8G20G 1G25G30G29G14G11G22
 -17355533.17349 -13523788.30947  21100344.760    21100344.678
 -10171523.90448  -7925858.95745  23139770.454    23139773.272
 -22622376.77849 -17627819.42947  20786466.364    20786466.089
   2930209.13448   2283280.34244  24258141.619    24258144.112
  -8662851.57749  -6750271.92746  22183784.353    22183784.028
    148934.27948    116053.00145  23610919.168    23610918.995
  -8722967.00048                  23688019.457
 -13754193.66049 -10717551.64545  22264287.550    22264289.708
 02  1  9  0 12 30.0000000  0  8G20G 1G25G30G29G14G11G22
 -17407724.06849 -13564456.52747  21090412.971    21090412.647
 -10248497.49548  -7985838.35545  23125123.545    23125124.994
 -22585066.22049 -17598746.25747  20793566.280    20793566.175
   3006927.19148   2343060.64744  24272739.041    24272739.405
  -8598685.14349  -6700272.12246  22195995.005    22195995.229
    229793.63848    179060.28245  23626306.873    23626307.202
  -8644241.46148                  23703001.924
 -13855968.00149 -10796856.30345  22244920.614    22244922.424
 02  1  9  0 13  0.0000000  0  8G20G 1G25G30G29G14G11G22
 -17459443.00249 -13604756.98247  21080571.213    21080571.027
 -10325387.51448  -8045752.63445  23110491.077    23110492.590
 -22547406.39349 -17569400.92347  20800732.783    20800732.671
   3084057.12448   2403161.90044  24287417.932    24287416.856
  -8534337.72649  -6650131.28746  22208239.689    22208239.697
    310761.51348    242152.12245  23641714.046    23641714.590
  -8565313.21448                  23718021.409
 -13957462.42349 -10875942.82345  22225607.101    22225608.998
 02  1  9  0 13 30.0000000  0  8G20G 1G25G30G29G14G11G22
 -17510688.32049 -13644688.38547  21070819.607    21070819.712
 -10402194.00048  -8105601.84245  23095875.932    23095877.088
 -22509399.09849 -17539784.83547  20807965.235    20807965.289
   3161596.03648   2463581.86344  24302173.084    24302173.685
  -8469809.96349  -6599849.93146  22220519.093    22220518.809
    391837.05748    305327.83245  23657142.208    23657141.896
  -8486185.84548  -6612613.57144  23733079.246    23733077.681
 -14058674.07949 -10954809.03045  22206346.786    22206348.916
 02  1  9  0 14  0.0000000  0  8G20G 1G25G30G29G14G11G22
 -17561436.15049 -13684232.13247  21061162.683    21061162.376
 -10478894.75648  -8165368.63945  23081280.314    23081282.056
 -22471024.11949 -17509882.24147  20815267.538    20815267.305
   3239563.30348   2524335.55344  24317008.832    24317009.175
  -8405080.31449  -6549411.24846  22232836.531    22232837.055
    473041.57548    368604.07745  23672595.624    23672593.851
  -8406840.35048                  23748176.836
 -14159578.06649 -11033435.47445  22187145.880    22187147.302
 02  1  9  0 14 30.0000000  0  8G20G 1G25G30G29G14G11G22
 -17611698.89449 -13723397.89247  21051597.698    21051597.704
 -10555503.66848  -8225063.87245  23066701.026    23066702.564
 -22432297.60349 -17479705.72447  20822636.747    20822636.713
   3317941.80148   2585409.76244  24331924.423    24331921.798
  -8340163.57449  -6498826.78846  22245190.113    22245189.863
    554360.61748    431969.54545  23688069.105    23688068.602
  -8327294.26648                  23763315.267
 -14260185.46349 -11111830.80946  22168000.745    22168002.311
 02  1  9  0 15  0.0000000  0  8G20G 1G25G30G29G14G11G22
 -17661473.07549 -13762182.95347  21042126.310    21042126.353
 -10632018.91748  -8284686.13145  23052141.264    23052141.903
 -22393219.43249 -17449255.19447  20830073.207    20830073.368
   3396730.61348   2646803.62144  24346916.538    24346914.589
  -8275058.51249  -6448095.57046  22257578.812    22257579.134
    635795.01548    495424.90845  23703565.518    23703566.396
  -8247548.92348                  23778490.441
 -14360491.73449 -11189991.50446  22148913.321    22148915.164
 02  1  9  0 15 30.0000000  0  8G20G 1G25G30G29G14G11G22
 -17710783.24449 -13800606.44447  21032742.790    21032742.690
 -10708466.59549  -8344255.73246  23037593.732    23037594.699
 -22353818.07249 -17418552.82847  20837571.234    20837571.155
   3475900.76548   2708494.64044  24361982.804    24361986.043
  -8209791.73549  -6397238.35546  22269998.621    22269999.200
    717317.75948    558949.09345  23719079.687    23719077.785
  -8167634.02648                  23793696.602
 -14460520.20349 -11267935.73846  22129878.368    22129879.521
 02  1  9  0 16  0.0000000  0  8G20G 1G25G30G29G14G11G22
 -17759607.63649 -13838651.40747  21023451.545    21023451.618
 -10784826.51048  -8403756.92645  23023062.781    23023065.033
 -22314075.37149 -17387584.48147  20845133.614    20845133.637
   3555469.28348   2770496.10944  24377124.003    24377123.330
  -8144343.79649  -6346239.97046  22282453.366    22282453.587
    798948.35848    622557.35745  23734613.065    23734612.241
  -8087532.79548                  23808941.200
 -14560247.70049 -11345645.44546  22110900.556    22110901.836
 02  1  9  0 16 30.0000000  0  8G20G 1G25G30G29G14G11G22
 -17807931.54549 -13876306.38147  21014256.029    21014255.831
 -10861085.46849  -8463179.46745  23008552.535    23008552.012
 -22273980.28749 -17356341.55347  20852763.579    20852763.547
   3635446.30548   2832815.83644  24392343.275    24392346.186
  -8078702.38349  -6295090.82946  22294944.118    22294944.171
    880698.96248    686259.11745  23750169.503    23750170.310
  -8007235.78748                  23824219.730
 -14659658.41749 -11423108.30846  22091983.401    22091984.793
 02  1  9  0 17  0.0000000  0  8G20G 1G25G30G29G14G11G22
 -17855759.04249 -13913574.53847  21005154.966    21005155.032
 -10937248.89448  -8522527.57345  22994057.441    22994058.928
 -22233540.09649 -17324829.71247  20860459.102    20860458.828
   3715823.42048   2895447.37644  24407638.993    24407636.679
  -8012873.56249  -6243795.64846  22307470.956    22307471.313
    962563.35348    750049.53345  23765748.489    23765748.685
  -7926751.85748                  23839536.228
 -14758755.16549 -11500326.52446  22073125.873    22073127.467
 02  1  9  0 17 30.0000000  0  8G20G 1G25G30G29G14G11G22
 -17903097.10549 -13950461.32547  20996146.781    20996146.477
 -11013325.30449  -8581807.84145  22979581.557    22979582.663
 -22192765.57849 -17293057.35947  20868218.241    20868218.166
   3796589.02348   2958381.64344  24423007.493    24423008.199
  -7946866.49249  -6192361.58246  22320032.073    22320031.489
   1044531.92248    813921.14345  23781345.531    23781345.854
  -7846092.80248                  23854883.776
 -14857543.64249 -11577304.52546  22054327.142    22054328.645
 02  1  9  0 18  0.0000000  0  8G 1G25G20G30G29G14G11G22
 -11089320.30449  -8641024.70445  22965120.413    22965120.937
 -22151664.40849 -17261030.47447  20876039.700    20876039.422
 -17949950.03049 -13986970.08147  20987230.812    20987230.784
   3877734.49348   3021611.83144  24438449.431    24438448.840
  -7880687.77649  -6140793.75146  22332625.191    22332625.521
   1126598.28948    877868.94945  23796963.178    23796962.608
  -7765267.87848                  23870265.345
 -14956026.76049 -11654044.58846  22035586.380    22035587.996
 02  1  9  0 18 30.0000000  0  8G 1G25G20G30G29G14G11G22
 -11165228.77248  -8700174.10845  22950673.938    22950675.724
 -22110233.41749 -17228746.58547  20883923.883    20883923.594
 -17996310.91749 -14023095.43547  20978408.729    20978408.427
   3959261.97248   3085139.75744  24453963.097    24453964.604
  -7814332.74649  -6089088.55046  22345251.845    22345252.871
   1208766.96648    941896.48945  23812599.451    23812599.213
  -7684275.44347                  23885675.600
 -15054196.57449 -11730540.52846  22016905.767    22016906.697
 02  1  9  0 19  0.0000000  0  8G 1G25G20G30G29G14G11G22
 -11241040.36949  -8759248.04746  22936248.889    22936250.043
 -22068464.83149 -17196199.63547  20891872.194    20891871.832
 -18042168.23249 -14058828.39647  20969682.322    20969682.341
   4041178.58948   3148970.90244  24469551.245    24469555.917
  -7747792.01049  -6037238.64246  22357915.011    22357914.785
   1291046.83048   1006010.63545  23828256.231    23828255.764
  -7603108.68547                  23901123.112
 -15152040.31349 -11806782.37546  21998285.775    21998288.152
 02  1  9  0 19 30.0000000  0  8G 1G25G20G30G29G14G11G22
 -11316751.96048  -8818244.05145  22921840.427    22921842.027
 -22026357.76649 -17163388.93647  20899884.994    20899884.645
 -18087517.58449 -14094165.53647  20961052.540    20961052.527
   4123484.24348   3213105.20644  24485214.460    24485214.781
  -7681063.16449  -5985242.14346  22370612.548    22370612.790
   1373440.31748   1070213.32645  23843935.406    23843933.701
  -7521768.15947                  23916601.237
 -15249552.00049 -11882765.47946  21979730.563    21979731.974
 02  1  9  0 20  0.0000000  0  8G 1G25G20G30G29G14G11G22
 -11392366.63048  -8877164.52745  22907451.864    22907452.334
 -21983917.34749 -17130318.47847  20907960.970    20907960.618
 -18132360.47649 -14129108.03847  20952519.311    20952519.081
   4206172.94848   3277537.93744  24500948.859    24500949.642
  -7614150.07449  -5933102.08146  22383345.193    22383345.742
   1455943.60548   1134501.60645  23859635.572    23859635.394
  -7440260.24147                  23932111.236
 -15346732.03449 -11958490.16046  21961237.406    21961238.344
 02  1  9  0 20 30.0000000  0  8G 1G25G20G30G29G14G11G22
 -11467874.15849  -8936001.52845  22893084.291    22893083.908
 -21941135.35749 -17096981.85847  20916102.101    20916101.705
 -18176685.36549 -14163646.89847  20944084.334    20944083.954
   4289251.67648   3342274.65944  24516758.414    24516757.067
  -7547043.29849  -5880811.10346  22396115.648    22396115.514
   1538565.77848   1198882.51245  23875357.382    23875356.391
  -7358578.59647                  23947654.543
 -15443567.64649 -12033946.44846  21942809.962    21942812.056
 02  1  9  0 21  0.0000000  0  8G 1G25G20G30G29G14G11G22
 -11543287.68248  -8994765.27745  22878731.305    22878733.820
 -21898027.04249 -17063390.96547  20924305.377    20924305.097
 -18220503.77549 -14197791.09947  20935746.080    20935745.805
   4372704.19648   3407302.59644  24532638.505    24532633.800
  -7479756.65249  -5828379.94646  22408920.337    22408920.456
   1621293.07848   1263345.31345  23891099.938    23891102.051
  -7276739.45147                  23963227.979
 -15540069.07249 -12109142.34046  21924446.659    21924447.668
 02  1  9  0 21 30.0000000  0  8G 1G25G20G30G29G14G11G22
 -11618601.91249  -9053451.64545  22864401.126    22864401.956
 -21854589.27449 -17029543.35347  20932571.473    20932571.411
 -18263809.28549 -14231535.63747  20927505.392    20927505.234
   4456532.65848   3472623.42644  24548590.384    24548592.608
  -7412285.54249  -5775805.07346  22421759.100    22421760.185
   1704129.49848   1327893.15845  23906863.533    23906862.803
  -7194741.04747                  23978831.952
 -15636228.45249 -12184071.70246  21906147.746    21906149.400
 02  1  9  0 22  0.0000000  0  8G 1G25G20G30G29G14G11G22
 -11693823.95349  -9112066.18745  22850087.142    22850087.693
 -21810831.25649 -16995446.19747  20940898.382    20940898.197
 -18306607.81149 -14264885.12147  20919360.980    20919360.850
   4540726.86048   3538229.32744  24564612.324    24564608.404
  -7344637.97349  -5723092.69846  22434632.040    22434632.642
   1787067.24248   1392519.95745  23922645.882    23922646.813
  -7112594.14047                  23994465.049
 -15732050.28649 -12258738.04946  21887914.082    21887915.350
 02  1  9  0 22 30.0000000  0  8G 1G25G20G30G29G14G11G22
 -11768949.54148  -9170605.57445  22835789.375    22835790.839
 -21766751.00349 -16961097.94847  20949286.251    20949286.167
 -18348893.41049 -14297834.92247  20911314.534    20911314.230
   4625288.11448   3604121.24244  24580703.334    24580703.126
  -7276810.16649  -5670239.86646  22447539.369    22447539.745
   1870109.84748   1457228.44045  23938448.477    23938448.248
  -7030297.94048                  24010125.338
 -15827527.49749 -12333135.86246  21869744.681    21869747.079
 02  1  9  0 23  0.0000000  0  8G 1G25G20G30G29G14G11G22
 -11843994.74949  -9229082.33146  22821510.261    22821510.886
 -21722367.00749 -16926513.01447  20957732.204    20957732.123
 -18390681.13749 -14330396.77147  20903362.445    20903362.437
   4710196.79748   3670283.79244  24596861.281    24596860.711
  -7208819.31049  -5617259.99046  22460478.225    22460477.443
   1953240.08748   1522005.22345  23954267.736    23954268.390
  -6947872.31648                  24025809.912
 -15922673.65149 -12407275.70346  21851639.607    21851641.122
 02  1  9  0 23 30.0000000  0  8G 1G25G20G30G29G14G11G22
 -11918940.07349  -9287481.25046  22807248.470    22807249.391
 -21677661.43249 -16891677.50047  20966239.499    20966239.438
 -18431950.31749 -14362554.55547  20895509.114    20895509.048
   4795469.44948   3736730.06244  24613088.678    24613086.628
  -7140646.58349  -5564138.40246  22473450.500    22473451.185
   2036476.23448   1586864.54145  23970107.915    23970106.819
  -6865301.39148                  24041523.311
 -16017466.54049 -12481140.26646  21833600.546    21833602.453
 02  1  9  0 24  0.0000000  0  8G 1G25G20G30G29G14G11G22
 -11993788.34548  -9345804.55745  22793004.212    22793006.331
 -21632639.63149 -16856595.57547  20974806.825    20974806.560
 -18472702.30349 -14394309.33547  20887754.124    20887753.975
   4881099.98648   3803455.18844  24629382.659    24629382.446
  -7072295.60649  -5510877.90945  22486457.317    22486458.588
   2119814.96448   1651803.81145  23985965.040    23985966.270
  -6782590.91648                  24057262.622
 -16111906.35849 -12554729.71946  21815629.748    21815630.977
 02  1  9  0 24 30.0000000  0  8G 1G25G20G30G29G14G11G22
 -12068533.79449  -9404047.72646  22778782.304    22778782.332
 -21587298.19949 -16821264.58747  20983434.813    20983434.620
 -18512930.14749 -14425655.68847  20880098.894    20880098.743
   4967090.85048   3870461.02844  24645746.790    24645747.645
  -7003761.51449  -5457474.74145  22499498.966    22499499.522
   2203260.85148   1716826.53145  24001845.281    24001843.605
  -6699738.94248                  24073030.103
 -16205984.91749 -12628037.66546  21797726.799    21797728.921
 02  1  9  0 25  0.0000000  0  8G 1G25G20G30G29G14G11G22
 -12143168.13948  -9462204.34545  22764577.961    22764578.904
 -21541630.63949 -16785679.47547  20992125.116    20992124.823
 -18552624.40949 -14456586.26447  20872545.638    20872545.432
   5053447.19848   3937751.70444  24662179.411    24662181.418
  -6935036.83649  -5403923.05145  22512576.769    22512576.437
   2286821.44748   1781938.66045  24017746.392    24017747.797
  -6616740.79448                  24088823.018
 -16299691.15849 -12701055.49246  21779895.362    21779896.685
 02  1  9  0 25 30.0000000  0  8G 1G25G20G30G29G14G11G22
 -12217704.77048  -9520284.79346  22750393.956    22750395.776
 -21495652.47549 -16749852.32847  21000874.472    21000874.141
 -18591797.24549 -14487110.53247  20865091.283    20865090.964
   5140152.59448   4005314.36544  24678679.144    24678677.083
  -6866135.43349  -5350233.65946  22525688.297    22525689.395
   2370482.34048   1847128.92345  24033666.251    24033665.002
  -6533613.58748                  24104641.155
 -16393035.89949 -12773791.63846  21762132.391    21762133.950
 02  1  9  0 26  0.0000000  0  8G 1G25G20G30G29G14G11G22
 -12292141.88249  -9578287.71246  22736231.382    22736231.924
 -21449364.62849 -16713783.87447  21009682.791    21009682.381
 -18630445.73749 -14517226.22347  20857736.543    20857736.086
   5227205.38948   4073147.71544  24695244.836    24695248.057
  -6797056.59949  -5296406.01545  22538833.984    22538833.576
   2454244.19848   1912397.89444  24049605.090    24049603.257
  -6450358.93848                  24120485.228
 -16486014.82149 -12846242.72946  21744438.855    21744439.839
 02  1  9  0 26 30.0000000  0  8G 1G25G20G30G29G14G11G22
 -12366476.62348  -9636210.85046  22722083.397    22722085.538
 -21402766.07249 -16677473.31447  21018550.261    21018549.760
 -18668565.95349 -14546930.27147  20850482.360    20850482.292
   5314605.13648   4141251.43944  24711875.745    24711877.514
  -6727798.18849  -5242438.43245  22552012.655    22552013.022
   2538109.00248   1977747.07644  24065564.965    24065564.981
  -6366977.67948                  24136352.607
 -16578622.65849 -12918404.67046  21726816.687    21726817.939
 02  1  9  0 27  0.0000000  0  8G 1G25G20G30G29G14G11G22
 -12440705.54349  -9694051.52946  22707959.334    22707960.527
 -21355855.83849 -16640919.88547  21027477.293    21027476.748
 -18706153.28549 -14576219.08347  20843329.836    20843329.427
   5402352.07448   4209625.65744  24728574.258    24728572.898
  -6658357.94349  -5188329.16845  22565226.535    22565226.719
   2622079.09048   2043178.26145  24081543.742    24081542.286
  -6283471.65848                  24152231.756
 -16670853.32349 -12990272.71246  21709265.229    21709267.131
 02  1  9  0 27 30.0000000  0  8G 1G25G20G30G29G14G11G22
 -12514836.83949  -9751816.14846  22693853.268    22693853.803
 -21308644.59049 -16604131.89847  21036461.159    21036460.695
 -18743214.75349 -14605098.13147  20836277.285    20836276.891
   5490434.81748   4278261.55844  24745334.878    24745332.859
  -6588744.65149  -5134085.06345  22578474.496    22578474.858
   2706145.16748   2108684.24744  24097540.336    24097539.555
  -6199192.00548                  24168158.483
 -16762712.60849 -13061851.35546  21691785.598    21691786.909
 02  1  9  0 28  0.0000000  0  8G 1G25G20G30G29G14G11G22
 -12588868.47549  -9809503.09246  22679763.895    22679765.980
 -21261132.11149 -16567109.18847  21045502.458    21045502.021
 -18779747.33649 -14633565.06447  20829325.312    20829325.104
   5578851.99648   4347158.08944  24762160.692    24762160.827
  -6518957.25049  -5079705.28045  22591754.013    22591754.537
   2790308.61848   2174266.13345  24113557.057    24113556.268
  -6114706.39347                  24184090.633
 -16854195.77049 -13133136.91846  21674376.360    21674377.441
 02  1  9  0 28 30.0000000  0  7G 1G25G30G20G29G14G22
 -12662788.94349  -9867103.42846  22665698.761    22665699.861
 -21213309.26149 -16529844.63447  21054602.836    21054602.512
   5667611.90848   4416321.70844  24779051.355    24779051.840
 -18815738.31349 -14661609.96447  20822476.325    20822476.009
  -6448984.83949  -5025181.34145  22605069.350    22605070.101
   2874579.85648   2239932.02244  24129593.069    24129591.229
 -16945288.74649 -13204118.43646  21657042.335    21657043.518
 02  1  9  0 29  0.0000000  0  7G 1G25G20G30G29G14G22
 -12736588.24849  -9924609.33846  22651654.378    22651654.975
 -21165168.47249 -16492332.33047  21063763.607    21063763.088
 -18851176.93449 -14689224.45647  20815732.557    20815732.409
   5756721.08348   4485757.40844  24796007.012    24796008.493
  -6378818.59249  -4970506.35645  22618421.896    22618421.996
   2958967.49148   2305688.56645  24145651.254    24145653.440
 -17035979.24449 -13274786.32646  21639784.154    21639785.642
 02  1  9  0 29 30.0000000  0  8G 1G25G20G30G29G14G 4G22
 -12810298.40449  -9982045.77746  22637627.708    22637629.649
 -21116743.96149 -16454598.94347  21072978.470    21072977.991
 -18886093.91149 -14716432.47547  20809088.134    20809087.869
   5846144.22848   4555437.75344  24813025.223    24813024.785
  -6308491.31849  -4915705.89945  22631804.640    22631805.169
   3043438.83048   2371510.34245  24161726.226    24161725.215
         -.21058                  25323098.685
 -17126296.79049 -13345163.61946  21622597.605    21622598.231
 02  1  9  0 30  0.0000000  0  8G 1G25G20G30G29G14G 4G22
 -12883898.66149 -10039396.59146  22623622.531    22623623.818
 -21068017.20349 -16416630.03947  21082250.883    21082250.397
 -18920467.68549 -14743217.22247  20802547.124    20802546.820
   5935898.80948   4625376.48644  24830104.764    24830103.368
  -6237983.20848  -4860764.53145  22645221.871    22645222.402
   3128013.62948   2437412.75144  24177819.354    24177820.931
    -53171.20448                  25312981.111
 -17216218.19049 -13415232.21346  21605485.466    21605487.407
 02  1  9  0 30 30.0000000  0  8G 1G25G20G30G29G14G 4G22
 -12957404.03549 -10096673.46846  22609634.560    22609635.154
 -21019005.64649 -16378439.21747  21091577.446    21091577.087
 -18954312.43849 -14769589.74147  20796106.602    20796106.322
   6025966.49648   4695559.09044  24847243.435    24847242.893
  -6167310.02648  -4805694.55045  22658670.089    22658670.417
   3212675.91348   2503383.32744  24193930.636    24193930.293
   -105899.56748                  25302947.686
 -17305755.89149 -13485001.83046  21588447.515    21588448.526
 02  1  9  0 31  0.0000000  0  8G 1G25G20G30G29G14G 4G22
 -13030802.33249 -10153866.90046  22595666.532    22595668.202
 -20969699.00749 -16340018.46047  21100960.186    21100959.614
 -18987614.83049 -14795539.64147  20789769.276    20789768.860
   6116356.17748   4765992.58644  24864444.813    24864446.343
  -6096460.48048  -4750487.11845  22672152.425    22672152.744
   3297436.56348   2569430.55544  24210060.008    24210061.961
   -158171.75548                  25293000.539
 -17394895.26449 -13554461.05946  21571484.307    21571485.613
 02  1  9  0 31 30.0000000  0  8G 1G25G20G30G29G14G 4G22
 -13104091.53549 -10210975.32946  22581721.277    22581722.342
 -20920097.41449 -16301367.87047  21110399.148    21110398.690
 -19020371.84149 -14821064.57347  20783536.051    20783535.773
   6207066.47748   4836676.00344  24881705.535    24881703.187
  -6025433.49848  -4695141.42745  22685668.980    22685669.724
   3382296.55648   2635555.21244  24226208.270    24226206.134
   -209984.99948                  25283140.440
 -17483631.95149 -13623606.50846  21554598.947    21554600.076
 02  1  9  0 32  0.0000000  0  8G 1G25G20G30G29G14G 4G22
 -13177258.06849 -10267988.17846  22567797.190    22567797.766
 -20870189.85049 -16262478.86047  21119896.012    21119895.672
 -19052568.94649 -14846153.21147  20777409.357    20777409.062
   6298107.76748   4907617.24844  24899030.206    24899028.724
  -5954216.39048  -4639647.59545  22699220.265    22699221.488
   3467268.56748   2701767.09544  24242378.079    24242377.613
   -261324.83148                  25273371.347
 -17571949.82649 -13692425.61746  21537791.949    21537793.491
 02  1  9  0 32 30.0000000  0  8G 1G25G20G30G29G14G 4G22
 -13250322.96149 -10324921.80946  22553893.912    22553895.099
 -20819999.49549 -16223369.49347  21129446.824    21129446.453
 -19084226.25649 -14870821.23347  20771385.214    20771384.875
   6389455.59648                  24916413.575
  -5882830.98248  -4584022.63745  22712804.607    22712805.950
   3552330.66848   2768049.24044  24258564.484    24258566.103
   -312211.01848                  25263688.702
 -17659867.39449 -13760932.79946  21521062.086    21521063.349
 02  1  9  0 33  0.0000000  0  8G 1G25G20G30G29G14G 4G22
 -13323271.35249 -10381764.67446  22540012.521    22540012.806
 -20769514.07249 -16184030.20447  21139054.433    21139054.107
 -19115328.44349 -14895056.68947  20765466.413    20765465.977
   6481121.15448   5050225.11244  24933857.012    24933856.418
  -5811263.65648  -4528255.90545  22726424.087    22726423.835
   3637496.37748   2834412.08144  24274770.925    24274773.267
   -362628.37548                  25254094.280
 -17747367.84549 -13829114.95746  21504411.189    21504412.939
 02  1  9  0 33 30.0000000  0  8G 1G25G20G30G29G14G 4G22
 -13396102.40449 -10438516.09746  22526152.557    22526154.041
 -20718735.28049 -16144462.31647  21148716.912    21148716.645
 -19145873.58349 -14918858.08747  20759653.683    20759653.334
   6573102.12848   5121898.59244  24951360.664    24951359.362
  -5739514.32548  -4472347.34745  22740077.056    22740077.471
   3722765.64348   2900855.59644  24290997.818    24290996.925
   -412574.91548                  25244588.803
 -17834447.79149 -13896969.44046  21487840.232    21487841.896
 02  1  9  0 34  0.0000000  0  8G 1G25G20G30G29G14G 4G22
 -13468828.44849 -10495185.69546  22512313.927    22512315.369
 -20667677.20949 -16104676.80947  21158432.949    21158432.652
 -19175873.03449 -14942234.26947  20753945.022    20753944.593
   6665382.73148   5193805.54244  24968920.920    24968921.569
  -5667596.14848  -4416307.22945  22753762.882    22753763.829
   3808124.92248   2967369.28744  24307240.885    24307244.050
   -462062.00248                  25235172.615
 -17921117.04849 -13964503.91346  21471347.959    21471349.202
 02  1  9  0 34 30.0000000  0  8G 1G25G20G30G29G14G 4G22
 -13541445.27849 -10551770.19946  22498495.170    22498495.757
 -20616338.13949 -16064672.33947  21168202.457    21168202.270
 -19205321.98349 -14965181.48847  20748341.038    20748340.695
   6757963.80348                  24986538.462
  -5595506.02748  -4360133.12745  22767481.170    22767481.708
   3893577.53548   3033955.66944  24323501.897    24323503.379
   -511084.70748                  25225843.920
 -18007369.31749 -14031713.45746  21454934.551    21454935.956
 02  1  9  0 35  0.0000000  0  8G 1G25G20G30G29G14G 4G22
 -13613944.10949 -10608262.73746  22484698.262    22484699.325
 -20564711.41949 -16024443.72347  21178026.447    21178026.442
 -19234210.90749 -14987692.32747  20742843.904    20742843.476
   6850850.83848                  25004213.995
  -5523235.93648  -4303818.78145  22781233.776    22781235.604
   3979131.39148   3100620.99144  24339782.269    24339781.802
   -559633.55748                  25216604.681
 -18093193.20249 -14098589.19346  21438603.174    21438604.412
 02  1  9  0 35 30.0000000  0  8G 1G25G20G30G29G14G 4G22
 -13686335.15049 -10664671.29646  22470923.729    22470924.683
 -20512809.78549 -15984000.88947  21187902.973    21187902.679
 -19262549.21549 -15009774.11347  20737451.212    20737450.905
   6944030.16248   5410933.45244  25021945.601    25021945.331
  -5450797.27348  -4247373.10145  22795017.902    22795017.330
   4064774.76048   3167356.04944  24356080.255    24356079.739
   -607717.85148                  25207454.051
 -18178596.81449 -14165137.44346  21422350.959    21422352.226
 02  1  9  0 36  0.0000000  0  8G 1G25G20G30G29G14G 4G22
 -13758608.68749 -10720988.28346  22457170.084    22457170.738
 -20460625.90849 -15943338.12647  21197833.234    21197832.930
 -19290326.72649 -15031418.91947  20732165.157    20732164.816
   7037507.78548   5483773.18644  25039734.029    25039732.386
  -5378181.31948  -4190789.22745  22808836.381    22808837.191
   4150516.14448   3234167.45944  24372395.401    24372398.498
   -655327.17448                  25198395.681
 -18263568.18149 -14231348.87646  21406181.557    21406182.847
 02  1  9  0 36 30.0000000  0  8G 1G25G20G30G29G14G 4G22
 -13830760.23949 -10777210.22846  22443439.657    22443440.201
 -20408157.80649 -15902453.88947  21207817.743    21207817.496
 -19317538.34449 -15052622.76647  20726987.071    20726986.670
   7131284.70548   5556846.07444  25057579.091    25057581.062
  -5305384.71048  -4134064.64145  22822689.126    22822689.767
   4236359.04648   3301058.00344  24388730.914    24388731.487
   -702456.52248                  25189426.520
 -18348100.70549 -14297218.36246  21390095.655    21390097.023
 02  1  9  0 37  0.0000000  0  8G 1G25G20G30G29G14G 4G22
 -13902795.25649 -10833341.34846  22429732.155    22429732.971
 -20355412.82049 -15861353.89947  21217854.704    21217854.742
 -19344188.54449 -15073389.14647  20721915.634    20721915.357
   7225352.32248   5630145.52244  25075479.802    25075482.628
  -5232413.46748  -4077203.95745  22836575.289    22836576.694
   4322296.92548   3368022.49344  24405085.299    24405085.775
   -749110.46748                  25180548.851
 -18432197.31649 -14362748.16446  21374092.603    21374093.903
 02  1  9  0 37 30.0000000  0  8G 1G25G20G30G29G14G 4G22
 -13974712.67949 -10889380.84946  22416047.166    22416047.520
 -20302392.34849 -15820039.24147  21227944.317    21227944.020
 -19370275.65949 -15093716.76047  20716951.219    20716951.110
   7319708.27648                  25093434.987
  -5159267.76448  -4020207.32845  22850495.245    22850494.459
   4408329.85048   3435061.10944  24421456.092    24421456.841
   -795287.17248                  25171761.362
 -18515854.82549 -14427935.81146  21358172.862    21358173.774
 02  1  9  0 38  0.0000000  0  8G 1G25G20G30G29G14G 4G22
 -14046511.41049 -10945327.86046  22402383.041    22402384.099
 -20249097.76449 -15778510.99047  21238085.983    21238085.964
 -19395797.66949 -15113604.03347  20712094.364    20712094.269
   7414350.24748                  25111444.869
  -5085947.22348  -3963074.44745  22864447.033    22864448.265
   4494457.87948   3502173.80744  24437845.561    24437843.757
   -840984.74748                  25163065.545
 -18599069.48949 -14492778.38946  21342337.810    21342338.931
 02  1  9  0 38 30.0000000  0  8G 1G25G20G30G29G14G 4G22
 -14118192.02149 -11001182.83346  22388743.580    22388744.156
 -20195531.57649 -15736771.09947  21248279.145    21248279.078
 -19420754.74049 -15133051.09247  20707345.382    20707345.363
   7509274.12647                  25129508.073
  -5012453.65548  -3905806.75345  22878431.854    22878432.842
   4580679.13048   3569359.15944  24454253.550    24454253.269
   -886203.28948                  25154460.759
 -18681840.03049 -14557274.89846  21326587.039    21326588.515
 02  1  9  0 39  0.0000000  0  7G 1G25G20G29G14G 4G22
 -14189752.98649 -11056944.58246  22375125.626    22375126.547
 -20141695.20049 -15694820.67347  21258524.170    21258523.985
 -19445144.89549 -15152056.39747  20702703.989    20702703.808
  -4938786.46948  -3848403.76845  22892451.416    22892451.459
   4666994.07248   3636617.44544  24470678.768    24470675.563
   -930940.71548                  25145946.820
 -18764162.83249 -14621422.52046  21310921.434    21310922.437
 02  1  9  0 39 30.0000000  0  7G 1G25G20G29G14G 4G22
 -14261184.65749 -11112605.57246  22361532.137    22361533.439
 -20087581.04949 -15652653.80247  21268821.569    21268821.390
 -19468957.80249 -15170611.90347  20698172.710    20698172.488
  -4864937.07248  -3790858.80445  22906503.658    22906503.724
   4753411.28848   3703955.50344  24487122.509    24487122.773
   -975186.72348                  25137527.376
 -18846025.86649 -14685211.87746  21295343.385    21295344.588
 02  1  9  0 40  0.0000000  0  7G 1G25G20G29G14G 4G22
 -14332513.42149 -11168186.37646  22347959.308    22347960.480
 -20033217.84849 -15610292.86647  21279166.504    21279166.218
 -19492219.45449 -15188737.85647  20693746.258    20693746.144
  -4790932.76248  -3733193.12645  22920586.120    22920587.078
   4839903.20748   3771351.74744  24503582.889    24503580.900
  -1018966.97848                  25129196.969
 -18927453.34449 -14748661.84146  21279848.611    21279849.509
 02  1  9  0 40 30.0000000  0  7G 1G25G20G29G14G 4G22
 -14403712.24549 -11223665.95146  22334410.187    22334410.628
 -19978581.14249 -15567718.80847  21289563.562    21289563.339
 -19514902.45449 -15206412.91647  20689429.787    20689429.565
  -4716747.74648  -3675386.64245  22934703.653    22934703.722
   4926495.31248   3838826.01444  24520060.168    24520059.587
  -1062254.14248                  25120958.468
 -19008416.24849 -14811749.80146  21264441.463    21264442.715
 02  1  9  0 41  0.0000000  0  7G 1G25G20G29G14G 4G22
 -14474797.74049 -11279057.20446  22320883.008    22320884.389
 -19923689.69749 -15524946.25147  21300009.116    21300008.986
 -19537022.88349 -15223649.60547  20685220.211    20685219.895
  -4642399.68748  -3617453.11445  22948851.722    22948851.865
   5013170.30548   3906364.93244  24536553.289    24536553.781
  -1105064.20848                  25112812.667
 -19088929.17049 -14874487.12446  21249120.729    21249121.819
 02  1  9  0 41 30.0000000  0  7G 1G25G20G29G14G 4G22
 -14545748.29349 -11334343.30346  22307382.351    22307382.784
 -19868524.21449 -15481960.15747  21310506.540    21310506.542
 -19558558.54949 -15240430.63647  20681122.189    20681122.278
  -4567868.05248  -3559376.53645  22963034.204    22963034.723
   5099948.35948   3973984.09944  24553067.004    24553068.465
  -1147375.08148                  25104761.114
 -19168968.08449 -14936855.09146  21233889.508    21233890.787
 02  1  9  0 42  0.0000000  0  7G 1G25G20G29G14G 4G22
 -14616567.86849 -11389527.35646  22293905.153    22293905.773
 -19813091.33849 -15438765.71147  21321055.393    21321055.028
 -19579512.95349 -15256758.73547  20677134.959    20677134.948
  -4493157.60448  -3501160.63145  22977251.385    22977252.862
   5186824.53448   4041679.77244  24569599.020    24569598.491
  -1189190.23648                  25096803.740
 -19248534.92249 -14998855.20546  21218748.425    21218750.065
 02  1  9  0 42 30.0000000  0  7G 1G25G20G29G14G 4G22
 -14687263.52249 -11444614.84546  22280452.169    22280452.716
 -19757400.39349 -15395370.17447  21331652.973    21331652.712
 -19599893.10549 -15272639.36347  20673256.925    20673256.879
  -4418276.67748  -3442811.86645  22991500.602    22991501.146
   5273790.34248   4109445.27944  24586148.203    24586147.896
  -1230516.31348                  25088939.450
 -19327634.78449 -15060491.43946  21203696.327    21203697.711
 02  1  9  0 43  0.0000000  0  7G 1G25G20G29G14G 4G22
 -14757842.40249 -11499611.33546  22267022.182    22267022.764
 -19701460.71549 -15351780.81447  21342297.882    21342297.882
 -19619705.62649 -15288077.68347  20669486.230    20669486.142
  -4343233.37748  -3384336.59445  23005780.785    23005781.443
   5360837.50848   4177274.14844  24602713.139    24602715.404
  -1271359.91848                  25081166.933
 -19406272.74549 -15121767.75346  21188732.059    21188733.298
 02  1  9  0 43 30.0000000  0  7G 1G25G20G29G14G 4G22
 -14828297.70249 -11554511.53246  22253614.425    22253614.811
 -19645267.90549 -15307994.21547  21352991.249    21352990.935
 -19638943.32849 -15303068.09447  20665825.238    20665824.892
  -4268021.95548  -3325730.32445  23020093.231    23020092.822
   5447971.75948   4245170.85144  24619293.621    24619294.497
  -1311714.07648                  25073488.041
 -19484439.92649 -15182677.22446  21173857.362    21173858.686
 02  1  9  0 44  0.0000000  0  7G 1G25G20G29G14G 4G22
 -14898622.07749 -11609309.71046  22240232.044    22240232.822
 -19588817.26249 -15264006.70947  21363733.006    21363733.149
 -19657598.56449 -15317604.63447  20662275.438    20662275.214
  -4192636.49548  -3266988.42945  23034439.053    23034440.206
   5535199.21948   4313140.23344  24635892.970    24635892.932
  -1351570.84648                  25065903.825
 -19562127.13249 -15243212.68646  21159073.508    21159075.214
 02  1  9  0 44 30.0000000  0  8G 1G25G20G13G29G14G 4G22
 -14968817.76749 -11664007.61646  22226874.945    22226875.249
 -19532113.49849 -15219821.96847  21374523.402    21374523.496
 -19675673.23249 -15331688.78247  20658836.171    20658835.824
         -.74357                  25120730.887
  -4117080.26948  -3208113.45145  23048816.282    23048817.905
   5622516.46548   4381179.55944  24652509.549    24652506.410
  -1390932.39248                  25058413.911
 -19639334.70749 -15303374.41646  21144381.847    21144383.048
 02  1  9  0 45  0.0000000  0  7G 1G25G20G29G14G 4G22
 -15038884.52249 -11718605.04246  22213540.694    22213541.253
 -19475158.42649 -15175441.39747  21385361.932    21385361.702
 -19693166.77149 -15345320.10647  20655506.889    20655506.563
  -4041353.84948  -3149105.87545  23063226.891    23063227.345
   5709922.25348   4449287.87444  24669142.070    24669144.958
  -1429797.90748                  25051017.376
 -19716060.08849 -15363160.40746  21129780.923    21129782.501
 02  1  9  0 45 30.0000000  0  8G 1G25G20G13G29G14G 4G22
 -15108816.64249 -11773097.56746  22200233.255    22200233.982
 -19417948.60949 -15130862.32047  21396248.339    21396248.332
 -19710073.57349 -15358494.23347  20652289.380    20652289.330
        -1.15658                  25085792.670
  -3965453.00548  -3089962.40445  23077670.105    23077670.656
   5797421.26748   4517468.87644  24685792.649    24685791.657
  -1468161.57648                  25043716.624
 -19792295.96349 -15422564.96546  21115274.486    21115275.925
 02  1  9  0 46  0.0000000  0  7G 1G25G20G29G14G 4G22
 -15178623.45949 -11827492.45646  22186949.548    22186949.701
 -19360496.37449 -15086094.34947  21407181.027    21407181.089
 -19726402.50349 -15371218.07047  20649182.241    20649182.042
  -3889387.97048  -3030690.97745  23092144.919    23092145.561
   5885002.71748   4585714.05744  24702458.250    24702461.403
  -1506032.35548                  25036510.819
 -19868049.48349 -15481593.66846  21100858.394    21100859.529
 02  1  9  0 46 30.0000000  0  7G 1G25G20G29G14G 4G22
 -15248280.02749 -11881770.26746  22173693.878    22173694.848
 -19302778.62049 -15041119.48647  21418164.733    21418164.509
 -19742128.54049 -15383472.12147  20646189.842    20646189.599
  -3813134.87648  -2971273.01445  23106655.376    23106655.876
   5972690.56548                  24719145.085
  -1543384.98248                  25029403.330
 -19943293.81249 -15540225.59746  21086540.019    21086541.154
 02  1  9  0 47  0.0000000  0  8G 1G25G20G13G29G14G 4G22
 -15317793.43849 -11935936.51246  22160466.177    22160467.047
 -19244805.21849 -14995945.41247  21429196.469    21429196.606
 -19757258.64249 -15395261.80547  20643310.797    20643310.499
         -.82658                  25033370.511
  -3736702.14448  -2911715.06345  23121200.476    23121202.306
   6060476.32648                  24735850.603
  -1580226.61248  -1231344.94344  25022391.622    25022389.267
 -20018034.28249 -15598464.91346  21072317.794    21072318.512
 02  1  9  0 47 30.0000000  0  8G 1G25G20G13G29G14G 4G22
 -15387187.40749 -11990009.70046  22147261.582    22147261.812
 -19186602.42349 -14950592.59247  21440272.186    21440272.039
 -19771816.41549 -15406605.52347  20640540.655    20640540.429
    -91849.34848                  25015895.200
  -3660114.71548  -2852036.60045  23135773.980    23135774.191
   6148334.87748   4790907.63244  24752569.292    24752572.643
  -1616580.32648  -1259672.53344  25015474.403    25015476.257
 -20092292.64549 -15656328.56046  21058186.704    21058187.738
 02  1  9  0 48  0.0000000  0  7G 1G25G20G29G14G 4G22
 -15456449.32649 -12043979.98346  22134080.245    22134081.174
 -19128159.31449 -14905052.51547  21451393.747    21451393.250
 -19785788.87049 -15417493.14747  20637881.744    20637881.415
  -3583360.91548  -2792228.46145  23150380.057    23150381.913
   6236277.82448   4859434.52044  24769304.818    24769311.368
  -1652433.53848                  25008652.520
 -20166054.44349 -15713805.27046  21044150.029    21044151.013
 02  1  9  0 48 30.0000000  0  7G 1G25G20G29G14G 4G22
 -15525572.62249 -12097842.25546  22120927.189    22120927.491
 -19069472.12449 -14859322.24447  21462561.491    21462561.161
 -19799169.66049 -15427919.73447  20635335.622    20635335.441
  -3506435.31448  -2732286.47245  23165018.365    23165019.971
   6324310.30648   4928031.14244  24786056.264    24786056.694
  -1687779.69248                  25001925.774
 -20239311.28949 -15770888.51146  21030209.902    21030210.949
 02  1  9  0 49  0.0000000  0  8G 1G25G20G13G29G14G 4G22
 -15594563.17949 -12151601.09646  22107799.432    22107800.012
 -19010549.55849 -14813408.56547  21473773.944    21473773.640
 -19811964.84749 -15437890.00847  20632900.651    20632900.278
         -.39958                  24963446.563
  -3429345.39948  -2672216.40445  23179688.145    23179690.284
   6412424.97448   4996691.83744  24802824.071    24802825.516
  -1722624.40148  -1342304.26744  24995295.053    24995297.534
 -20312067.41149 -15827581.57646  21016364.873    21016365.818
 02  1  9  0 49 30.0000000  0  8G 1G25G20G13G29G14G 4G22
 -15663419.81949 -12205255.57646  22094695.183    22094696.164
 -18951392.27549 -14767311.98647  21485031.313    21485030.991
 -19824172.87449 -15447402.75447  20630577.304    20630576.996
    -91892.89548                  24945959.115
  -3352090.72648  -2612018.03245  23194390.045    23194389.149
   6500622.13448   5065416.77444  24819607.943    24819612.220
  -1756966.34048                  24988759.851
 -20384319.63249 -15883881.99246  21002615.058    21002616.652
 02  1  9  0 50  0.0000000  0  8G 1G25G29G20G13G14G 4G22
 -15732137.50149 -12258801.79046  22081618.598    22081619.502
 -18891997.47649 -14721030.33247  21496333.570    21496333.496
  -3274667.42448  -2551688.21145  23209122.412    23209124.171
 -19835788.82249 -15456454.13947  20628366.624    20628366.323
   -183792.54348                  24928471.506
   6588905.26848   5134208.73444  24836408.045    24836410.017
  -1790800.38748                  24982319.934
 -20456061.14649 -15939784.45146  20988963.503    20988964.907
 02  1  9  0 50 30.0000000  0  8G 1G25G29G20G13G14G 4G22
 -15800719.65249 -12312242.38546  22068569.059    22068569.631
 -18832371.54649 -14674568.58047  21507680.045    21507679.813
  -3197080.53348  -2491230.92645  23223886.428    23223887.788
 -19846816.40749 -15465047.05847  20626268.370    20626268.218
   -275703.22648                  24910980.869
   6677269.63048                  24853222.837
  -1824130.17448  -1421399.59144  24975978.814    24975980.984
 -20527293.84249 -15995290.42946  20975408.571    20975409.960
 02  1  9  0 51  0.0000000  0  8G 1G25G29G20G13G14G 4G22
 -15869164.37649 -12365575.90746  22055543.706    22055544.546
 -18772515.02349 -14627927.14447  21519070.422    21519070.269
  -3119329.26248  -2430645.56145  23238682.846    23238683.258
 -19857253.68549 -15473180.00047  20624282.372    20624282.186
   -367623.14048                  24893488.859
   6765715.95148   5271983.03044  24870054.098    24870054.940
  -1856953.54148  -1446976.21744  24969733.021    24969734.365
 -20598013.98349 -16050397.01346  20961950.638    20961951.991
 02  1  9  0 51 30.0000000  0  8G 1G25G29G20G13G14G 4G22
 -15937468.53949 -12418799.89446  22042544.989    22042546.130
 -18712427.32449 -14581105.56947  21530504.685    21530504.774
  -3041411.39448  -2369930.37645  23253509.508    23253510.938
 -19867097.52549 -15480850.52247  20622408.796    20622408.715
   -459549.48648                  24875997.772
   6854246.01848                  24886901.159
  -1889267.33148  -1472155.81744  24963583.254    24963584.933
 -20668216.78149 -16105100.47046  20948591.808    20948593.061
 02  1  9  0 52  0.0000000  0  8G 1G25G29G20G13G14G 4G22
 -16005636.94249 -12471918.09346  22029574.345    22029574.486
 -18652115.44549 -14534109.30647  21541981.467    21541981.498
  -2963333.23348  -2309090.29445  23268367.834    23268367.113
 -19876352.99449 -15488062.57447  20620647.559    20620647.456
   -551487.73748                  24858500.613
   6942853.58448   5410012.18344  24903762.092    24903762.811
  -1921076.60348  -1496942.19344  24957530.582    24957531.107
 -20737905.33149 -16159403.21446  20935330.359    20935331.660
 02  1  9  0 52 30.0000000  0  8G 1G25G29G20G13G14G 4G22
 -16073664.84849 -12524926.82646  22016628.775    22016629.355
 -18591577.10149 -14486936.57347  21553501.661    21553501.867
  -2885091.21948  -2248122.51345  23283256.420    23283257.579
 -19885015.34149 -15494812.45247  20618999.414    20618999.316
   -643433.21648                  24841005.626
   7031542.14248   5479120.02744  24920639.586    24920638.841
  -1952376.59948  -1521331.84444  24951573.538    24951574.473
 -20807073.25449 -16213300.27546  20922168.129    20922169.577
 02  1  9  0 53  0.0000000  0  8G 1G25G29G20G13G14G 4G22
 -16141542.50249 -12577818.46746  22003711.183    22003712.236
 -18530804.73049 -14439581.49147  21565066.275    21565066.051
  -2806676.89148  -2187020.46344  23298177.712    23298179.198
 -19893074.77549 -15501092.52747  20617465.784    20617465.557
   -735376.29048                  24823508.870
   7120320.00648   5548297.40944  24937533.305    24937533.648
