     2.10           OBSERVATION DATA    G (GPS)             RINEX VERSION / TYPE
teqc  2004Apr5                          20041208 15:58:10UTCPGM / RUN BY / DATE
OBSERVATION MODE: Permanent                                 COMMENT
CHUM Chumysh (CHUM)                                         MARKER NAME
25601M001                                                   MARKER NUMBER
T136                ROGUE SNR-8000       3.20               REC # / TYPE / VERS
113                 AOAD/M_T        NONE                    ANT # / TYPE
        0.0900        0.0000        0.0000                  ANTENNA: DELTA H/E/N
  1228950.8690  4508079.8894  4327868.4913                  APPROX POSITION XYZ
  74.75109756  42.99850108  716.3236  LonLatAlt  S/W        COMMENT
Linux 2.0.36|Pentium II|gcc -static|Linux|486/DX+           COMMENT
BIT 2 OF LLI FLAGS DATA COLLECTED UNDER A/S CONDITION       COMMENT
Konovalov           IVTAN                                   OBSERVER / AGENCY
     1     1                                                WAVELENGTH FACT L1/2
     5    L1    L2    C1    P2    P1                        # / TYPES OF OBSERV
    30.0000                                                 INTERVAL
    P1 =    P1  TurboRogue; =    Y1  Benchmark              COMMENT
    L1 = L1(P1) TurboRogue; = L1(Y1) Benchmark              COMMENT
    P2 =    P2  TurboRogue; =    Y2  Benchmark              COMMENT
    L2 = L2(P2) TurboRogue; = L2(Y2) Benchmark              COMMENT
 SNR is mapped to RINEX snr flag value [1,4-9]              COMMENT
    SNR:  >=316 >=100 >=31.6 >=10 >=3.2    >0 bad=0         COMMENT
L1 & L2:      9     8     7     6     5     4     1         COMMENT
  2002     1     4     0     0    0.0000000     GPS         TIME OF FIRST OBS
  2002     1     4    23    59   30.0000000     GPS         TIME OF LAST OBS
                                                            END OF HEADER
 02  1  4  0  0  0.0000000  0  8G 1G20G29G21G22G14G11G25
  -5599427.57848  -4363188.99844  24114995.395    24114998.563
 -18016223.19149 -14038610.23646  21914793.514    21914792.833
 -13436325.11849 -10469861.10647  21221984.097    21221984.036
  -4572706.77948                  24589674.232
  -6690226.53848  -5213164.20944  23612506.208    23612506.252
  -4129198.81149  -3217557.18646  22666583.706    22666583.236
 -13248403.66349 -10323431.66245  22823543.390    22823543.025
 -24226832.86749 -18878047.17447  20478920.452    20478919.898
 02  1  4  0  0 30.0000000  0  8G 1G20G29G21G22G14G11G25
  -5681117.39348  -4426843.39345  24099451.862    24099451.812
 -18094324.10949 -14099468.09346  21899930.347    21899930.487
 -13390184.08849 -10433907.06147  21230764.624    21230764.527
  -4463164.74548                  24610519.482
  -6803354.65548  -5301316.02145  23590978.411    23590981.486
  -4056274.17949  -3160732.82645  22680461.149    22680460.185
 -13189135.77449 -10277248.90645  22834822.270    22834822.506
 -24215936.75949 -18869556.69147  20480993.880    20480993.445
 02  1  4  0  1  0.0000000  0  8G 1G20G29G21G22G14G11G25
  -5762734.13748  -4490440.84945  24083919.655    24083922.715
 -18172090.20049 -14160065.04046  21885132.468    21885131.884
 -13343821.19849 -10397780.13747  21239587.150    21239587.031
  -4353463.50648                  24631393.932
  -6916400.47148  -5389403.66644  23569466.272    23569465.779
  -3983202.54449  -3103793.91745  22694366.378    22694366.347
 -13129469.39449 -10230755.63745  22846176.727    22846175.938
 -24204588.54149 -18860713.90847  20483153.442    20483153.005
 02  1  4  0  1 30.0000000  0  7G 1G20G29G22G14G11G25
  -5844285.58148  -4553987.36345  24068401.094    24068401.494
 -18249526.95949 -14220405.37246  21870396.921    21870396.077
 -13297244.95349 -10361486.96347  21248449.970    21248450.124
  -7029369.18148  -5477431.26744  23547969.146    23547968.778
  -3909992.48249  -3046747.14445  22708297.767    22708297.839
 -13069415.28448 -10183960.22145  22857603.384    22857603.027
 -24192797.57549 -18851526.13947  20485397.496    20485397.047
 02  1  4  0  2  0.0000000  0  7G 1G20G29G22G14G11G25
  -5925763.78448  -4617476.85145  24052896.416    24052896.932
 -18326624.63949 -14280481.48246  21855725.425    21855725.028
 -13250448.08149 -10325021.87647  21257355.191    21257355.268
  -7142250.04548  -5565390.39544  23526489.087    23526491.046
  -3836636.80349  -2989586.91745  22722257.038    22722257.533
 -13008968.49049 -10136858.81745  22869107.103    22869106.638
 -24180557.60349 -18841988.51147  20487726.598    20487726.127
 02  1  4  0  2 30.0000000  0  8G 1G20G29G30G22G14G11G25
  -6007186.58048  -4680923.15945  24037401.282    24037405.835
 -18403398.76949 -14340305.47546  21841116.130    21841115.316
 -13203448.91949 -10288399.15247  21266299.104    21266298.566
         -.52758         1.05854  23540801.255    23540800.261
  -7255057.92948  -5653292.65344  23505021.726    23505020.213
  -3763153.73749  -2932327.41045  22736240.342    22736239.912
 -12948149.42049 -10089467.34345  22880680.949    22880679.538
 -24167887.88149 -18832116.01647  20490137.379    20490136.959
 02  1  4  0  3  0.0000000  0  8G 1G20G29G30G22G14G11G25
  -6088565.97448  -4744335.68045  24021917.371    24021918.311
 -18479859.14249 -14399884.98246  21826565.734    21826565.626
 -13156259.54349 -10251628.21547  21275278.975    21275278.499
     47615.91448     37104.72544  23549862.096    23549863.366
  -7367801.79848  -5741145.02944  23483567.397    23483567.359
  -3689556.04649  -2874978.58345  22750245.841    22750245.387
 -12886972.97848 -10041797.39245  22892321.188    22892320.661
 -24154801.23149 -18821918.63647  20492627.440    20492627.091
 02  1  4  0  3 30.0000000  0  8G 1G20G29G30G22G14G11G25
  -6169874.18848  -4807692.70445  24006442.788    24006445.445
 -18555975.78249 -14459196.64546  21812081.797    21812080.812
 -13108852.99949 -10214688.06247  21284299.782    21284299.759
     95777.19848     74632.95144  23559027.253    23559027.771
  -7480451.05248  -5828923.67444  23462130.550    23462130.978
  -3615816.86949  -2817519.50445  22764277.651    22764278.008
 -12825414.28648  -9993829.61145  22904036.105    22904035.628
 -24141271.31149 -18811375.83747  20495202.235    20495201.928
 02  1  4  0  4  0.0000000  0  8G 1G20G29G30G22G14G11G25
  -6251117.74048  -4870999.31845  23990983.552    23990986.338
 -18631753.18249 -14518243.96346  21797661.743    21797661.853
 -13061236.15649 -10177584.03947  21293361.170    21293361.073
    144474.95948    112579.23444  23568294.763    23568296.041
  -7593009.46148  -5916631.51144  23440711.757    23440713.093
  -3541943.58649  -2759955.92745  22778335.339    22778335.528
 -12763483.09649  -9945571.56645  22915821.586    22915821.230
 -24127306.68549 -18800494.30547  20497859.744    20497859.493
 02  1  4  0  4 30.0000000  0  8G 1G20G29G30G22G14G11G25
  -6332298.21048  -4934256.79445  23975534.658    23975537.445
 -18707190.69749 -14577026.44146  21783306.217    21783305.904
 -13013410.99649 -10140317.69147  21302461.957    21302461.924
    193705.81148    150940.92244  23577662.733    23577663.576
  -7705475.60448  -6004267.49244  23419309.957    23419310.439
  -3467938.27549  -2702289.46545  22792417.802    22792417.949
 -12701183.41348  -9897026.38345  22927675.923    22927675.518
 -24112909.94449 -18789276.06347  20500599.329    20500599.024
 02  1  4  0  5  0.0000000  0  8G 1G20G29G30G22G14G11G25
  -6413414.14648  -4997464.01345  23960100.013    23960100.022
 -18782284.80649 -14635541.32546  21769016.993    21769016.058
 -12965376.88149 -10102888.52247  21311602.659    21311602.628
    243469.23948    189717.60445  23587131.525    23587132.862
  -7817845.24048  -6091828.23744  23397927.324    23397928.764
  -3393800.12949  -2644519.50445  22806526.719    22806525.885
 -12638516.76449  -9848195.21645  22939602.408    22939601.000
 -24098081.07949 -18777721.09947  20503421.184    20503420.831
 02  1  4  0  5 30.0000000  0  8G 1G20G29G30G22G14G11G25
  -6494466.83748  -5060621.92945  23944675.831    23944678.216
 -18857034.93849 -14693788.17946  21754791.823    21754791.316
 -12917135.64449 -10065297.96047  21320782.603    21320782.369
    293761.94748    228906.72145  23596703.293    23596701.391
  -7930117.11748  -6179312.81444  23376562.130    23376562.717
  -3319531.28549  -2586647.70545  22820658.909    22820658.385
 -12575487.65648  -9799081.64845  22951595.580    22951595.781
 -24082822.60449 -18765831.37547  20506324.787    20506324.453
 02  1  4  0  6  0.0000000  0  8G 1G20G29G30G22G14G11G25
  -6575458.34148  -5123732.13145  23929262.909    23929266.124
 -18931440.86449 -14751766.81446  21740632.517    21740632.523
 -12868689.83049 -10027547.98947  21330001.604    21330001.354
    344580.14648    268505.32745  23606372.558    23606373.173
  -8042290.06048  -6266720.32145  23355216.368    23355217.113
  -3245134.69349  -2528676.34945  22834815.795    22834815.605
 -12512100.80548  -9749689.30145  22963657.109    22963656.789
 -24067138.44049 -18753609.94747  20509309.025    20509308.837
 02  1  4  0  6 30.0000000  0  8G 1G20G29G30G22G14G11G25
  -6656373.02448  -5186782.45745  23913866.296    23913867.093
 -19005484.63649 -14809463.25646  21726543.416    21726542.534
 -12820024.20049  -9989626.72247  21339262.282    21339262.085
    395937.52148    308524.07445  23616145.482    23616146.770
  -8154345.72148  -6354036.42145  23333893.405    23333893.093
  -3170595.39549  -2470593.80045  22849001.357    22848999.915
 -12448343.86949  -9700008.58945  22975791.671    22975788.842
 -24051014.42949 -18741045.78447  20512377.197    20512377.121
 02  1  4  0  7  0.0000000  0  8G 1G20G29G30G22G14G11G25
  -6737212.09548  -5249773.89945  23898481.720    23898483.671
 -19079165.45249 -14866876.87846  21712521.479    21712520.907
 -12771140.32449  -9951535.39446  21348564.594    21348564.613
    447830.81748    348960.39545  23626020.463    23626021.224
  -8266282.32248  -6441259.76145  23312592.485    23312594.510
  -3095915.39849  -2412401.62145  22863211.775    22863211.147
 -12384220.95248  -9650042.67445  22987991.489    22987992.018
 -24034453.32649 -18728141.02847  20515528.934    20515528.711
 02  1  4  0  7 30.0000000  0  8G 1G20G29G30G22G14G11G25
  -6817982.01348  -5312711.44345  23883112.924    23883113.115
 -19152487.95649 -14924011.28746  21698568.673    21698568.586
 -12722045.40249  -9913279.62146  21357907.017    21357907.114
    500251.62148    389807.78545  23635995.922    23635996.800
  -8378103.43748  -6528393.10844  23291313.640    23291315.351
  -3021101.69949  -2354105.25045  22877448.075    22877447.580
 -12319741.52248  -9599798.96645  23000262.502    23000261.060
 -24017462.94349 -18714901.76747  20518762.243    20518762.049
 02  1  4  0  8  0.0000000  0  8G 1G20G29G30G22G14G11G25
  -6898689.49148  -5375600.37645  23867754.810    23867756.851
 -19225456.30049 -14980869.73346  21684683.844    21684683.311
 -12672746.37149  -9874864.79747  21367288.708    21367288.394
    553191.41648    431059.58145  23646070.460    23646069.291
  -8489812.73648  -6615439.28644  23270055.646    23270057.174
  -2946161.46949  -2295710.28745  22891709.388    22891707.886
 -12254915.05948  -9549284.85945  23012599.052    23012597.714
 -24000051.54349 -18701334.44347  20522075.510    20522075.337
 02  1  4  0  8 30.0000000  0  8G 1G20G29G30G22G14G11G25
  -6979337.14048  -5438442.66645  23852407.463    23852408.863
 -19298071.01449 -15037452.62646  21670865.233    21670864.743
 -12623246.42249  -9836293.41746  21376707.797    21376707.597
    606645.62748    472712.18645  23656241.981    23656242.273
  -8601410.05348  -6702398.24245  23248819.351    23248819.272
  -2871098.36349  -2237219.58645  22905992.726    22905992.802
 -12189747.00948  -9498504.55945  23024998.768    23024998.371
 -23982223.24849 -18687442.26447  20525468.124    20525467.957
 02  1  4  0  9  0.0000000  0  8G 1G20G29G30G22G14G11G25
  -7059933.18148  -5501244.74845  23837070.932    23837072.428
 -19370338.31749 -15093764.80746  21657113.127    21657112.710
 -12573554.32049  -9797572.30746  21386163.774    21386163.664
    660603.80748    514757.50745  23666510.699    23666508.795
  -8712900.61148  -6789273.99545  23227603.460    23227603.635
  -2795921.32849  -2178640.11745  22920298.789    22920298.176
 -12124249.01048  -9447467.16645  23037464.133    23037464.655
 -23963987.78649 -18673232.81647  20528938.180    20528938.067
 02  1  4  0  9 30.0000000  0  8G 1G20G29G30G22G14G11G25
  -7140465.12948  -5563996.86945  23821745.396    23821748.076
 -19442243.88749 -15149795.11746  21643430.332    21643430.257
 -12523658.26749  -9758692.27546  21395658.826    21395659.032
    715076.38848    557203.70445  23676876.445    23676876.380
  -8824269.24948  -6876054.72745  23206410.851    23206411.940
  -2720618.69749  -2119962.74545  22934628.681    22934627.597
 -12058411.49248  -9396165.20345  23049991.586    23049990.597
 -23945334.28849 -18658697.61347  20532487.703    20532487.569
 02  1  4  0 10  0.0000000  0  8G 1G20G29G30G22G14G11G25
  -7220931.71648  -5626698.09345  23806433.850    23806436.228
 -19513784.37749 -15205540.95646  21629816.489    21629816.018
 -12473557.51449  -9719652.73946  21405192.803    21405192.711
    770062.36048    600049.88845  23687339.182    23687338.138
  -8935511.76948  -6962737.20045  23185241.823    23185241.360
  -2645189.89649  -2061187.09145  22948981.686    22948981.811
 -11992236.33748  -9344600.16545  23062584.664    23062584.168
 -23926263.08849 -18643836.93147  20536116.796    20536116.403
 02  1  4  0 10 30.0000000  0  8G 1G20G29G30G22G14G11G25
  -7301321.44748  -5689339.42645  23791136.694    23791138.681
 -19584946.07449 -15260991.62346  21616274.761    21616274.237
 -12423241.04349  -9680445.11246  21414767.710    21414767.527
    825571.17748    643303.50545  23697902.913    23697901.780
  -9046614.03748  -7049310.38745  23164100.393    23164102.663
  -2569624.34849  -2002304.87445  22963362.095    22963361.787
 -11925715.28848  -9292765.59945  23075243.372    23075243.831
 -23906764.50349 -18628643.22147  20539827.498    20539827.247
 02  1  4  0 11  0.0000000  0  8G 1G20G29G30G22G14G11G25
  -7381625.07748  -5751913.63545  23775855.008    23775856.713
 -19655717.83749 -15316138.44946  21602807.450    21602806.783
 -12372700.14849  -9641062.61446  21424385.293    21424385.054
    881610.01848    686970.13045  23708566.532    23708568.099
  -9157563.60448  -7135764.58045  23142986.816    23142987.973
  -2493913.41949  -1943309.35845  22977769.556    22977768.378
 -11858842.21548  -9240656.73245  23087968.304    23087967.142
 -23886830.67049 -18613110.36047  20543620.694    20543620.393
 02  1  4  0 11 30.0000000  0  8G 1G20G29G30G22G14G11G25
  -7461860.21348  -5814434.49245  23760586.332    23760587.986
 -19726114.86249 -15370993.26746  21589411.662    21589411.049
 -12321952.65249  -9601519.12046  21434042.047    21434041.938
    938159.33848    731034.54145  23719327.253    23719328.937
  -9268375.08848  -7222111.19045  23121900.721    23121900.079
  -2418075.24849  -1884214.70845  22992200.633    22992199.839
 -11791637.09748  -9188289.12145  23100758.574    23100758.251
 -23866480.62249 -18597253.17147  20547493.213    20547492.963
 02  1  4  0 12  0.0000000  0  8G 1G20G29G30G22G14G11G25
  -7542040.00748  -5876912.21445  23745328.255    23745330.501
 -19796148.15849 -15425564.66646  21576084.221    21576083.822
 -12271012.44549  -9561825.47246  21443736.034    21443735.741
    995203.68048    775484.67044  23730182.524    23730182.028
  -9379058.88048  -7308358.29345  23100837.981    23100838.202
  -2342123.60149  -1825031.62945  23006654.062    23006654.218
 -11724116.11048  -9135675.36645  23113605.883    23113605.094
 -23845729.23549 -18581083.26347  20551442.338    20551442.062
 02  1  4  0 12 30.0000000  0  8G 1G20G29G30G22G14G11G25
  -7622149.16048  -5939334.87045  23730085.006    23730088.147
 -19865800.54149 -15479839.24946  21562830.222    21562829.841
 -12219864.42849  -9521969.88646  21453469.325    21453469.135
   1052756.44248    820330.96444  23741134.530    23741137.368
  -9489596.61148  -7394491.57445  23079803.025    23079804.561
  -2266043.86549  -1765748.74445  23021131.500    23021131.076
 -11656267.14648  -9082806.04545  23126517.648    23126517.238
 -23824562.89349 -18564590.00847  20555470.252    20555469.869
 02  1  4  0 13  0.0000000  0  8G 1G20G29G30G22G14G11G25
  -7702184.95148  -6001700.37445  23714854.529    23714854.934
 -19935067.22349 -15533813.28246  21549648.795    21549648.525
 -12168506.70449  -9481950.89446  21463242.008    21463242.135
   1110817.69348    865573.54344  23752183.264    23752183.024
  -9599982.76048  -7480506.75845  23058797.497    23058800.182
  -2189834.39649  -1706364.75945  23035633.606    23035633.009
 -11588091.11448  -9029681.86945  23139491.736    23139493.527
 -23802980.35749 -18547772.45047  20559576.934    20559576.583
 02  1  4  0 13 30.0000000  0  8G 1G20G29G30G22G14G11G25
  -7782158.46948  -6064017.32445  23699634.295    23699636.227
 -20003957.31649 -15587493.87046  21536539.421    21536538.750
 -12116950.94949  -9441777.59046  21473052.916    21473052.733
   1169374.43148    911202.63244  23763325.325    23763326.636
  -9710225.62848  -7566410.27745  23037818.282    23037819.374
  -2113507.03449  -1646888.90445  23050158.042    23050157.564
 -11519602.16848  -8976313.86844  23152523.687    23152522.792
 -23780994.42149 -18530640.54947  20563760.383    20563760.152
 02  1  4  0 14  0.0000000  0  8G 1G20G29G30G22G14G11G25
  -7862073.53548  -6126288.76045  23684429.424    23684428.889
 -20072472.47549 -15640882.30346  21523501.554    21523500.921
 -12065201.42649  -9401453.30546  21482900.431    21482900.373
   1228420.34848    957212.94744  23774562.140    23774562.194
  -9820326.00748  -7652202.77045  23016867.552    23016868.114
  -2037066.24849  -1587324.68145  23064704.637    23064703.521
 -11450807.07648  -8922707.33444  23165614.931    23165615.412
 -23758610.57349 -18513198.59247  20568020.139    20568019.788
 02  1  4  0 14 30.0000000  0  8G 1G20G29G30G22G14G11G25
  -7941915.56548  -6188503.25645  23669233.428    23669236.588
 -20140596.38249 -15693965.86646  21510537.664    21510537.282
 -12013243.97449  -9360967.00046  21492787.966    21492787.840
   1287968.00948   1003613.70944  23785893.899    23785894.147
  -9930266.42148  -7737870.62145  22995946.625    22995948.334
  -1960498.30848  -1527661.36945  23079274.798    23079275.380
 -11381694.29648  -8868853.20244  23178767.266    23178765.095
 -23735815.63649 -18495436.30147  20572357.922    20572357.509
 02  1  4  0 15  0.0000000  0  8G 1G20G29G30G22G14G11G25
  -8021670.25548  -6250649.68545  23654058.466    23654059.531
 -20208312.37349 -15746731.56946  21497652.433    21497651.574
 -11961065.10749  -9320308.16546  21502716.921    21502716.942
   1348029.18948   1050414.61044  23797322.795    23797323.915
 -10040029.70248  -7823400.44445  22975059.618    22975062.278
  -1883789.60648  -1467888.38945  23093871.958    23093871.170
 -11312253.02048  -8814743.14544  23191981.338    23191982.328
 -23712597.47849 -18477344.22447  20576776.032    20576775.501
 02  1  4  0 15 30.0000000  0  8G 1G20G29G30G22G14G11G25
  -8101355.26648  -6312741.81645  23638893.531    23638896.751
 -20275636.39949 -15799191.84646  21484840.518    21484839.980
 -11908682.81349  -9279490.81046  21512685.020    21512685.178
   1408583.95148   1097600.14244  23808845.831    23808846.400
 -10149630.76548  -7908803.85545  22954202.820    22954204.135
  -1806958.64549  -1408020.12445  23108493.185    23108491.181
 -11242503.92948  -8760393.24244  23205253.746    23205250.094
 -23688975.44849 -18458937.44347  20581271.034    20581270.620
 02  1  4  0 16  0.0000000  0  8G 1G20G29G30G22G14G11G25
  -8180964.18748  -6374774.71345  23623743.828    23623747.001
 -20342559.65849 -15851339.83846  21472105.715    21472105.113
 -11856091.15849  -9238510.31546  21522692.750    21522692.686
   1469636.67248   1145173.69044  23820463.517    23820465.269
 -10259059.97748  -7994073.38245  22933379.140    22933379.500
  -1729999.38048  -1348051.89045  23123137.221    23123136.182
 -11172443.55648  -8705800.72944  23218586.071    23218586.993
 -23664944.74749 -18440212.22447  20585844.256    20585843.777
 02  1  4  0 16 30.0000000  0  8G 1G20G29G30G22G14G11G25
  -8260508.86548  -6436757.50345  23608606.608    23608611.196
 -20409092.32949 -15903183.47346  21459445.618    21459444.838
 -11803302.62249  -9197376.40646  21532738.040    21532738.157
   1531172.80548   1193123.94244  23832174.367    23832173.782
 -10368326.41348  -8079216.05545  22912586.195    22912587.199
  -1652924.76848  -1287993.78345  23137804.039    23137803.709
 -11102087.14148  -8650977.55344  23231974.768    23231974.332
 -23640519.02749 -18421179.19747  20590492.462    20590492.002
 02  1  4  0 17  0.0000000  0  8G 1G20G29G30G22G14G11G25
  -8339979.22148  -6498682.38345  23593484.510    23593486.282
 -20475222.22249 -15954713.25846  21446860.696    21446860.088
 -11750307.54649  -9156081.55746  21542822.788    21542822.704
   1593200.23848   1241456.97544  23843977.239    23843978.532
 -10477417.17248  -8164221.83545  22891827.236    22891827.010
  -1575725.35348  -1227838.40745  23152495.112    23152494.873
 -11031427.67548  -8595918.23244  23245420.139    23245419.190
 -23615689.65349 -18401831.63547  20595217.201    20595216.615
 02  1  4  0 17 30.0000000  0  8G 1G20G29G30G22G14G11G25
  -8419374.84448  -6560549.04745  23578376.955    23578377.831
 -20540947.02749 -16005927.39646  21434353.769    21434353.291
 -11697106.29449  -9114626.05746  21552946.463    21552946.065
   1655716.92848   1290171.28144  23855873.488    23855871.224
 -10586329.04648  -8249088.21745  22871102.321    22871102.829
  -1498401.49448  -1167586.07245  23167208.609    23167208.863
 -10960468.11248  -8540625.09744  23258923.632    23258921.916
 -23590458.31349 -18382170.85047  20600018.502    20600017.976
 02  1  4  0 18  0.0000000  0  8G 1G20G29G30G22G14G11G25
  -8498699.80048  -6622360.64045  23563280.767    23563283.657
 -20606268.72149 -16056827.41746  21421923.367    21421922.894
 -11643703.61649  -9073013.60146  21563108.682    21563108.758
   1718716.30948   1339261.68944  23867862.507    23867861.919
 -10695063.19548  -8333816.13245  22850410.507    22850411.122
  -1420958.19348  -1107240.67145  23181945.955    23181946.222
 -10889215.70248  -8485103.71744  23272482.803    23272483.384
 -23564830.48749 -18362201.11247  20604895.400    20604894.837
 02  1  4  0 18 30.0000000  0  8G 1G20G29G30G22G14G11G25
  -8577954.59648  -6684117.56445  23548198.509    23548201.962
 -20671185.85249 -16107412.19646  21409570.162    21409569.519
 -11590100.17949  -9031244.70746  21573309.498    21573309.491
   1782195.62248   1388726.08344  23879942.234    23879941.907
 -10803617.00648  -8418403.50845  22829753.312    22829754.223
  -1343396.32948  -1046802.87645  23196705.779    23196705.337
 -10817674.07548  -8429356.99644  23286096.409    23286097.377
 -23538808.32749 -18341924.11047  20609847.132    20609846.596
 02  1  4  0 19  0.0000000  0  8G 1G20G29G30G22G14G11G25
  -8657131.66248  -6745813.93945  23533134.115    23533134.624
 -20735689.00549 -16157674.39346  21397295.655    21397295.378
 -11536289.06549  -8989313.98846  21583549.456    21583549.232
   1846159.98848   1438568.44244  23892114.121    23892114.083
 -10911980.25548  -8502842.39745  22809132.886    22809132.997
  -1265709.33548   -986267.58445  23211488.754    23211489.328
 -10745838.86348  -8373381.52644  23299765.721    23299765.581
 -23512386.69949 -18321335.83147  20614875.086    20614874.518
 02  1  4  0 19 30.0000000  0  8G 1G20G29G30G22G14G11G25
  -8736238.98048  -6807455.96845  23518078.831    23518080.890
 -20799784.22549 -16207618.71946  21385098.571    21385098.159
 -11482279.04249  -8947228.27646  21593827.013    21593826.876
   1910598.72748   1488780.45644  23904376.095    23904375.555
 -11020157.95348  -8587136.70145  22788547.117    22788548.200
  -1187906.08648   -925641.70345  23226294.484    23226293.626
 -10673721.50248  -8317186.22644  23313490.420    23313489.069
 -23485575.22349 -18300443.77747  20619977.186    20619976.581
 02  1  4  0 20  0.0000000  0  8G 1G20G29G30G22G14G11G25
  -8815273.81548  -6869041.52045  23503039.865    23503040.537
 -20863466.67849 -16257241.40946  21372980.368    21372979.904
 -11428067.60449  -8904985.60646  21604143.283    21604143.199
   1975512.41848   1539362.52144  23916729.253    23916730.324
 -11128144.36848  -8671281.95845  22767997.815    22767998.636
  -1109984.64648   -864923.71945  23241122.373    23241122.833
 -10601322.39148  -8260771.36444  23327267.190    23327266.876
 -23458372.49549 -18279246.86047  20625153.820    20625153.302
 02  1  4  0 20 30.0000000  0  8G 1G20G29G30G22G14G11G25
  -8894239.58448  -6930573.26145  23488012.782    23488012.989
 -20926737.94249 -16306543.69146  21360940.154    21360939.659
 -11373658.99049  -8862589.30046  21614496.783    21614496.893
   2040895.00148   1590309.98344  23929170.890    23929170.630
 -11235940.09848  -8755278.60745  22747485.228    22747486.445
  -1031948.99848   -804116.73945  23255972.282    23255971.716
 -10528647.94348  -8204141.95444  23341096.604    23341096.373
 -23430783.66449 -18257749.07547  20630403.568    20630403.054
 02  1  4  0 21  0.0000000  0  8G 1G20G29G30G22G14G11G25
  -8973116.58648  -6992035.82445  23473003.011    23473003.336
 -20989576.16549 -16355508.53746  21348982.963    21348982.627
 -11319033.82049  -8820024.25046  21624891.727    21624891.520
   2106763.84048   1641636.34144  23941705.133    23941705.660
 -11343522.44548  -8839108.98445  22727012.526    22727013.326
   -953780.05348   -743205.89345  23270847.687    23270846.995
 -10455681.96948  -8147285.36744  23354982.574    23354979.063
 -23402791.01049 -18235936.61747  20635730.386    20635729.854
 02  1  4  0 21 30.0000000  0  8G 1G20G29G30G22G14G11G25
  -9051906.77448  -7053430.71645  23458010.217    23458010.717
 -21051981.54749 -16404136.10346  21337107.192    21337106.689
 -11264194.68849  -8777292.47646  21635327.162    21635326.879
   2173114.31348   1693338.02744  23954330.976    23954332.943
 -11450890.51248  -8922772.39745  22706581.450    22706582.169
   -875480.59948   -682193.35445  23285746.983    23285746.731
 -10382429.55548  -8090205.60544  23368921.057    23368919.495
 -23374398.55849 -18213812.62847  20641133.617    20641133.082
 02  1  4  0 22  0.0000000  0  8G 1G20G29G30G22G14G11G25
  -9130620.97648  -7114766.44945  23443031.042    23443032.526
 -21113963.24949 -16452433.53046  21325312.086    21325311.674
 -11209153.10549  -8734402.95746  21645801.387    21645801.134
   2239932.89848   1745404.42044  23967046.263    23967046.892
 -11558052.34048  -9006275.10445  22686188.998    22686189.506
   -797062.42248   -621088.30645  23300669.799    23300668.272
 -10308904.78048  -8032913.58844  23382912.379    23382910.844
 -23345618.99549 -18191386.99647  20646609.995    20646609.433
 02  1  4  0 22 30.0000000  0  8G 1G20G29G30G22G14G11G25
  -9209259.06548  -7176042.83045  23428066.459    23428068.661
 -21175519.00549 -16500399.05346  21313599.106    21313598.543
 -11153909.41649  -8691355.94846  21656313.914    21656313.626
   2307217.17948   1797833.73144  23979850.070    23979849.121
 -11665005.05348  -9089614.87245  22665837.023    22665838.325
   -718526.20448   -559891.27545  23315615.031    23315614.548
 -10235111.21348  -7975412.12144  23396955.010    23396953.625
 -23316453.77249 -18168660.84947  20652160.117    20652159.551
 02  1  4  0 23  0.0000000  0  8G 1G20G29G30G22G14G11G25
  -9287828.41448  -7237265.66645  23413115.925    23413116.244
 -21236654.50149 -16548037.10046  21301965.085    21301964.610
 -11098471.76849  -8648157.80646  21666863.669    21666863.305
   2374957.49248   1850618.37144  23992740.568    23992740.083
 -11771753.00048  -9172795.08945  22645523.239    22645523.783
   -639880.02148   -498608.52945  23330580.422    23330579.020
 -10161059.33848  -7917709.38444  23411046.717    23411046.129
 -23286912.48849 -18145641.67247  20657781.766    20657781.197
 02  1  4  0 23 30.0000000  0  8G 1G20G29G30G22G14G11G25
  -9366313.72448  -7298423.03145  23398180.396    23398180.271
 -21297352.33449 -16595334.11546  21290414.332    21290413.834
 -11042825.06149  -8604796.75346  21677452.658    21677452.268
   2443166.26048   1903768.05744  24005720.341    24005721.119
 -11878277.81748  -9255801.42845  22625251.485    22625253.506
   -561109.40848   -437228.87345  23345569.992    23345570.001
 -10086736.96548  -7859795.85944  23425189.436    23425189.131
 -23256981.29849 -18122318.67347  20663477.336    20663476.850
 02  1  4  0 24  0.0000000  0  8G 1G20G29G30G22G14G11G25
  -9444729.67548  -7359526.34945  23383258.554    23383259.618
 -21357625.28749 -16642300.05347  21278945.345    21278944.914
 -10986984.61249  -8561284.73746  21688078.598    21688078.394
   2511826.48748   1957269.47944  24018785.770    24018787.060
 -11984591.35048  -9338643.14045  22605021.529    22605020.935
   -482229.60248   -375764.11445  23360580.914    23360579.788
 -10012162.00048  -7801685.49744  23439380.512    23439379.383
 -23226676.43449 -18098704.50247  20669244.070    20669243.602
 02  1  4  0 24 30.0000000  0  8G 1G20G29G30G22G14G11G25
  -9523067.94448  -7420569.13445  23368350.941    23368351.582
 -21417463.18349 -16688926.98647  21267558.490    21267557.994
 -10930942.85149  -8517615.85146  21698743.117    21698742.735
   2580943.68948   2011127.04544  24031939.534    24031939.204
 -12090682.48548  -9421311.53445  22584832.734    22584834.941
   -403233.01548   -314208.35145  23375613.102    23375611.678
  -9937329.63748  -7743374.60644  23453620.810    23453622.903
 -23195991.97249 -18074794.54447  20675083.247    20675082.772
 02  1  4  0 25  0.0000000  0  8G 1G20G29G30G22G14G11G25
  -9601324.15348  -7481547.96345  23353458.935    23353461.346
 -21476859.79749 -16735210.06047  21256255.801    21256255.181
 -10874695.79449  -8473786.99946  21709446.443    21709446.166
   2650519.65848   2065342.06244  24045177.283    24045180.504
 -12196543.92248  -9503800.95645  22564688.442    22564689.350
   -324116.19548   -252558.88245  23390668.507    23390667.035
  -9862238.71548  -7684862.20844  23467910.085    23467909.045
 -23164925.46649 -18050586.88747  20680995.036    20680994.525
 02  1  4  0 25 30.0000000  0  8G 1G20G29G30G22G14G11G25
  -9679502.23048  -7542465.89845  23338582.086    23338583.687
 -21535817.37849 -16781151.03447  21245036.061    21245035.576
 -10818248.16549  -8429801.85246  21720188.195    21720187.831
   2720547.63248   2119909.34344  24058503.996    24058505.121
 -12302176.91548  -9586112.36645  22544587.265    22544587.962
   -244883.92648   -190819.45245  23405745.804    23405746.811
  -9786896.72748  -7626154.14044  23482246.996    23482247.374
 -23133482.67049 -18026086.01347  20686978.320    20686977.887
 02  1  4  0 26  0.0000000  0  8G 1G20G29G30G22G14G11G25
  -9757595.87548  -7603318.06845  23323721.849    23323722.496
 -21594327.79549 -16826743.56747  21233902.072    21233901.734
 -10761594.22049  -8385655.94246  21730968.791    21730968.988
   2791031.18048   2174831.55844  24071916.852    24071916.161
 -12407572.23448  -9668238.57445  22524531.076    22524533.088
   -165530.61448   -128985.74445  23420846.412    23420846.447
  -9711300.77048  -7567248.25144  23496633.270    23496631.216
 -23101659.33749 -18001288.61447  20693033.919    20693033.524
 02  1  4  0 26 30.0000000  0  8G 1G20G29G30G22G14G11G25
  -9835615.56348  -7664112.60145  23308874.602    23308875.707
 -21652399.60149 -16871994.32647  21222851.494    21222851.077
 -10704744.86749  -8341357.77246  21741787.017    21741787.194
   2861957.44348   2230098.72044  24085414.200    24085413.946
 -12512737.30049  -9750185.36145  22504518.675    22504518.614
    -86067.75748    -67066.65245  23435967.280    23435967.704
  -9635464.41548  -7508154.97444  23511063.969    23511064.468
 -23069467.44549 -17976204.03147  20699159.884    20699159.562
 02  1  4  0 27  0.0000000  0  8G 1G20G29G30G22G14G11G25
  -9913567.00548  -7724853.94045  23294040.930    23294042.194
 -21710037.00449 -16916906.58747  21211883.503    21211882.867
 -10647706.79849  -8296912.54946  21752641.177    21752640.823
   2933317.67148   2285704.10744  24098993.832    24098992.305
 -12617675.29048  -9831955.20745  22484549.417    22484550.482
     -6501.73548     -5067.15745  23451108.606    23451109.091
  -9559396.81048  -7448881.51844  23525538.733    23525538.926
 -23036914.88949 -17950838.39847  20705354.345    20705353.974
 02  1  4  0 27 30.0000000  0  8G 1G20G29G30G22G14G11G25
  -9991435.29648  -7785530.49545  23279223.683    23279224.093
 -21767223.00649 -16961467.10847  21201001.241    21201000.880
 -10590465.48649  -8252308.95146  21763533.550    21763533.774
   3005123.99648   2341657.05944  24112656.861    24112655.142
 -12722368.32848  -9913534.17345  22464626.832    22464627.335
     73181.56948     57023.71745  23466272.003    23466271.368
  -9483086.38448                  23540060.458
 -23003988.61049 -17925181.54947  20711620.028    20711619.656
 02  1  4  0 28  0.0000000  0  8G 1G20G29G30G22G14G11G25
 -10069221.58148  -7846143.16345  23264421.303    23264421.745
 -21823957.10449 -17005675.49847  21190205.300    21190204.975
 -10533022.51849  -8207548.22146  21774464.663    21774464.611
   3077372.85348   2397954.88044  24126405.899    24126405.490
 -12826814.49849  -9994920.77745  22444751.654    22444753.109
    152980.27348    119204.50145  23481457.105    23481456.638
  -9406537.66848  -7329770.52144  23554626.557    23554628.417
 -22970691.62449 -17899235.84447  20717956.342    20717955.957
 02  1  4  0 28 30.0000000  0  8G 1G20G29G30G22G14G11G25
 -10146921.23848  -7906688.32245  23249635.146    23249635.339
 -21880232.79349 -17049526.68147  21179496.280    21179495.869
 -10475373.89649  -8162627.23746  21785434.817    21785435.203
   3150065.98748   2454598.90444  24140238.378    24140238.494
 -12931006.38749 -10076109.26045  22424924.539    22424925.013
    232898.24348    181478.23445  23496664.806    23496663.294
  -9329749.37848  -7269935.49044  23569240.214    23569239.080
 -22937021.41449 -17872999.32047  20724363.333    20724363.020
 02  1  4  0 29  0.0000000  0  8G 1G20G29G30G22G14G11G25
 -10224535.07748  -7967166.61045  23234865.277    23234867.363
 -21936048.98849 -17093019.81947  21168874.640    21168874.191
 -10417521.09749  -8117547.16246  21796444.070    21796443.983
   3223199.96848   2511586.36744  24154155.645    24154156.114
 -13034941.93049 -10157097.98345  22405146.017    22405147.500
    312933.93848    243843.69845  23511895.383    23511895.076
  -9252725.74248                  23583894.840
 -22902980.78849 -17846474.15447  20730840.663    20730840.409
 02  1  4  0 29 30.0000000  0  8G 1G20G29G30G22G14G11G25
 -10302068.92948  -8027582.56145  23220111.601    23220112.011
 -21991410.31049 -17136158.51447  21158339.792    21158339.248
 -10359470.82149  -8072313.19546  21807490.707    21807490.338
   3296765.64548   2568910.24244  24168154.693    24168157.952
 -13138624.37549 -10237889.48645  22385416.108    22385417.753
    393080.29848    306295.37545  23527146.500    23527146.468
  -9175476.06248                  23598597.014
 -22868577.66249 -17819666.51847  20737387.718    20737387.437
 02  1  4  0 30  0.0000000  0  8G 1G20G29G30G22G14G11G25
 -10379508.93048  -8087925.39645  23205375.596    23205375.993
 -22046300.81649 -17178930.33547  21147894.533    21147894.201
 -10301209.79049  -8026915.01046  21818577.332    21818577.570
   3370774.50348   2626579.48844  24182238.001    24182236.504
 -13242036.95049 -10318470.70045  22365737.322    22365739.350
    473350.57248    368843.62045  23542421.948    23542421.597
  -9097989.91647                  23613339.817
 -22833799.94249 -17792566.99647  20744005.848    20744005.564
 02  1  4  0 30 30.0000000  0  8G 1G20G29G30G22G14G11G25
 -10456866.97848  -8148204.36445  23190654.437    23190655.553
 -22100730.81749 -17221343.32247  21137536.892    21137536.465
 -10242750.44049  -7981362.29046  21829701.764    21829701.478
   3445211.61948   2684582.42644  24196403.991    24196404.549
 -13345188.61749 -10398848.59845  22346108.109    22346107.726
    553732.01148    431478.49545  23557717.249    23557716.142
  -9020282.56548                  23628128.370
 -22798661.39349 -17765186.30447  20750692.371    20750692.315
 02  1  4  0 31  0.0000000  0  8G 1G20G29G30G22G14G11G25
 -10534134.35248  -8208412.66645  23175951.023    23175952.808
 -22154689.89349 -17263389.35647  21127268.913    21127268.431
 -10184084.50049  -7935648.60646  21840865.599    21840865.273
   3520083.01648   2742923.72444  24210649.875    24210652.092
 -13448067.89449 -10479014.25045  22326530.901    22326531.748
    634232.61448    494206.21345  23573036.267    23573036.018
  -8942348.44448                  23642959.480
 -22763155.46149 -17737519.34547  20757449.035    20757448.814
 02  1  4  0 31 30.0000000  0  8G 1G20G29G30G22G14G11G25
 -10611316.73448  -8268554.74745  23161264.158    23161263.028
 -22208181.93249 -17305071.46447  21117089.708    21117089.292
 -10125218.39749  -7889778.92946  21852067.702    21852067.788
   3595380.10848   2801596.76044  24224979.558    24224976.821
 -13550677.56149 -10558969.82345  22307005.043    22307006.178
    714845.90048    557021.73845  23588376.946    23588377.099
  -8864196.90848                  23657830.518
 -22727289.66249 -17709571.96647  20764274.276    20764273.794
 02  1  4  0 32  0.0000000  0  8G 1G20G29G30G22G14G11G25
 -10688410.28648  -8328627.61145  23146592.741    23146593.536
 -22261201.36949 -17346385.31247  21107000.707    21107000.164
 -10066148.82849  -7843750.73246  21863308.001    21863307.715
   3671103.91248   2860602.31944  24239389.633    24239386.493
 -13653010.99249 -10638710.15445  22287531.408    22287532.475
    795574.77248    619927.32445  23603738.336    23603738.551
  -8785827.58848                  23672744.600
 -22691062.51249 -17681343.01347  20771167.883    20771167.649
 02  1  4  0 32 30.0000000  0  8G 1G20G29G30G22G14G11G25
 -10765427.02348  -8388640.60745  23131937.667    23131939.149
 -22313758.73449 -17387339.10547  21096999.064    21096998.786
 -10006888.52349  -7797573.89446  21874585.210    21874584.945
   3747239.55348   2919928.75144  24253878.353    24253878.338
 -13755077.40249 -10718242.39245  22268108.519    22268110.202
    876406.49348    682913.04945  23619121.192    23619119.224
  -8707255.64548                  23687695.042
 -22654487.72549 -17652843.17247  20778127.877    20778127.609
 02  1  4  0 33  0.0000000  0  8G 1G20G29G30G22G14G11G25
 -10842353.16448  -8448583.02345  23117299.092    23117299.318
 -22365838.52049 -17427920.75647  21087088.400    21087088.026
  -9947424.45849  -7751238.27846  21885900.527    21885900.002
   3823797.76748   2979584.49244  24268447.189    24268447.965
 -13856860.11449 -10797553.59645  22248739.991    22248740.971
    957353.66048    745988.75945  23634524.036    23634524.627
  -8628470.92048                  23702689.021
 -22617553.42849 -17624063.19547  20785156.387    20785156.041
 02  1  4  0 33 30.0000000  0  8G 1G20G29G30G22G14G11G25
 -10919194.87148  -8508459.65145  23102676.119    23102676.530
 -22417445.25849 -17468133.80047  21077268.031    21077267.428
  -9887763.28249  -7704749.07546  21897253.746    21897253.666
   3900769.58648   3039562.52544  24283093.089    24283095.893
 -13958362.76549 -10876646.54745  22229424.940    22229425.607
   1038409.68148    809149.25745  23649948.591    23649948.232
  -8549483.00448                  23717719.166
 -22580268.16049 -17595009.73547  20792251.432    20792251.087
 02  1  4  0 34  0.0000000  0  8G 1G20G29G30G22G14G11G25
 -10995942.91849  -8568263.28645  23088072.384    23088073.471
 -22468568.30649 -17507969.94547  21067539.711    21067539.257
  -9827896.70049  -7658099.82346  21908646.159    21908645.771
   3978161.09848   3099867.58644  24297821.560    24297822.844
 -14059573.27949 -10955511.87645  22210165.163    22210166.441
   1119582.70748    872400.95845  23665395.885    23665395.290
  -8470286.45948                  23732790.417
 -22542624.61849 -17565677.10047  20799414.797    20799414.583
 02  1  4  0 34 30.0000000  0  8G20G 1G29G30G22G14G11G25
 -22519219.06349 -17547438.07047  21057901.143    21057900.555
 -11072610.49648  -8628004.21545  23073481.863    23073483.113
  -9767838.32449  -7611301.11846  21920074.718    21920074.873
   4055956.35548   3160487.21744  24312624.689    24312625.242
 -14160501.92849 -11034157.56846  22190959.443    22190960.452
   1200858.80548    935732.97145  23680861.960    23680861.504
  -8390897.46648                  23747896.267
 -22504638.25149 -17536077.32847  20806643.500    20806643.364
 02  1  4  0 35  0.0000000  0  8G 1G20G29G30G22G14G11G25
 -11149190.91248  -8687677.24145  23058908.857    23058909.709
 -22569389.37749 -17586531.82547  21048353.927    21048353.559
  -9707582.27249  -7564348.37246  21931541.059    21931540.885
   4134159.05248   3221424.37044  24327506.650    24327505.375
 -14261139.35949 -11112576.33946  22171808.633    22171809.143
   1282243.86348    999149.86845  23696348.575    23696348.281
  -8311312.97748                  23763042.733
 -22466304.20549 -17506206.63647  20813937.898    20813937.667
 02  1  4  0 35 30.0000000  0  8G 1G20G29G30G22G14G11G25
 -11225686.54448  -8747284.19445  23044352.853    23044353.092
 -22619080.31749 -17625252.03747  21038898.435    21038897.987
  -9647131.65049  -7517244.02046  21943044.795    21943044.705
   4212763.61548   3282674.68944  24342464.590    24342465.134
 -14361485.25649 -11190767.92346  22152713.454    22152714.148
   1363734.13148   1062648.73045  23711856.136    23711855.047
  -8231539.02148                  23778222.851
 -22427627.15749 -17476068.67347  20821297.810    20821297.513
 02  1  4  0 36  0.0000000  0  8G20G 1G29G30G22G14G11G25
 -22668286.68649 -17663594.66647  21029534.471    21029534.096
 -11302093.96948  -8806822.43045  23029812.761    23029814.442
  -9586483.47649  -7469985.72446  21954585.549    21954585.336
   4291770.64848   3344238.53044  24357498.012    24357497.774
 -14461533.35849 -11268727.47446  22133674.722    22133675.346
   1445332.55848   1126231.91945  23727384.173    23727383.166
  -8151575.40648                  23793438.199
 -22388605.69449 -17445662.33247  20828723.379    20828723.208
 02  1  4  0 36 30.0000000  0  8G20G 1G29G30G22G14G11G25
 -22717003.51049 -17701555.82947  21020263.899    21020263.578
 -11378409.94949  -8866289.40145  23015291.015    23015291.050
  -9525635.36749  -7422571.62546  21966164.657    21966164.228
   4371180.54648   3406116.34144  24372610.586    24372611.410
 -14561277.68949 -11346450.31946  22114694.032    22114694.736
   1527041.38548   1189901.11345  23742932.397    23742932.926
  -8071422.52548                  23808693.093
 -22349238.43249 -17414986.53947  20836215.010    20836214.767
 02  1  4  0 37  0.0000000  0  8G20G 1G29G30G22G14G11G25
 -22765226.72549 -17739132.36247  21011087.686    21011087.252
 -11454631.79249  -8925683.03745  23000786.490    23000786.219
  -9464585.31349  -7375000.16946  21977781.817    21977782.022
   4450992.77348   3468307.68344  24387798.057    24387796.854
 -14660712.73449 -11423932.15246  22095772.223    22095773.010
   1608862.44848   1253657.73845  23758502.651    23758502.897
  -7991081.02248                  23823979.931
 -22309525.14149 -17384041.11847  20843771.740    20843771.447
 02  1  4  0 37 30.0000000  0  8G20G 1G29G30G22G14G11G25
 -22812955.68549 -17776323.76247  21002005.186    21002004.722
 -11530760.34048  -8985003.96545  22986298.381    22986300.271
  -9403334.68849  -7327272.43846  21989437.615    21989437.320
   4531203.73148   3530809.68644  24403062.011    24403061.796
 -14759836.58449 -11501171.50346  22076909.443    22076909.731
   1690794.33748   1317500.74645  23774094.073    23774092.699
  -7910555.41348                  23839303.989
 -22269468.17049 -17352827.89447  20851394.396    20851394.152
 02  1  4  0 38  0.0000000  0  8G20G 1G29G30G22G14G11G25
 -22860188.83049 -17813128.81247  20993016.892    20993016.508
 -11606795.38849  -9044252.03345  22971831.150    22971830.904
  -9341884.11849  -7279388.89746  22001131.375    22001131.058
   4611810.27348   3593620.03344  24418400.500    24418399.996
 -14858646.34349 -11578166.11346  22058106.743    22058107.756
   1772836.19148   1381429.44645  23789705.576    23789704.822
  -7829848.82448                  23854660.167
 -22229069.59449 -17321348.49047  20859082.073    20859081.848
 02  1  4  0 38 30.0000000  0  8G 1G20G29G30G22G14G11G25
 -11682742.72248  -9103431.76845  22957377.262    22957377.892
 -22906930.29149 -17849550.73347  20984122.232    20984121.813
  -9280239.96149  -7231354.51046  22012861.853    22012862.021
   4692803.75448   3656731.76544  24433812.925    24433812.625
 -14957145.13149 -11654918.39946  22039362.891    22039364.067
   1854981.17448   1445438.49445  23805338.022    23805337.100
  -7748970.66748                  23870052.793
 -22188337.41349 -17289609.12847  20866833.162    20866832.810
 02  1  4  0 39  0.0000000  0  8G 1G20G29G30G22G14G11G25
 -11758596.63648  -9162538.70245  22942942.836    22942944.279
 -22953173.10249 -17885584.09247  20975322.679    20975322.195
  -9218397.53449  -7183165.63746  22024630.122    22024630.080
   4774186.64948   3720146.97344  24449300.347    24449301.749
 -15055324.57449 -11731421.85246  22020680.412    22020681.051
   1937234.22848   1509531.76545  23820989.825    23820989.214
  -7667918.78147                  23885473.851
 -22147268.30349 -17257607.22347  20874648.444    20874648.082
 02  1  4  0 39 30.0000000  0  8G 1G20G29G30G22G14G11G25
 -11834355.26949  -9221571.37545  22928527.952    22928528.619
 -22998914.27949 -17921226.57347  20966618.340    20966618.051
  -9156355.81149  -7134821.46746  22036435.939    22036436.395
   4855957.51648   3783864.53744  24464859.908    24464861.014
 -15153180.29749 -11807673.05746  22002058.472    22002059.672
   2019596.13048   1573709.83145  23836662.680    23836662.784
  -7586695.01048                  23900933.055
 -22105862.53649 -17225342.99347  20882527.754    20882527.259
 02  1  4  0 40  0.0000000  0  8G 1G20G29G30G22G14G11G25
 -11910021.58148  -9280532.11145  22914127.033    22914128.464
 -23044154.88649 -17956478.99447  20958009.385    20958008.981
  -9094118.06649  -7086324.56846  22048279.755    22048279.686
   4938110.57348   3847879.84344  24480493.382    24480494.649
 -15250712.22549 -11883671.94546  21983499.019    21983500.480
   2102063.04148   1637969.72345  23852355.506    23852354.643
  -7505305.41847                  23916418.929
 -22064124.90849 -17192820.16647  20890470.249    20890469.796
 02  1  4  0 40 30.0000000  0  8G 1G20G29G30G22G14G11G25
 -11985595.81749  -9339421.11445  22899747.918    22899747.635
 -23088893.75649 -17991340.45947  20949495.812    20949495.377
  -9031685.33849  -7037675.70846  22060160.371    22060160.212
   5020642.61048   3912190.58144  24496199.479    24496199.569
 -15347917.96649 -11959416.67346  21965001.353    21965002.281
   2184633.78448   1702310.50745  23868069.101    23868067.163
  -7423753.73347                  23931937.712
 -22022058.03749 -17160040.78147  20898475.454    20898475.076
 02  1  4  0 41  0.0000000  0  8G 1G20G29G30G22G14G11G25
 -12061078.73348  -9398238.94845  22885383.018    22885384.310
 -23133130.47449 -18025810.63147  20941077.541    20941077.150
  -8969059.32149  -6988876.24446  22072077.695    22072077.639
   5103549.57648   3976793.34344  24511975.850    24511973.035
 -15444795.66549 -12034905.78746  21946565.737    21946566.983
   2267306.92648   1766731.10145  23883800.200    23883799.971
  -7342044.52147                  23947485.839
 -21979664.95349 -17127007.20647  20906542.408    20906541.906
 02  1  4  0 41 30.0000000  0  8G 1G20G29G30G22G14G11G25
 -12136468.01148  -9456983.80645  22871035.700    22871036.783
 -23176861.21449 -18059886.53247  20932756.178    20932755.848
  -8906238.01749  -6939924.59446  22084032.275    22084032.605
   5186830.93148   4041687.89044  24527823.840    24527824.549
 -15541340.26449 -12110135.32946  21928194.511    21928194.501
   2350084.01548   1831232.69645  23899552.517    23899552.635
  -7260178.74347                  23963065.636
 -21936945.18249 -17093719.07447  20914671.648    20914671.242
 02  1  4  0 42  0.0000000  0  7G 1G20G29G30G22G14G25
 -12211758.16249  -9515651.43145  22856711.024    22856710.409
 -23220079.29349 -18093562.96047  20924532.005    20924531.379
  -8843217.11349  -6890817.41746  22096024.776    22096024.611
   5270488.62648   4106875.66544  24543742.683    24543743.083
 -15637543.71649 -12185099.04546  21909886.904    21909888.204
   2432969.20248   1895818.52345  23915325.404    23915323.079
 -21893895.61049 -17060173.95647  20922863.750    20922863.303
 02  1  4  0 42 30.0000000  0  8G 1G20G29G30G22G14G11G25
 -12286939.70048  -9574234.43645  22842402.698    22842402.897
 -23262774.00949 -18126831.57347  20916407.538    20916407.119
  -8779987.58749  -6841547.67546  22108056.753    22108056.719
   5354529.18948   4172361.79444  24559735.534    24559733.967
 -15733393.85349 -12259787.45646  21891647.875    21891648.270
   2515971.25048   1960495.39845  23931119.488    23931119.087
         -.62057                  23994314.350
 -21850508.50649 -17026365.82447  20931120.146    20931119.773
 02  1  4  0 43  0.0000000  0  8G 1G20G29G30G22G14G11G25
 -12362025.18848  -9632742.59045  22828114.149    22828115.637
 -23304956.44649 -18159701.00847  20908380.728    20908380.153
  -8716562.94349  -6792125.89946  22120126.290    22120126.289
   5438936.88648   4238134.00644  24575797.694    24575797.301
 -15828900.51349 -12334208.21046  21873472.877    21873474.494
   2599076.66048   2025252.80645  23946934.344    23946934.235
     82335.83447                  24009982.176
 -21806798.84849 -16992306.35347  20939437.936    20939437.556
 02  1  4  0 43 30.0000000  0  8G 1G20G29G30G22G14G11G25
 -12437016.38749  -9691177.27546  22813845.201    22813845.115
 -23346627.19249 -18192171.72447  20900450.850    20900450.556
  -8652945.70149  -6742554.03446  22132232.430    22132232.198
   5523706.70048   4304188.40244  24591928.073    24591931.961
 -15924063.01349 -12408360.80446  21855364.817    21855365.397
   2682282.67348   2090088.61245  23962768.813    23962769.355
    164815.16747                  24025677.577
 -21762770.94349 -16957998.90247  20947815.873    20947815.656
 02  1  4  0 44  0.0000000  0  8G 1G20G29G30G22G14G11G25
 -12511903.43648  -9749530.79945  22799593.177    22799593.813
 -23387775.03049 -18224234.97947  20892620.586    20892620.268
  -8589126.58449  -6692824.86746  22144376.611    22144376.703
   5608845.26848   4370530.09844  24608130.472    24608127.872
 -16018868.75549 -12482235.39946  21837323.333    21837324.177
   2765597.96248   2155009.60144  23978622.041    23978619.729
    247443.61748                  24041401.871
 -21718416.96349 -16923437.36547  20956256.024    20956255.667
 02  1  4  0 44 30.0000000  0  8G 1G20G29G30G22G14G11G25
 -12586683.00849  -9807800.57146  22785363.549    22785365.382
 -23428395.43149 -18255887.24547  20884890.569    20884890.128
  -8525103.25749  -6642936.58246  22156559.701    22156560.082
   5694352.85248   4437159.38744  24624401.648    24624402.399
 -16113311.93249 -12555827.47746  21819351.692    21819352.507
   2849025.01448   2220017.62745  23994497.836    23994496.209
    330220.98148                  24057153.609
 -21673735.45749 -16888620.61547  20964758.835    20964758.811
 02  1  4  0 45  0.0000000  0  8G 1G20G29G30G22G14G11G25
 -12661366.70049  -9865995.63446  22771152.374    22771151.986
 -23468498.75749 -18287136.59247  20877259.194    20877258.777
  -8460887.92649  -6592898.68246  22168780.008    22168779.706
   5780214.66648   4504064.68644  24640740.537    24640744.575
 -16207401.25649 -12629143.82146  21801446.983    21801448.194
   2932551.41848   2285103.08845  24010392.831    24010392.989
    413132.15148                  24072931.980
 -21628740.09449 -16853559.30047  20973321.188    20973320.932
 02  1  4  0 45 30.0000000  0  8G 1G20G29G30G22G14G11G25
 -12735962.48248  -9924122.19446  22756954.647    22756956.024
 -23508091.74349 -18317988.27247  20869725.210    20869724.801
  -8396489.29149  -6542717.94946  22181034.587    22181034.316
   5866419.49648   4571237.22044  24657145.218    24657146.143
 -16301142.26649 -12702188.75146  21783608.597    21783609.425
   3016168.31548   2350259.07045  24026304.699    24026303.729
    496165.56348                  24088732.473
 -21583441.40849 -16818261.62847  20981941.107    20981940.800
 02  1  4  0 46  0.0000000  0  8G 1G20G29G30G22G14G11G25
 -12810458.19449  -9982170.77046  22742781.254    22742781.738
 -23547161.08549 -18348431.92047  20862290.586    20862290.274
  -8331896.17249  -6492385.66346  22193325.624    22193326.086
   5952976.17648   4638683.96944  24673615.443    24673614.377
 -16394520.33949 -12774950.87946  21765839.655    21765841.051
   3099886.79348   2415494.19845  24042235.263    24042234.024
    579329.90648                  24104556.919
 -21537829.38049 -16782719.79847  20990620.641    20990620.439
 02  1  4  0 46 30.0000000  0  8G 1G20G29G30G22G14G11G25
 -12884854.36949 -10040141.79346  22728623.606    22728624.305
 -23585706.16749 -18378467.04947  20854955.403    20854954.956
  -8267109.92749  -6441902.90146  22205654.745    22205654.351
   6039880.87748   4706401.88744  24690153.635    24690156.885
 -16487533.46649 -12847428.63246  21748139.612    21748140.161
   3183705.43148   2480807.37244  24058185.498    24058184.720
    662620.79748                  24120408.186
 -21491906.94749 -16746936.08947  20999359.549    20999359.095
 02  1  4  0 47  0.0000000  0  8G 1G20G29G30G22G14G11G25
 -12959136.88149 -10098024.25346  22714486.872    22714488.009
 -23623711.67949 -18408081.73947  20847723.233    20847722.769
  -8202117.04049  -6391259.10646  22218022.180    22218022.060
   6127144.67048   4774399.63944  24706759.092    24706760.243
 -16580164.64849 -12919608.77246  21730512.836    21730513.553
   3267637.30048   2546208.78745  24074157.792    24074157.432
    746049.14848                  24136284.203
 -21445661.97149 -16710901.04647  21008159.600    21008159.287
 02  1  4  0 47 30.0000000  0  8G 1G20G29G30G22G14G11G25
 -13033321.36849 -10155830.32046  22700372.151    22700371.589
 -23661192.23549 -18437287.37047  20840590.974    20840590.418
  -8136934.10349  -6340467.23246  22230426.016    22230425.756
   6214748.72248   4842662.48344  24723429.707    24723429.063
 -16672427.29949 -12991501.74246  21712955.101    21712956.285
   3351665.80348   2611685.47945  24090147.439    24090149.418
    829595.62848                  24152181.080
 -21399112.36649 -16674628.63147  21017017.727    21017017.450
 02  1  4  0 48  0.0000000  0  8G 1G20G29G30G22G14G11G25
 -13107401.40349 -10213555.01346  22686273.802    22686274.759
 -23698140.22949 -18466078.02147  20833559.998    20833559.504
  -8071555.34349  -6289522.76546  22242866.952    22242867.247
   6302695.91848   4911192.71644  24740165.502    24740166.236
 -16764312.17649 -13063100.34346  21695470.737    21695471.636
   3435796.28548   2677241.64644  24106156.748    24106153.912
    913263.01648                  24168103.757
 -21352253.74849 -16638115.43147  21025935.023    21025934.386
 02  1  4  0 48 30.0000000  0  8G 1G20G29G30G22G14G11G25
 -13181384.24949 -10271203.96046  22672195.502    22672196.025
 -23734561.72449 -18494458.41047  20826629.169    20826628.703
  -8005988.83049  -6238431.99446  22255344.359    22255343.896
   6390975.98148   4979982.40544  24756964.348    24756966.615
 -16855824.08649 -13134408.31246  21678056.055    21678057.005
   3520020.78348   2742871.07045  24122185.202    24122182.079
    997040.64648                  24184045.738
 -21305095.78149 -16601368.97147  21034908.773    21034908.335
 02  1  4  0 49  0.0000000  0  8G 1G20G29G30G22G14G11G25
 -13255244.75949 -10328757.58846  22658141.111    22658140.621
 -23770430.72949 -18522408.28947  20819803.321    20819802.819
  -7940210.39649  -6187176.09046  22267861.135    22267861.113
   6479610.44948   5049048.11644  24773831.466    24773828.159
 -16946935.62549 -13205404.32046  21660718.601    21660719.429
   3604363.07548   2808592.28244  24138233.752    24138233.838
   1080949.66148                  24200013.768
 -21257615.73149 -16564371.53347  21043943.859    21043943.282
 02  1  4  0 49 30.0000000  0  7G 1G20G29G22G14G11G25
 -13329005.93149 -10386233.79946  22644103.647    22644104.169
 -23805769.23149 -18549944.78447  20813078.780    20813078.366
  -7874243.97949  -6135773.71846  22280414.436    22280414.288
 -17037667.23249 -13276104.27046  21643452.506    21643453.938
   3688799.08348   2874386.52244  24154302.319    24154300.638
   1164963.74948                  24215999.059
 -21209838.82149 -16527142.77547  21053035.513    21053035.055
 02  1  4  0 50  0.0000000  0  8G 1G20G29G 4G22G14G11G25
 -13402662.10249 -10443628.18946  22630087.969    22630088.288
 -23840570.50249 -18577062.65947  20806456.446    20806456.053
  -7808084.62049  -6084220.99146  22293004.169    22293003.748
         -.69358                  25327843.850
 -17128010.76649 -13346501.83146  21626260.990    21626261.456
   3773333.64748   2940257.55444  24170388.474    24170386.682
   1249084.64048                  24232008.982
 -21161761.45749 -16489679.89547  21062184.212    21062183.573
 02  1  4  0 50 30.0000000  0  8G 1G20G29G 4G22G14G11G25
 -13476223.15749 -10500948.47346  22616089.717    22616090.267
 -23874843.61349 -18603768.98347  20799934.586    20799934.071
  -7741743.22749  -6032526.41746  22305628.723    22305628.537
    -53372.92048                  25317687.088
 -17217973.80449 -13416602.90346  21609141.038    21609142.415
   3857955.93448   3006196.94344  24186491.201    24186492.195
   1333298.93148   1038934.48144  24248032.556    24248032.693
 -21113396.08749 -16451992.59447  21071387.860    21071387.275
 02  1  4  0 51  0.0000000  0  8G 1G20G29G 4G22G14G11G25
 -13549662.94749 -10558174.26546  22602113.749    22602114.669
 -23908561.26049 -18630042.47647  20793518.134    20793517.697
  -7675194.59849  -5980670.35746  22318291.974    22318291.926
   -106277.58348                  25307620.232
 -17307527.58549 -13486385.07246  21592099.919    21592100.273
   3942690.71948   3072224.03244  24202616.568    24202615.806
   1417629.38748                  24264082.059
 -21064718.93049 -16414062.34747  21080650.794    21080650.344
 02  1  4  0 51 30.0000000  0  8G 1G20G29G 4G22G14G11G25
 -13622996.28649 -10615317.10646  22588159.482    22588159.980
 -23941737.29449 -18655893.93347  20787204.971    20787204.703
  -7608454.07849  -5928664.77846  22330992.558    22330992.979
   -158728.11648                  25297639.639
 -17396684.38449 -13555857.90246  21575133.568    21575134.123
   4027522.46348   3138326.62044  24218758.701    24218758.631
