     2.11           OBSERVATION DATA    G (GPS)             RINEX VERSION / TYPE
teqc  2019Feb25     Salamtina Y.M.      20230920 03:20:34UTCPGM / RUN BY / DATE
OBSERVATION MODE: Permanent                                 COMMENT
CHUM Chumysh (CHUM)                                         MARKER NAME
25601M001                                                   MARKER NUMBER
4549261325          TRIMBLE NETRS        1.3-2              REC # / TYPE / VERS
237                 AOAD/M_T        NONE                    ANT # / TYPE
        0.0900        0.0000        0.0000                  ANTENNA: DELTA H/E/N
  1228950.3084  4508080.0110  4327868.5430                  APPROX POSITION XYZ
  74.75110458  42.99850161  716.3369  LonLatAlt  S/W        COMMENT
ANT ADDED FROM RCV_ANT.txt                                  COMMENT
Linux 2.6.32-573.12.1.x86_64|x86_64|gcc|Linux 64|=+         COMMENT
BIT 2 OF LLI FLAGS DATA COLLECTED UNDER A/S CONDITION       COMMENT
Konovalov S.M.      RS_RAS                                  OBSERVER / AGENCY
     1     1                                                WAVELENGTH FACT L1/2
     7    L1    L2    C1    P1    P2    S1    S2            # / TYPES OF OBSERV
    30.0000                                                 INTERVAL
    18                                                      LEAP SECONDS
TIME: 2023.01.08                                            COMMENT
TOUR: cont                                                  COMMENT
RSET: RAS02                                                 COMMENT
ASET: DS24                                                  COMMENT
OPER: skon (Konovalov S.M.)                                 COMMENT
SOUR: chum202301080000d.dat                                 COMMENT
SUPP: chum202301080000d.eph                                 COMMENT
SUPP: chum202301080000d.ion                                 COMMENT
SUPP: chum202301080000d.mes                                 COMMENT
Forced Modulo Decimation to 30 seconds                      COMMENT
 SNR is mapped to RINEX snr flag value [0-9]                COMMENT
  L1 & L2: min(max(int(snr_dBHz/6), 0), 9)                  COMMENT
  2023     1     8     0     0    0.0000000     GPS         TIME OF FIRST OBS
  2023     1     8    23    59   30.0000000     GPS         TIME OF LAST OBS
                                                            END OF HEADER
 23  1  8  0  0  0.0000000  0 10G23G24G27G08G22G10G21G18G31G32
 -12676456.76347 -11690655.17346  21674040.8134                   21674029.9264
        46.0004         38.7504
 -12667230.55446 -10626646.68246  22602398.5634                   22602389.3164
        40.7504         41.0004
  -9101592.53046  -6903159.97545  23674818.6414                   23674810.8594
        36.5004         35.0004
  -9233953.97547  -7161386.97246  23558766.7114                   23558757.2894
        43.0004         38.5004
  -8913619.39147  -7223997.04245  22217403.9064                   22217393.0204
        44.2504         30.2504
 -28108414.85849 -21779931.54549  20513644.4454                   20513635.2584
        54.2504         54.7504
 -10246753.01246  -7021232.12344  23855771.9844                   23855760.6294
        40.5004         27.0004
 -10320220.32945  -8064506.32543  23918938.3054                   23918928.5314
        35.7504         22.7504
                                  25247899.9534                   25247885.4344
        37.2504         29.0004
 -18114704.22348 -20628198.10249  20737204.2344                   20737195.1644
        52.0004         54.7504
 23  1  8  0  0 30.0000000  0 10G23G24G27G08G22G10G21G18G31G32
 -12617118.69647 -11644417.73746  21685332.2504                   21685321.5984
        45.5004         38.5004
 -12609280.67846 -10581490.92644  22613424.9694                   22613416.4844
        38.7504         29.2504
  -9017666.53546  -6837763.08545  23690790.4454                   23690781.4924
        38.2504         35.2504
  -9195251.64646  -7131229.33546  23566130.6724                   23566122.0704
        41.5004         38.2504
  -8988792.22547  -7282573.28744  22203099.5864                   22203088.4654
        44.7504         29.7504
 -28105173.02248 -21777405.43749  20514261.1884                   20514252.0594
        53.5004         54.7504
 -10325123.48246  -7082300.01644  23840858.7274                   23840847.0784
        41.0004         26.5004
 -10208756.14046  -7977651.11443  23940148.9924                   23940139.5124
        37.0004         22.7504
   -667852.23745   -484958.33745  25225429.8284                   25225419.7624
        33.0004         30.0004
 -18146605.04148 -20653055.87949  20731133.4614                   20731124.2734
        52.0004         55.0004
 23  1  8  0  1  0.0000000  0 10G23G24G27G08G22G10G21G18G31G32
 -12557537.49147 -11597990.83546  21696670.4534                   21696659.3324
        46.0004         38.7504
 -12550774.30846 -10535901.56645  22624559.6724                   22624550.6604
        39.7504         30.5004
  -8933500.21346  -6772178.94345  23706806.2424                   23706797.9344
        36.0004         34.0004
  -9156076.03547  -7100702.90346  23573585.7814                   23573577.6484
        42.2504         38.5004
  -9063663.24547  -7340914.33245  22188852.0634                   22188840.5314
        45.0004         31.0004
 -28101640.75348 -21774653.02749  20514933.4844                   20514924.4144
        53.0004         54.7504
 -10403265.87346  -7143190.18144  23825988.4384                   23825976.3794
        40.5004         24.5004
 -10097134.59046  -7890673.28943  23961390.7274                   23961380.8364
        37.0004         22.5004
   -785997.82455   -577019.85454  25202947.4454                   25202937.3794
        33.5004         28.5004
 -18178086.65948 -20677586.99449  20725143.0944                   20725133.4964
        52.0004         54.7504
 23  1  8  0  1 30.0000000  0 10G23G24G27G08G22G10G21G18G31G32
 -12497716.14547 -11551376.82746  21708053.9144                   21708043.3794
        45.7504         39.0004
 -12491716.30246 -10489882.34945  22635796.7504                   22635788.7934
        38.5004         30.5004
  -8849099.46646  -6706412.14245  23722867.6954                   23722858.6254
        37.0004         34.5004
  -9116431.73646  -7069811.25846  23581129.3594                   23581121.8134
        41.5004         38.7504
  -9138234.27447  -7399021.61645  22174661.5314                   22174650.4694
        44.2504         30.7504
 -28097819.96248 -21771675.79749  20515660.3054                   20515651.1174
        52.5004         54.7504
 -10481181.02846  -7203903.26944  23811161.9144                   23811150.4414
        41.2504         25.7504
  -9985360.46246  -7803576.58543  23982659.6954                   23982650.4494
        38.0004         22.2504
   -904225.56045   -669145.37245  25180449.1254                   25180438.6484
        35.0004         31.5004
 -18209151.88648 -20701793.66049  20719231.2974                   20719221.7584
        52.5004         54.7504
 23  1  8  0  2  0.0000000  0 10G23G24G27G08G22G10G21G18G31G32
 -12437654.94247 -11504575.90046  21719483.4534                   21719472.2734
        47.0004         38.0004
 -12432108.91046 -10443435.01745  22647140.3594                   22647131.2304
        39.5004         30.0004
  -8764467.52546  -6640465.16345  23738971.6024                   23738963.2934
        36.0004         33.2504
  -9076320.78446  -7038555.99346  23588762.4384                   23588754.6564
        41.5004         38.0004
  -9212504.76947  -7456894.72145  22160527.7664                   22160517.2304
        44.5004         30.7504
 -28093710.77048 -21768473.83149  20516442.4384                   20516433.1914
        53.0004         54.7504
 -10558867.06946  -7264437.85444  23796378.8364                   23796366.7194
        40.0004         26.2504
  -9873436.05846  -7716362.80943  24003958.0394                   24003949.0274
        37.5004         22.0004
  -1022533.20045   -761333.18445  25157935.0084                   25157928.1644
        30.2504         32.5004
 -18239800.94048 -20725676.02049  20713398.9694                   20713389.6644
        52.5004         55.0004
 23  1  8  0  2 30.0000000  0 10G23G24G27G08G22G10G21G18G31G32
 -12377354.45047 -11457588.51346  21730958.2424                   21730947.1804
        46.2504         38.5004
 -12371954.39946 -10396561.38845  22658586.7424                   22658578.3754
        38.7504         31.0004
  -8679607.71046  -6574340.67345  23755121.3754                   23755112.0704
        37.2504         33.5004
  -9035745.51247  -7006938.92446  23596483.6174                   23596475.6024
        42.0004         38.2504
  -9286473.87847  -7514532.98045  22146452.1644                   22146441.0434
        45.0004         31.0004
 -28089312.59448 -21765046.68249  20517279.4614                   20517270.0984
        53.0004         55.0004
 -10636322.37246  -7324792.65144  23781639.7114                   23781627.3594
        41.0004         26.7504
  -9761363.76145  -7629033.73643  24025283.8134                   24025275.2114
        35.5004         22.7504
  -1140918.35156   -853581.13854  25135413.4534                   25135396.8834
        40.0004         28.5004
 -18270034.18548 -20749234.38949  20707645.6804                   20707636.3164
        52.0004         55.0004
 23  1  8  0  3  0.0000000  0 11G23G24G27G08G22G10G21G18G31G01G32
 -12316814.34447 -11410414.42046  21742478.1564                   21742467.4454
        45.2504         38.2504
 -12311254.33246 -10349262.62345  22670137.4534                   22670129.5554
        39.0004         30.2504
  -8594522.67946  -6508040.64245  23771312.8444                   23771302.7774
        36.7504         33.5004
  -8994707.86447  -6974961.54546  23604293.7584                   23604284.3364
        42.7504         38.2504
  -9360140.01347  -7571935.15545  22132435.5234                   22132424.4024
        44.5004         30.7504
 -28084624.51548 -21761393.64049  20518171.4924                   20518162.4224
        53.0004         54.7504
 -10713544.24546  -7384965.52844  23766944.6724                   23766933.0824
        40.0004         25.7504
  -9649145.20046  -7541590.69343  24046640.0394                   24046630.0904
        37.7504         22.7504
  -1259380.80655   -929027.18355  25112866.4694                   25112855.8164
        35.5004         30.0004
    -13529.94755     21634.56053  25352104.1804                   25352095.5204
        32.2504         19.0004
 -18299851.20748 -20772468.41649  20701971.4224                   20701962.2344
        51.5004         55.0004
 23  1  8  0  3 30.0000000  0 11G23G24G27G08G22G10G21G18G31G01G32
 -12256035.14947 -11363054.02446  21754044.2584                   21754033.8404
        45.7504         37.7504
 -12250011.25146 -10301540.75945  22681792.6414                   22681783.8634
        39.5004         30.2504
  -8509215.81446  -6441567.76045  23787544.1804                   23787536.3984
        36.0004         33.5004
  -8953210.16347  -6942625.68646  23612189.5554                   23612181.2464
        42.5004         38.0004
  -9433503.11147  -7629101.19445  22118473.6254                   22118462.1524
        44.5004         31.0004
 -28079646.34848 -21757514.56049  20519118.7584                   20519109.8054
        53.0004         54.7504
 -10790531.24346  -7444955.37544  23752295.0164                   23752282.3134
        41.2504         26.5004
  -9536782.68046  -7454035.49144  24068022.8284                   24068011.7074
        38.5004         24.5004
  -1377912.34555  -1021389.53055  25090309.3524                   25090300.8094
        34.0004         32.5004
   -126421.72245    -66333.08542  25330622.7504                   25330614.9694
        30.5004         16.7504
 -18329252.44648 -20795378.46849  20696376.8984                   20696367.4774
        51.7504         54.7504
 23  1  8  0  4  0.0000000  0 11G23G24G27G08G22G10G21G18G31G01G32
 -12195017.56447 -11315507.86646  21765655.5784                   21765645.1024
        45.5004         38.2504
 -12188227.62746 -10253397.67244  22693549.1414                   22693540.4804
        39.7504         29.2504
  -8423690.71346  -6374924.83245  23803821.3984                   23803811.0984
        38.2504         33.7504
  -8911254.77447  -6909933.20446  23620173.8674                   23620165.2074
        42.7504         38.0004
  -9506562.53247  -7686030.60945  22104571.1254                   22104560.1214
        45.0004         31.5004
 -28074377.57848 -21753409.03249  20520121.2584                   20520112.6564
        53.5004         54.7504
 -10867281.37846  -7504760.69544  23737689.8984                   23737677.0204
        41.7504         25.0004
  -9424278.76546  -7366370.15644  24089432.5234                   24089420.9344
        40.0004         24.0004
  -1496514.08546  -1113806.38945  25067741.9454                   25067730.3554
        36.0004         31.2504
   -239243.35255   -154246.05652  25309152.5944                   25309146.0434
        33.0004         16.7504
 -18358238.41848 -20817964.92249  20690860.7734                   20690851.3524
        52.2504         54.7504
 23  1  8  0  4 30.0000000  0 11G23G24G27G08G22G10G21G18G31G01G32
 -12133760.11047 -11267774.79946  21777312.6024                   21777301.5394
        45.7504         37.7504
 -12125903.90746 -10204833.73344  22705408.5784                   22705400.2114
        38.5004         29.7504
  -8337948.76045  -6308112.92845  23820134.7274                   23820127.2974
        35.2504         32.7504
  -8868841.70447  -6876884.06246  23628245.0704                   23628236.3524
        43.0004         37.7504
  -9579315.63247  -7742721.32645  22090727.1724                   22090715.2304
        44.7504         31.7504
 -28068816.41348 -21749075.65349  20521179.9694                   20521170.6644
        53.0004         55.0004
 -10943791.45846  -7564378.90644  23723130.4144                   23723118.0634
        41.5004         26.5004
  -9311633.97846  -7278594.99844  24110865.2894                   24110856.4534
        37.0004         24.0004
  -1615181.36446  -1206274.36145  25045161.9774                   25045149.0394
        37.5004         31.2504
                                  25287697.0084                   25287691.5704
        28.7504         16.2504
 -18386807.64048 -20840226.64749  20685424.3134                   20685415.0664
        52.2504         54.7504
 23  1  8  0  5  0.0000000  0 11G23G24G27G08G22G10G21G18G31G01G32
 -12072265.71047 -11219857.09746  21789014.9304                   21789003.5744
        45.7504         38.5004
 -12063044.95546 -10155852.74544  22717370.8284                   22717362.0514
        38.7504         29.0004
  -8251995.79546  -6241136.59245  23836492.5864                   23836483.8094
        37.0004         33.2504
  -8825976.33747  -6843482.49546  23636401.1174                   23636393.5124
        42.0004         37.0004
  -9651764.24347  -7799174.77845  22076939.2504                   22076928.8324
        44.0004         32.0004
 -28062964.67348 -21744515.86249  20522293.3834                   20522284.1374
        53.2504         55.0004
 -11020061.86846  -7623810.41244  23708617.0704                   23708604.4264
        41.5004         26.0004
  -9198853.09246  -7190713.76743  24132329.2274                   24132318.1054
        38.5004         22.2504
  -1733914.13045  -1298793.36345  25022566.5394                   25022555.1254
        35.5004         31.5004
   -464663.77655   -329898.37752  25266257.6954                   25266250.5004
        32.5004         17.7504
 -18414962.89248 -20862165.79649  20680066.6884                   20680057.2074
        52.5004         55.0004
 23  1  8  0  5 30.0000000  0 11G23G24G27G08G22G10G21G18G31G01G32
 -12010531.76047 -11171752.72746  21800761.7584                   21800751.6334
        45.2504         37.5004
 -11999650.17546 -10106454.22245  22729434.8674                   22729425.7384
        39.5004         30.5004
  -8165832.06546  -6173996.02545  23852889.2274                   23852880.5664
        36.0004         33.2504
  -8782657.40947  -6809727.51846  23644645.2194                   23644636.7344
        43.0004         37.5004
  -9723905.05947  -7855388.37045  22063212.0314                   22063200.7934
        45.0004         31.2504
 -28056819.44648 -21739727.38249  20523462.6334                   20523453.2704
        52.2504         55.0004
 -11096087.81546  -7683051.39044  23694148.4614                   23694136.3444
        40.7504         27.5004
  -9085935.28546  -7102725.89943  24153815.7274                   24153805.3094
        38.2504         23.5004
  -1852707.10345  -1391359.35245  24999960.5474                   24999948.3134
        35.5004         30.5004
                                  25244832.4924                   25244824.4184
        30.5004         13.7504
 -18442701.45448 -20883780.25249  20674788.2734                   20674778.8524
        51.5004         54.7504
 23  1  8  0  6  0.0000000  0 10G23G24G27G08G22G10G21G18G31G32
 -11948560.56447 -11123463.51846  21812555.0704                   21812544.5944
        45.0004         37.5004
 -11935723.78546 -10056641.43844  22741598.7664                   22741590.7504
        38.2504         29.5004
  -8079462.72146  -6106695.26545  23869324.0164                   23869315.5904
        36.7504         33.0004
  -8738889.76547  -6775622.87146  23652974.7344                   23652965.6644
        43.0004         37.5004
  -9795738.98747  -7911362.85145  22049542.1414                   22049531.3714
        44.7504         31.5004
 -28050382.00448 -21734711.18949  20524687.6954                   20524678.5664
        52.5004         55.0004
 -11171869.49147  -7742102.05744  23679729.5084                   23679716.9224
        42.2504         27.7504
  -8972884.90046  -7014634.71243  24175328.8594                   24175317.9734
        38.5004         22.7504
  -1971559.63545  -1483971.65545  24977342.6884                   24977332.6214
        34.7504         32.5004
 -18470025.66848 -20905071.83149  20669588.3204                   20669579.3674
        52.0004         55.0004
 23  1  8  0  6 30.0000000  0 11G23G24G27G08G22G10G21G18G31G01G32
 -11886352.12347 -11074989.42746  21824392.7974                   21824382.3794
        45.2504         37.2504
 -11871267.77946 -10006415.99944  22753864.9304                   22753856.0354
        38.5004         28.7504
  -7992890.78446  -6039236.62145  23885798.8754                   23885790.0394
        36.5004         33.2504
  -8694674.85747  -6741169.72546  23661388.2584                   23661380.0084
        43.5004         37.2504
  -9867265.19047  -7967097.54445  22035930.4844                   22035920.3594
        43.5004         31.0004
 -28043651.61048 -21729466.73549  20525968.3754                   20525959.3054
        51.7504         54.7504
 -11247404.56446  -7800960.55344  23665354.7274                   23665342.4924
        41.5004         27.2504
  -8859703.75446  -6926441.61943  24196865.3594                   24196856.2894
        38.2504         22.2504
  -2090468.74245  -1576628.17345  24954715.6724                   24954704.3754
        34.0004         31.2504
                                  25202023.7344                   25202016.0704
        29.5004         16.2504
 -18496935.50448 -20926040.52449  20664467.8444                   20664458.4224
        52.2504         54.7504
 23  1  8  0  7  0.0000000  0 11G23G24G27G08G22G10G21G18G31G01G32
 -11823905.56747 -11026329.79146  21836276.3444                   21836265.1644
        45.0004         36.5004
 -11806283.26046  -9955778.68544  22766230.5944                   22766222.3444
        38.5004         29.2504
  -7906118.13946  -5971621.57545  23902310.7894                   23902302.0704
        36.7504         32.5004
  -8650013.72647  -6706368.87046  23669886.5554                   23669877.6604
        42.2504         36.2504
  -9938481.79047  -8022590.97745  22022379.3284                   22022368.3834
        44.5004         30.5004
 -28036626.83148 -21723992.89749  20527305.0864                   20527295.8404
        51.7504         54.7504
 -11322690.09246  -7859624.59444  23651028.8284                   23651015.6564
        41.7504         26.5004
  -8746392.89646  -6838147.45444  24218428.7974                   24218418.2034
        39.5004         24.5004
  -2209430.51145  -1669325.59545  24932076.8284                   24932066.7034
        34.0004         31.2504
                                  25180644.9844                   25180638.3754
        31.5004         16.7504
 -18523429.93348 -20946685.52949  20659426.2274                   20659416.4534
        51.5004         54.7504
 23  1  8  0  7 30.0000000  0 11G23G24G27G08G22G10G21G18G31G01G32
 -11761222.26747 -10977485.67146  21848204.7034                   21848193.2894
        45.5004         36.0004
 -11740773.61646  -9904732.25744  22778697.2664                   22778688.3714
        38.7504         27.0004
  -7819149.03646  -5903853.45345  23918860.7664                   23918851.9884
        36.0004         32.2504
  -8604909.93647  -6671223.07046  23678469.9384                   23678460.6334
        42.7504         36.5004
 -10009389.11947  -8077843.42545  22008885.4454                   22008874.9694
        44.0004         31.0004
 -28029307.76248 -21718289.71849  20528697.6564                   20528688.9964
        52.2504         54.7504
 -11397724.96646  -7918093.29944  23636749.8284                   23636737.8874
        41.7504         26.7504
  -8632955.48946  -6749754.72343  24240015.2814                   24240004.8054
        38.7504         22.5004
  -2328443.30245  -1762062.84245  24909428.9844                   24909419.3874
        33.0004         31.0004
                                  25159283.1254                   25159276.5164
        31.7504         15.5004
 -18549510.34548 -20967007.92049  20654462.8914                   20654453.7034
        52.0004         55.0004
 23  1  8  0  8  0.0000000  0 10G23G24G27G08G22G10G21G18G31G32
 -11698302.33147 -10928457.17246  21860177.4774                   21860166.9414
        45.0004         37.2504
 -11674741.04546  -9853278.30044  22791262.6334                   22791253.9734
        39.5004         28.7504
  -7731986.43246  -5835934.55845  23935446.7974                   23935437.7854
        36.7504         33.0004
  -8559365.41747  -6635733.84046  23687136.5084                   23687126.7344
        42.5004         36.2504
 -10079986.49947  -8132854.36245  21995451.8754                   21995441.1054
        45.0004         31.2504
 -28021694.11948 -21712357.03249  20530146.7274                   20530137.8324
        51.2504         55.0004
 -11472507.21947  -7976365.16844  23622518.8364                   23622506.0164
        42.0004         26.5004
  -8519393.61746  -6661264.94843  24261624.8674                   24261614.5084
        38.5004         22.7504
  -2447504.55446  -1854837.87345  24886776.4144                   24886762.4224
        36.7504         32.2504
 -18575176.83148 -20987007.77549  20649578.8134                   20649569.5084
        51.2504         54.7504
 23  1  8  0  8 30.0000000  0 11G23G24G27G08G22G10G21G18G31G01G32
 -11635146.12547 -10879244.57146  21872195.5474                   21872185.0704
        44.5004         36.7504
 -11608187.93146  -9801418.70544  22803927.6564                   22803918.2934
        38.7504         29.0004
  -7644633.75846  -5767867.54645  23952070.3754                   23952061.0704
        37.2504         33.7504
  -8513382.55347  -6599903.06346  23695887.5634                   23695877.9654
        42.7504         36.0004
 -10150272.96847  -8187623.02145  21982076.1094                   21982065.5744
        44.0004         31.2504
 -28013785.27648 -21706194.30349  20531651.6564                   20531642.3524
        52.2504         55.0004
 -11547035.08547  -8034438.85344  23608337.2504                   23608324.7814
        42.0004         26.5004
  -8405709.58846  -6572680.02143  24283258.7734                   24283247.9454
        38.2504         23.7504
  -2566611.60246  -1947648.49445  24864108.6484                   24864097.3524
        36.0004         31.5004
                                  25116608.9774                   25116603.5984
        31.0004         13.7504
 -18600429.74648 -21006685.36549  20644773.5234                   20644764.2774
        52.0004         55.0004
 23  1  8  0  9  0.0000000  0 11G23G24G27G08G22G10G21G18G31G01G32
 -11571752.80647 -10829847.19646  21884258.9774                   21884248.0314
        45.0004         37.0004
 -11541115.38446  -9749154.42244  22816690.4774                   22816681.5824
        37.5004         27.5004
  -7557092.88946  -5699653.89245  23968728.4304                   23968719.7114
        36.5004         32.2504
  -8466962.81147  -6563731.84446  23704719.7974                   23704711.1954
        42.0004         36.5004
 -10220246.78247  -8242148.05945  21968761.4614                   21968750.0474
        44.5004         32.0004
 -28005579.99348 -21699800.57749  20533213.2424                   20533204.0554
        51.5004         55.0004
 -11621305.38246  -8092311.78044  23594202.8054                   23594191.9184
        41.0004         27.2504
  -8291904.34946  -6484000.64043  24304915.5784                   24304904.5164
        39.2504         22.7504
  -2685760.45945  -2040491.81045  24841433.4064                   24841423.8094
        33.5004         32.0004
                                  25095301.1414                   25095291.7774
        31.7504         16.7504
 -18625268.25648 -21026040.03349  20640046.6484                   20640037.2854
        51.5004         55.0004
 23  1  8  0  9 30.0000000  0 11G23G24G27G08G22G10G21G18G31G01G32
 -11508123.38747 -10780265.85746  21896367.4454                   21896356.5594
        45.0004         36.5004
 -11473526.59346  -9696487.80444  22829553.4844                   22829543.4774
        39.7504         28.5004
  -7469367.68946  -5631296.62345  23985422.0944                   23985412.9654
        36.5004         32.5004
  -8420108.80146  -6527222.26446  23713635.6954                   23713627.5634
        41.2504         36.7504
 -10289907.87947  -8296429.41445  21955504.6564                   21955493.5944
        44.2504         32.7504
 -27997078.18448 -21693175.79449  20534831.2734                   20534821.7934
        51.7504         54.7504
 -11695317.01546  -8149983.17344  23580119.8444                   23580107.0824
        41.7504         28.0004
  -8177980.81546  -6395229.11243  24326594.0234                   24326583.3714
        39.5004         23.2504
  -2804949.33745  -2133366.25945  24818754.2034                   24818743.4924
        35.0004         32.0004
                                  25074006.758
        28.250
 -18649693.36248 -21045072.58149  20635398.7344                   20635389.3134
        52.0004         54.7504
 23  1  8  0 10  0.0000000  0 11G23G24G27G08G22G10G21G18G31G01G32
 -11444260.86447 -10730502.85746  21908519.9534                   21908509.4774
        45.0004         36.2504
 -11405426.53646  -9643422.83344  22842511.1884                   22842503.3484
        38.2504         27.5004
  -7381464.09245  -5562800.30845  24002148.4534                   24002140.5554
        35.0004         32.5004
  -8372825.75046  -6490378.34945  23722633.9304                   23722625.3874
        41.2504         35.5004
 -10359258.16847  -8350468.58845  21942308.1024                   21942296.9804
        45.2504         31.5004
 -27988282.36048 -21686321.90749  20536504.6644                   20536495.5944
        51.2504         55.0004
 -11769070.64246  -8207453.54844  23566084.1414                   23566072.4924
        40.5004         26.7504
  -8063943.90646  -6306369.15644  24348294.5394                   24348283.6524
        38.5004         24.5004
  -2924178.40745  -2226272.04345  24796065.0634                   24796054.7624
        35.2504         32.0004
  -1586728.67755  -1082955.12353  25052735.7344                   25052726.8404
        31.2504         18.2504
 -18673708.02348 -21063785.29549  20630829.2114                   20630819.6724
        51.7504         54.7504
 23  1  8  0 10 30.0000000  0 11G23G24G27G08G22G10G21G18G31G01G32
 -11380160.56847 -10680554.59845  21920717.8914                   21920707.5314
        44.5004         35.7504
 -11336812.77246  -9589957.56544  22855567.5004                   22855559.1334
        38.2504         27.5004
  -7293380.30845  -5494163.62245  24018910.1954                   24018902.7664
        35.5004         33.0004
  -8325110.77746  -6453197.86045  23731713.4534                   23731703.9144
        40.7504         35.7504
 -10428292.52447  -8404261.58145  21929170.6804                   21929160.2034
        45.0004         32.5004
 -27979186.67348 -21679234.36349  20538235.4064                   20538226.5704
        51.2504         55.0004
 -11842559.35646  -8264717.45844  23552099.9304                   23552088.6914
        41.0004         28.0004
  -7949790.83846  -6217418.75444  24370017.1334                   24370007.1844
        39.0004         24.2504
  -3043439.41145  -2319202.69745  24773370.8984                   24773360.4804
        35.2504         32.7504
  -1698415.33755  -1169983.56552  25031481.0234                   25031474.7074
        31.2504         15.5004
 -18697307.60648 -21082174.57149  20626338.3594                   20626328.5864
        51.7504         55.0004
 23  1  8  0 11  0.0000000  0 11G23G24G27G08G22G10G21G18G31G01G32
 -11315823.04647 -10630421.49346  21932961.1334                   21932949.8954
        45.0004         36.0004
 -11267687.77746  -9536093.94444  22868723.4534                   22868713.2114
        39.0004         28.2504
  -7205119.63845  -5425389.08245  24035706.3054                   24035697.6454
        35.7504         32.7504
  -8276966.54747  -6415682.86145  23740875.4924                   23740865.5434
        42.0004         35.5004
 -10497010.17047  -8457807.78445  21916094.4384                   21916083.5514
        45.5004         32.0004
 -27969791.13648 -21671913.17849  20540023.4924                   20540014.4224
        51.0004         55.0004
 -11915781.28946  -8321773.51944  23538166.6724                   23538153.7934
        41.2504         25.7504
  -7835523.94746  -6128379.61244  24391760.8444                   24391751.0124
        38.2504         24.7504
  -3162730.39346  -2412156.74345  24750671.2274                   24750660.2814
        36.0004         33.5004
                                  25010248.4844                   25010242.4614
        30.5004         16.7504
 -18720492.71148 -21100240.88149  20621926.4304                   20621916.5394
        52.0004         54.7504
 23  1  8  0 11 30.0000000  0 11G23G24G27G08G22G10G21G18G31G01G32
 -11251252.71947 -10580106.97446  21945248.7504                   21945237.5704
        45.0004         36.5004
 -11198058.17646  -9481837.12244  22881971.9534                   22881963.1764
        38.0004         27.5004
  -7116689.38545  -5356482.39745  24052534.3594                   24052526.2274
        35.2504         32.2504
  -8228399.72746  -6377838.60046  23750116.9224                   23750109.2584
        41.2504         36.0004
 -10565414.68747  -8511109.99345  21903077.4144                   21903067.0554
        45.5004         32.2504
 -27960099.34548 -21664361.13549  20541867.8754                   20541858.5704
        52.0004         55.0004
 -11988738.55446  -8378623.33244  23524283.7734                   23524271.4804
        41.7504         27.7504
  -7721149.68746  -6039256.83244  24413525.7894                   24413516.3674
        38.2504         24.5004
  -3282052.69046  -2505135.14045  24727966.3054                   24727953.8954
        37.0004         33.5004
                                  24989035.3204                   24989028.7114
        32.5004         16.2504
 -18743267.75248 -21117987.66649  20617592.2974                   20617582.9344
        52.5004         54.7504
 23  1  8  0 12  0.0000000  0 10G23G24G27G08G22G10G21G18G31G32
 -11186447.17847 -10529609.17346  21957580.3204                   21957569.8444
        44.7504         36.2504
 -11127923.69346  -9427186.88344  22895317.7814                   22895309.6484
        38.7504         27.5004
  -7028090.20446  -5287444.08745  24069394.6024                   24069385.0634
        36.0004         31.5004
  -8179409.82646  -6339664.69446  23759439.1334                   23759432.6414
        41.0004         36.0004
 -10633502.68947  -8564165.56345  21890120.8834                   21890109.9964
        44.5004         33.0004
 -27950108.08148 -21656575.74949  20543769.1644                   20543760.1524
        51.0004         54.7504
 -12061426.98046  -8435263.65444  23510451.0084                   23510440.1804
        41.0004         26.7504
  -7606667.50646  -5950049.96243  24435312.1414                   24435301.3714
        39.2504         23.5004
  -3401400.84345  -2598133.72045  24705253.2424                   24705242.4144
        35.5004         32.5004
 -18765630.46348 -21135413.14349  20613336.7114                   20613327.2894
        51.7504         54.7504
 23  1  8  0 12 30.0000000  0 11G23G24G27G08G22G10G21G18G31G01G32
 -11121409.05547 -10478930.14546  21969957.2114                   21969946.2074
        45.5004         36.2504
 -11057289.07146  -9372146.88944  22908759.6884                   22908750.9104
        38.0004         27.5004
  -6939327.28945  -5218278.18245  24086283.4454                   24086276.6604
        34.7504         31.7504
  -8130001.67746  -6301164.86245  23768842.4224                   23768833.4694
        41.2504         35.5004
 -10701275.77847  -8616975.74845  21877224.1954                   21877213.0744
        45.2504         33.0004
 -27939819.27648 -21648558.50749  20545727.1334                   20545717.9454
        51.5004         54.7504
 -12133846.64146  -8491694.56444  23496670.4144                   23496657.0084
        41.2504         26.7504
  -7492081.81146  -5860762.38443  24457115.7504                   24457105.8594
        38.2504         22.5004
  -3520774.31746  -2691151.99945  24682537.3984                   24682526.2774
        37.0004         33.5004
  -2144101.05155  -1429429.28152  24946670.3524                   24946665.5634
        31.5004         16.7504
 -18787583.40148 -21152519.32649  20609159.4534                   20609149.7974
        52.0004         54.7504
 23  1  8  0 13  0.0000000  0 11G23G24G27G08G22G10G21G18G31G01G32
 -11056135.98247 -10428068.04046  21982377.6094                   21982367.1334
        44.5004         36.7504
 -10986154.08046  -9316717.04144  22922296.2584                   22922287.4804
        38.5004         27.0004
  -6850401.34045  -5148985.25545  24103207.4384                   24103199.6564
        35.7504         31.0004
  -8080174.98546  -6262338.87945  23778324.1804                   23778314.1724
        41.0004         34.5004
 -10768731.08347  -8669538.32645  21864387.6484                   21864376.9964
        46.0004         33.2504
 -27929229.93748 -21640307.07549  20547742.2344                   20547732.9304
        51.0004         54.7504
 -12205993.00747  -8547912.53944  23482941.9844                   23482928.5204
        42.2504         27.5004
  -7377392.27746  -5771393.94544  24478940.1334                   24478930.9454
        37.2504         25.7504
  -3640167.64546  -2784185.76345  24659816.1254                   24659806.6454
        36.5004         33.2504
  -2255244.31255  -1516034.48652  24925521.3674                   24925514.6994
        32.2504         15.5004
 -18809124.36048 -21169304.48349  20605060.3524                   20605050.5204
        52.7504         54.7504
 23  1  8  0 13 30.0000000  0 11G23G24G27G08G22G10G21G18G31G01G32
 -10990628.35447 -10377023.16346  21994843.5314                   21994832.7034
        45.2504         36.5004
 -10914521.39746  -9260899.37144  22935927.6094                   22935918.9494
        37.7504         27.0004
  -6761315.52145  -5079567.72945  24120159.8754                   24120150.2774
        35.5004         31.0004
  -8029932.26446  -6223188.70645  23787884.0864                   23787874.9574
        40.0004         34.5004
 -10835867.70647  -8721852.55345  21851612.3754                   21851601.0204
        46.0004         33.5004
 -27918339.32648 -21631820.89149  20549814.6884                   20549805.4414
        52.0004         55.0004
 -12277864.32746  -8603916.15244  23469264.2194                   23469252.2194
        41.2504         27.5004
  -7262601.09646  -5681946.27243  24500785.3134                   24500774.6024
        38.7504         22.7504
  -3759578.49646  -2877233.20145  24637095.0394                   24637083.6844
        37.2504         33.5004
  -2366270.19855  -1602548.20452  24904394.1414                   24904387.0634
        31.5004         16.2504
 -18830253.75348 -21185768.94349  20601039.3054                   20601030.1174
        51.7504         54.7504
 23  1  8  0 14  0.0000000  0 11G23G24G27G08G22G10G21G18G31G01G32
 -10924887.56647 -10325796.58946  22007353.9614                   22007343.0744
        45.5004         36.2504
 -10842394.40746  -9204696.53144  22949653.2424                   22949644.0554
        39.0004         26.5004
  -6672073.99045  -5010028.87545  24137141.4224                   24137133.4654
        34.0004         30.2504
  -7979276.65546  -6183716.82545  23797524.0704                   23797515.8794
        41.0004         35.0004
 -10902685.94947  -8773918.70545  21838896.8834                   21838886.1724
        45.5004         33.7504
 -27907148.40148 -21623100.69249  20551944.4384                   20551935.0744
        51.7504         55.0004
 -12349459.38547  -8659704.50944  23455640.6024                   23455627.5474
        42.5004         27.5004
  -7147711.56646  -5592421.94943  24522646.4844                   24522638.3524
        37.0004         22.5004
  -3879005.07746  -2970292.86345  24614368.2734                   24614357.4454
        36.7504         34.0004
  -2477177.38655  -1688969.32752  24883289.0394                   24883282.5474
        33.5004         17.2504
 -18850973.04148 -21201913.83449  20597096.5394                   20597086.9414
        53.0004         55.0004
 23  1  8  0 14 30.0000000  0 11G23G24G27G08G22G10G21G18G31G01G32
 -10858913.71947 -10274388.42446  22019908.1174                   22019897.4654
        44.7504         36.0004
 -10769775.54246  -9148110.38544  22963471.3594                   22963462.6414
        37.7504         25.5004
  -6582679.80445  -4940371.08345  24154151.8054                   24154144.6094
        33.7504         30.2504
  -7928210.82946  -6143925.29745  23807242.3054                   23807234.6994
        39.7504         35.0004
 -10969185.21347  -8825736.29745  21826242.3984                   21826231.6294
        46.2504         33.2504
 -27895656.19648 -21614145.73549  20554131.0864                   20554121.7814
        51.0004         54.7504
 -12420776.26346  -8715276.11444  23442069.4694                   23442056.8244
        41.5004         27.7504
  -7032725.57946  -5502822.52743  24544528.5234                   24544518.2814
        37.5004         21.7504
  -3998444.34646  -3063362.43445  24591639.3364                   24591629.3284
        36.7504         34.5004
  -2587963.03055  -1775295.86252  24862206.2584                   24862199.3554
        32.0004         16.2504
 -18871282.46348 -21217739.35849  20593231.7344                   20593222.2544
        52.0004         54.7504
 23  1  8  0 15  0.0000000  0 11G23G24G27G08G22G10G21G18G31G01G32
 -10792707.00747 -10222798.80546  22032507.0944                   22032496.2074
        45.5004         36.5004
 -10696667.06146  -9091142.77044  22977385.4534                   22977374.6254
        39.2504         27.2504
  -6493135.91945  -4870596.64645  24171192.4064                   24171183.8054
        35.0004         31.0004
  -7876736.78146  -6103815.69945  23817036.2974                   23817028.5164
        38.7504         34.0004
 -11035364.77847  -8877304.79045  21813649.4144                   21813638.2934
        46.5004         33.2504
 -27883862.02048 -21604955.47349  20556375.3834                   20556366.0784
        50.5004         54.7504
 -12491812.86247  -8770629.27444  23428551.7344                   23428539.2664
        42.2504         28.2504
  -6917645.35246  -5413149.60143  24566427.7114                   24566417.4104
        37.2504         22.5004
  -4117893.37846  -3156439.62545  24568909.0164                   24568898.8324
        37.0004         33.2504
  -2698623.57455  -1861524.61553  24841149.0554                   24841141.0394
        32.5004         18.2504
 -18891182.25748 -21233245.68549  20589445.0864                   20589435.8984
        51.5004         55.0004
 23  1  8  0 15 30.0000000  0 11G23G24G27G08G22G10G21G18G31G01G32
 -10726267.67947 -10171027.92746  22045149.8364                   22045138.6564
        45.5004         36.0004
 -10623071.57846  -9033795.61944  22991388.8754                   22991379.9804
        37.7504         26.0004
  -6403445.47045  -4800707.98145  24188258.9454                   24188251.8674
        35.2504         30.7504
  -7824857.07446  -6063389.95945  23826909.2194                   23826899.0944
        40.0004         33.5004
 -11101224.11147  -8928623.72045  21801116.4144                   21801105.4104
        46.0004         33.0004
 -27871765.55248 -21595529.65949  20558677.3754                   20558668.1294
        50.5004         55.0004
 -12562567.36846  -8825762.65944  23415087.2034                   23415074.8524
        41.5004         27.2504
  -6802472.92746  -5323404.87644  24588343.7894                   24588334.6604
        37.0004         24.5004
  -4237349.47846  -3249522.26845  24546178.8674                   24546166.8094
        38.5004         34.2504
  -2809158.46055  -1947655.64052  24820113.3134                   24820107.0554
        31.5004         16.7504
 -18910672.79148 -21248433.10549  20585735.9694                   20585726.7814
        51.5004         55.0004
 23  1  8  0 16  0.0000000  0 11G23G24G27G08G22G10G21G18G31G01G32
 -10659595.87547 -10119075.89846  22057837.4844                   22057826.5394
        46.5004         36.2504
 -10548991.29446  -8976070.75444  23005484.8134                   23005477.3244
        37.5004         25.5004
  -6313611.41146  -4730707.41945  24205355.2114                   24205345.9654
        36.5004         30.7504
  -7772574.15746  -6022650.01345  23836858.8834                   23836849.2274
        39.7504         34.0004
 -11166762.53147  -8979692.60845  21788645.4844                   21788634.2464
        46.7504         33.5004
 -27859366.18748 -21585867.81949  20561036.8364                   20561027.6484
        52.0004         54.7504
 -12633038.05947  -8880674.89044  23401677.1254                   23401665.0084
        42.0004         28.0004
  -6687210.33446  -5233589.85243  24610277.5084                   24610267.8524
        37.5004         22.0004
  -4356809.54346  -3342608.05745  24523445.1724                   24523434.7544
        38.2504         35.2504
  -2919563.75655  -2033685.74953  24799106.3834                   24799097.0204
        33.5004         18.2504
 -18929754.31348 -21263301.82349  20582105.0784                   20582095.4804
        52.5004         55.0004
 23  1  8  0 16 30.0000000  0 11G23G24G27G08G22G10G21G18G31G01G32
 -10592692.56347 -10066943.46946  22070568.3984                   22070557.6884
        46.0004         36.0004
 -10474429.49946  -8917970.64144  23019674.6804                   23019665.0234
        38.2504         25.5004
  -6223637.43145  -4660597.81545  24222475.3674                   24222467.8204
        35.5004         31.0004
  -7719890.85446  -5981598.10445  23846883.9384                   23846876.2154
        39.2504         34.2504
 -11231979.95447  -9030511.36945  21776234.4844                   21776223.3634
        46.2504         33.7504
 -27846663.85648 -21575969.90649  20563454.1094                   20563444.5124
        51.0004         54.7504
 -12703222.88747  -8935364.36444  23388322.4614                   23388309.2304
        42.5004         28.7504
  -6571860.44046  -5143706.82143  24632228.0314                   24632218.0234
        37.5004         22.5004
  -4476271.47546  -3435695.26545  24500713.2664                   24500701.0904
        38.7504         35.2504
  -3029837.66545  -2119613.53542  24778119.8054                   24778112.8444
        32.0004         17.2504
 -18948427.90648 -21277852.66849  20578551.6334                   20578542.1524
        52.2504         54.7504
 23  1  8  0 17  0.0000000  0 11G23G24G27G08G22G10G21G18G31G01G32
 -10525557.38247 -10014630.35945  22083343.9774                   22083333.3834
        46.5004         35.7504
 -10399387.94446  -8859496.70444  23033953.4844                   23033945.4694
        37.0004         26.2504
  -6133526.12045  -4590381.24645  24239622.8444                   24239616.1174
        35.5004         31.5004
  -7666808.72446  -5940235.46945  23856983.5084                   23856977.2504
        37.7504         33.0004
 -11296874.82047  -9081078.78345  21763885.6724                   21763874.4924
        46.5004         34.0004
 -27833657.38748 -21565835.00049  20565929.0084                   20565920.1724
        51.0004         54.7504
 -12773119.36847  -8989829.17044  23375020.7274                   23375008.0824
        42.2504         28.0004
  -6456424.68046  -5053756.89143  24654193.9304                   24654185.0354
        36.5004         22.2504
  -4595731.93246  -3528781.38745  24477980.4924                   24477969.2544
        38.2504         35.0004
  -3139976.95145  -2205436.35342  24757162.4614                   24757154.3874
        33.7504         16.2504
 -18966693.32148 -21292085.45849  20575075.5394                   20575066.0594
        52.5004         55.0004
 23  1  8  0 17 30.0000000  0 11G23G24G27G08G22G10G21G18G31G01G32
 -10458190.10647  -9962136.40845  22096163.3594                   22096152.5904
        46.2504         35.5004
 -10323868.78046  -8800650.62044  23048325.3444                   23048315.6884
        38.2504         27.0004
  -6043279.93846  -4520059.57445  24256799.0784                   24256788.4264
        37.5004         31.0004
  -7613330.57046  -5898564.22245  23867160.9384                   23867152.3364
        38.2504         32.5004
 -11361446.52247  -9131394.38245  21751597.2974                   21751586.9964
        46.0004         34.5004
 -27820345.84348 -21555462.38349  20568462.3284                   20568452.9064
        51.7504         54.7504
 -12842725.29547  -9044067.54544  23361774.5944                   23361762.7704
        42.0004         28.7504
  -6340904.83146  -4963741.44143  24676178.8524                   24676168.0234
        38.5004         22.5004
  -4715187.53346  -3621863.67545  24455247.7034                   24455237.2854
        37.5004         34.5004
  -3249978.40445  -2291151.75842  24736228.6484                   24736221.4534
        33.0004         17.2504
 -18984550.43248 -21306000.08249  20571677.4774                   20571668.0554
        51.5004         54.7504
 23  1  8  0 18  0.0000000  0 11G23G24G27G08G22G10G21G18G31G01G32
 -10390592.62947  -9909463.07845  22109026.8834                   22109016.2304
        45.5004         35.5004
 -10247876.15346  -8741435.56444  23062786.8284                   23062777.1134
        37.7504         26.5004
  -5952903.75346  -4449636.57745  24273994.6884                   24273986.9064
        36.7504         32.0004
  -7559459.86046  -5856587.01945  23877413.3054                   23877403.1804
        39.5004         33.0004
 -11425696.01947  -9181458.90645  21739371.6954                   21739360.2234
        47.0004         34.0004
 -27806730.61348 -21544853.10549  20571053.5084                   20571044.0864
        52.0004         55.0004
 -12912040.46147  -9098079.36144  23348585.5474                   23348572.4924
        42.5004         28.7504
  -6225304.52546  -4873663.29443  24698175.0004                   24698165.5784
        37.0004         22.2504
  -4834636.87046  -3714941.07745  24432517.4534                   24432506.9774
        37.2504         35.2504
  -3359841.09845  -2376759.03843  24715323.8524                   24715315.3094
        34.2504         19.7504
 -19002001.36848 -21319598.21949  20568356.7194                   20568347.7074
        53.0004         55.0004
 23  1  8  0 18 30.0000000  0 11G23G24G27G08G22G10G21G18G31G01G32
 -10322763.78947  -9856609.46445  22121934.5394                   22121923.4184
        46.0004         35.5004
 -10171411.07946  -8681852.41644  23077337.7504                   23077327.7424
        38.2504         25.0004
  -5862399.08745  -4379113.47745  24291216.4774                   24291210.2774
        35.5004         31.7504
  -7505198.04746  -5814305.11845  23887738.4694                   23887729.6334
        38.5004         33.7504
 -11489621.36747  -9231270.84345  21727206.4384                   21727195.7854
        45.7504         34.2504
 -27792809.51648 -21534005.50449  20573702.4614                   20573693.0984
        52.0004         55.0004
 -12981061.78346  -9151862.20644  23335449.9454                   23335438.1804
        41.5004         28.0004
  -6109624.59846  -4783523.08743  24720189.9064                   24720179.4884
        38.2504         22.2504
  -4954075.80046  -3808010.37045  24409788.6954                   24409778.2194
        38.2504         35.0004
  -3469560.91545  -2462254.99143  24694443.3134                   24694436.4694
        33.2504         19.0004
 -19019045.04248 -21332879.00149  20565113.5944                   20565103.7624
        53.0004         54.7504
 23  1  8  0 19  0.0000000  0 11G23G24G27G08G22G10G21G18G31G01G32
 -10254704.81047  -9803576.51645  22134885.8284                   22134874.8244
        47.0004         35.7504
 -10094477.19046  -8621903.90244  23091977.9144                   23091967.6134
        38.2504         26.0004
  -5771770.02546  -4308493.43645  24308464.9224                   24308454.8554
        37.5004         32.0004
  -7450548.07046  -5771720.74945  23898136.7974                   23898130.0124
        36.0004         33.5004
 -11553222.72547  -9280830.33645  21715103.6024                   21715092.6564
        45.7504         34.7504
 -27778582.96148 -21522919.88149  20576409.5554                   20576400.1334
        51.2504         54.7504
 -13049786.88647  -9205414.20544  23322373.1644                   23322359.6994
        43.0004         28.0004
  -5993868.07646  -4693323.19043  24742217.2114                   24742206.7344
        37.2504         21.5004
  -5073502.34646  -3901070.01245  24387062.6334                   24387051.8054
        38.5004         34.5004
  -3579136.03745  -2547638.24743  24673593.1644                   24673584.6214
        34.7504         19.2504
 -19035682.83248 -21345843.50849  20561947.4304                   20561938.0664
        53.0004         54.7504
 23  1  8  0 19 30.0000000  0 11G23G24G27G08G22G10G21G18G31G01G32
 -10186415.87747  -9750364.38245  22147880.6414                   22147869.6374
        46.0004         35.5004
 -10017076.75846  -8561591.91044  23106705.7034                   23106696.3984
        38.0004         25.5004
  -5681019.54046  -4237778.79245  24325732.9774                   24325725.4304
        36.2504         31.2504
  -7395512.59546  -5728836.01145  23908610.1024                   23908601.9104
        37.5004         32.2504
 -11616499.59547  -9330136.96745  21703062.5394                   21703051.7704
        45.2504         34.5004
 -27764050.16948 -21511595.63649  20579174.7114                   20579165.6994
        51.2504         54.7504
 -13118214.58846  -9258734.50344  23309351.2734                   23309338.8634
        41.5004         28.2504
  -5878036.97146  -4603065.22443  24764258.6024                   24764248.7114
        37.7504         22.7504
  -5192913.47246  -3994117.68045  24364339.4064                   24364329.3404
        37.0004         34.5004
  -3688563.77445  -2632906.61043  24652768.2344                   24652761.7424
        33.0004         18.2504
 -19051915.10548 -21358492.02449  20558858.5784                   20558849.0984
        52.2504         54.7504
 23  1  8  0 20  0.0000000  0 11G23G24G27G08G22G10G21G18G31G01G32
 -10117896.75847  -9696972.88845  22160919.4224                   22160908.3014
        46.5004         35.5004
  -9939212.05246  -8500918.11244  23121522.6564                   23121513.5864
        38.2504         26.5004
  -5590150.17846  -4166971.49845  24343026.8914                   24343016.8834
        37.5004         32.2504
  -7340094.00146  -5685652.69145  23919156.6024                   23919147.1214
        38.0004         32.0004
 -11679450.97447  -9379189.97645  21691083.8674                   21691072.5124
        47.0004         34.7504
 -27749210.40448 -21500032.18249  20581998.7034                   20581989.5164
        51.7504         55.0004
 -13186342.42646  -9311821.10044  23296386.1804                   23296375.0004
        41.5004         27.7504
  -5762132.96146  -4512750.39743  24786316.6484                   24786304.4734
        38.7504         22.5004
  -5312306.07846  -4087150.88245  24341619.7814                   24341609.5394
        37.2504         35.0004
  -3797841.04145  -2718057.70343  24631975.2274                   24631966.6844
        35.0004         19.2504
 -19067741.78848 -21370824.50449  20555846.7734                   20555837.4694
        53.2504         55.0004
 23  1  8  0 20 30.0000000  0 11G23G24G27G08G22G10G21G18G31G01G32
 -10049148.57747  -9643402.89745  22174001.8914                   22173990.8874
        46.0004         35.0004
  -9860886.30646  -8439885.06644  23136427.4064                   23136418.6884
        38.0004         26.0004
  -5499165.78046  -4096074.59045  24360339.2894                   24360330.0434
        37.5004         31.7504
  -7284295.43845  -5642173.28045  23929773.6884                   23929765.7304
        35.2504         31.5004
 -11742077.00847  -9427989.46645  21679165.9304                   21679154.9264
        45.7504         34.0004
 -27734063.79148 -21488229.62649  20584881.1334                   20584871.8874
        52.2504         54.7504
 -13254169.33447  -9364673.24444  23283480.2584                   23283467.5554
        43.0004         29.0004
  -5646159.06046  -4422381.09043  24808383.8754                   24808373.9264
        36.7504         21.5004
  -5431678.05346  -4180167.99745  24318903.8834                   24318893.4064
        37.0004         34.2504
  -3906965.87345  -2803090.09143  24611208.4614                   24611200.9734
        33.7504         19.0004
 -19083164.19248 -21382841.95649  20552911.8834                   20552902.5784
        52.5004         54.7504
 23  1  8  0 21  0.0000000  0 11G23G24G27G08G22G10G21G18G31G01G32
  -9980170.48147  -9589653.75045  22187128.0784                   22187117.3094
        46.5004         35.5004
  -9782101.06546  -8378493.98844  23151420.4694                   23151411.5164
        39.0004         26.0004
  -5408068.24146  -4025089.50345  24377673.9144                   24377665.7234
        37.0004         32.5004
  -7228118.35545  -5598398.99145  23940464.2974                   23940456.8674
        35.7504         31.5004
 -11804376.20347  -9476534.27245  21667311.3204                   21667300.0234
        46.0004         34.5004
 -27718608.76248 -21476186.75949  20587822.0004                   20587812.9884
        51.5004         54.7504
 -13321692.11247  -9417288.41644  23270630.1804                   23270618.3554
        42.0004         29.0004
  -5530116.14246  -4331958.09543  24830467.2034                   24830456.1414
        37.0004         21.5004
  -5551025.11746  -4273165.72245  24296193.5864                   24296182.8754
        37.2504         34.7504
  -4015934.45145  -2888000.64543  24590472.9844                   24590464.4414
        34.7504         19.7504
 -19098181.59148 -21394543.81649  20550054.1954                   20550045.1844
        53.2504         54.7504
 23  1  8  0 21 30.0000000  0 11G23G24G27G08G22G10G21G18G31G01G32
  -9910964.70647  -9535727.19445  22200296.7194                   22200286.6524
        45.5004         35.0004
  -9702860.80046  -8316748.31244  23166499.2584                   23166490.3054
        38.5004         25.5004
  -5316862.79646  -3954020.33545  24395029.4774                   24395021.9304
        36.0004         32.5004
  -7171566.90546  -5554332.94045  23951226.7734                   23951218.3484
        37.2504         31.7504
 -11866349.87847  -9524825.42345  21655517.4224                   21655506.3594
        46.0004         34.0004
 -27702846.73548 -21463904.65349  20590822.0554                   20590811.8714
        52.2504         55.0004
 -13388910.93047  -9469666.69444  23257838.8834                   23257827.0004
        42.2504         28.5004
  -5414008.41346  -4241484.55043  24852560.9774                   24852550.3834
        36.7504         21.7504
  -5670346.25746  -4366143.26345  24273488.0084                   24273476.5354
        36.2504         34.5004
  -4124746.06845  -2972788.92543  24569766.5004                   24569758.3094
        34.5004         20.0004
 -19112796.44548 -21405932.00049  20547272.9924                   20547263.5704
        53.2504         55.0004
 23  1  8  0 22  0.0000000  0 11G23G24G27G08G22G10G21G18G31G01G32
  -9841529.24847  -9481621.66845  22213510.3364                   22213499.7424
        45.7504         35.0004
  -9623165.96346  -8254648.46744  23181664.8914                   23181655.5274
        39.0004         26.7504
  -5225550.04846  -3882867.56345  24412407.0394                   24412397.6764
        36.5004         32.2504
  -7114641.14945  -5509975.20945  23962057.7274                   23962049.3594
        35.2504         30.7504
