     2.10           OBSERVATION DATA    G (GPS)             RINEX VERSION / TYPE
teqc  2004Apr5                          20041208 15:58:23UTCPGM / RUN BY / DATE
OBSERVATION MODE: Permanent                                 COMMENT
CHUM Chumysh (CHUM)                                         MARKER NAME
25601M001                                                   MARKER NUMBER
T136                ROGUE SNR-8000       3.20               REC # / TYPE / VERS
113                 AOAD/M_T        NONE                    ANT # / TYPE
        0.0900        0.0000        0.0000                  ANTENNA: DELTA H/E/N
  1228950.8666  4508079.8930  4327868.4923                  APPROX POSITION XYZ
  74.75109760  42.99850107  716.3263  LonLatAlt  S/W        COMMENT
Linux 2.0.36|Pentium II|gcc -static|Linux|486/DX+           COMMENT
BIT 2 OF LLI FLAGS DATA COLLECTED UNDER A/S CONDITION       COMMENT
Konovalov           IVTAN                                   OBSERVER / AGENCY
     1     1                                                WAVELENGTH FACT L1/2
     5    L1    L2    C1    P2    P1                        # / TYPES OF OBSERV
    30.0000                                                 INTERVAL
    P1 =    P1  TurboRogue; =    Y1  Benchmark              COMMENT
    L1 = L1(P1) TurboRogue; = L1(Y1) Benchmark              COMMENT
    P2 =    P2  TurboRogue; =    Y2  Benchmark              COMMENT
    L2 = L2(P2) TurboRogue; = L2(Y2) Benchmark              COMMENT
 SNR is mapped to RINEX snr flag value [1,4-9]              COMMENT
    SNR:  >=316 >=100 >=31.6 >=10 >=3.2    >0 bad=0         COMMENT
L1 & L2:      9     8     7     6     5     4     1         COMMENT
  2002     1    10     0     0    0.0000000     GPS         TIME OF FIRST OBS
  2002     1    10    23    59   30.0000000     GPS         TIME OF LAST OBS
                                                            END OF HEADER
 02  1 10  0  0  0.0000000  0  8G20G22G29G11G25G 1G30G14
 -21421755.58549 -16692274.37747  21269534.416    21269534.300
 -12088318.73848  -9419469.50745  22576036.944    22576038.660
  -7277257.90349  -5670587.70446  22057098.935    22057098.869
 -10023347.37848  -7810402.59844  23457038.327    23457037.299
 -23114265.97749 -18011108.34047  20685016.309    20685015.933
  -9012734.76048  -7022907.39145  23374943.991    23374945.146
   1594273.56748   1242291.93944  24039291.785    24039296.319
  -1218535.91748   -949506.54145  23368966.764    23368966.632
 02  1 10  0  0 30.0000000  0  8G20G22G29G11G25G 1G30G14
 -21481171.57149 -16738572.54947  21258228.114    21258227.894
 -12194108.40248  -9501903.02945  22555906.687    22555907.318
  -7215079.53149  -5622137.04546  22068930.932    22068931.250
  -9948256.79148  -7751890.45544  23471328.042    23471327.385
 -23082631.76049 -17986458.30147  20691036.038    20691035.790
  -9091009.82748  -7083900.93845  23360048.630    23360050.819
   1664171.41648   1296757.82044  24052594.717    24052593.096
  -1139496.24748   -887917.23745  23384007.334    23384006.932
 02  1 10  0  1  0.0000000  0  8G20G22G29G11G25G 1G30G14
 -21540140.60349 -16784522.45347  21247006.290    21247006.089
 -12299660.47348  -9584151.40745  22535820.718    22535821.983
  -7152710.66349  -5573537.94146  22080799.350    22080799.892
  -9872907.52148  -7693176.75844  23485665.955    23485668.831
 -23050614.52149 -17961509.80747  20697128.859    20697128.688
  -9169199.10648  -7144827.63545  23345169.098    23345170.668
   1734527.69148   1351580.90544  24065982.562    24065982.726
  -1060332.47948   -826231.21645  23399072.150    23399073.395
 02  1 10  0  1 30.0000000  0  8G20G22G29G11G25G 1G30G14
 -21598664.35649 -16830125.38047  21235869.717    21235869.821
 -12404975.83848  -9666215.33045  22515779.487    22515781.339
  -7090155.60549  -5524793.75346  22092703.657    22092703.864
  -9797306.32948  -7634266.77644  23500052.978    23500052.338
 -23018219.86849 -17936267.22447  20703293.193    20703292.899
  -9247306.19348  -7205690.28845  23330306.451    23330307.552
   1805336.13448   1406756.28344  24079457.846    24079458.288
   -981049.38748   -764452.20445  23414159.095    23414158.789
 02  1 10  0  2  0.0000000  0  8G20G22G29G11G25G 1G30G14
 -21656743.71949 -16875382.02947  21224817.799    21224818.022
 -12510054.09349  -9748094.48845  22495784.253    22495785.721
  -7027417.65349  -5475907.05846  22104641.802    22104641.730
  -9721459.31248  -7575165.24744  23514485.847    23514487.801
 -22985452.49749 -17910734.20847  20709528.589    20709528.443
  -9325333.69448  -7266490.92845  23315458.288    23315459.325
   1876591.42948   1462279.87844  24093017.326    24093018.457
   -901650.05648   -702582.61945  23429268.454    23429268.533
 02  1 10  0  2 30.0000000  0  8G20G22G29G11G25G 1G30G14
 -21714386.90849 -16920298.80347  21213848.648    21213848.602
 -12614902.64148  -9829794.67045  22475831.304    22475833.040
  -6964507.30049  -5426886.02746  22116613.520    22116613.748
  -9645379.87748  -7515882.59444  23528962.703    23528965.540
 -22952324.36949 -17884920.07947  20715832.905    20715832.804
  -9403291.76748  -7327237.47145  23300623.021    23300625.045
   1948280.56548   1518141.55244  24106658.002    24106659.488
   -822145.37348   -640630.95045  23444397.338    23444397.510
 02  1 10  0  3  0.0000000  0  8G20G22G29G11G25G 1G30G14
 -21771601.47349 -16964881.58947  21202961.007    21202960.986
 -12719527.90048  -9911320.84145  22455921.648    22455924.640
  -6901434.85149  -5377738.68546  22128615.869    22128616.278
  -9569080.83448  -7456428.80544  23543482.454    23543484.247
 -22918846.75049 -17858833.62147  20722203.418    20722203.247
  -9481189.73848  -7387937.15245  23285799.462    23285802.207
   2020391.55448   1574331.88944  24120380.660    24120380.290
   -742545.78948   -578605.32745  23459544.836    23459543.798
 02  1 10  0  3 30.0000000  0  8G20G22G29G11G25G 1G30G14
 -21828362.52549 -17009110.98647  21192159.916    21192159.925
 -12823903.80849  -9992652.71945  22436060.635    22436061.410
  -6838177.67849  -5328447.39846  22140653.005    22140653.632
  -9492542.43348  -7396788.50944  23558046.209    23558044.350
 -22884998.31949 -17832458.21947  20728643.890    20728643.958
  -9559004.49248  -7448572.00545  23270992.102    23270993.088
   2092944.82148   1630866.99844  24134186.267    24134185.968
   -662828.82348   -516488.24345  23474714.783    23474714.674
 02  1 10  0  4  0.0000000  0  8G20G22G29G11G25G 1G30G14
 -21884685.30049 -17052998.86847  21181441.997    21181442.192
 -12928044.39549 -10073801.22545  22416242.793    22416245.213
  -6774753.11249  -5279025.67846  22152722.450    22152722.142
  -9415784.78348  -7336977.38944  23572653.509    23572651.589
 -22850797.88549 -17805808.52847  20735152.201    20735152.166
  -9636752.69248  -7509155.01545  23256196.868    23256197.530
   2165920.77448   1687731.34944  24148074.024    24148072.977
   -583012.03048   -454293.36445  23489902.885    23489902.243
 02  1 10  0  4 30.0000000  0  8G20G22G29G11G25G 1G30G14
 -21940550.98649 -17096530.57547  21170810.882    21170810.750
 -13031930.01749 -10154751.07745  22396474.112    22396475.893
  -6711145.08849  -5229461.00746  22164827.111    22164827.562
  -9338794.40948                  23587302.718
 -22816230.80349 -17778873.13547  20741730.454    20741730.445
  -9714417.72448  -7569673.20645  23241417.107    23241419.986
   2239333.41948   1744935.99844  24162043.501    24162042.974
   -503079.40048   -392008.23745  23505114.328    23505113.458
 02  1 10  0  5  0.0000000  0  8G20G22G29G11G25G 1G30G14
 -21995936.06949 -17139687.78747  21160271.521    21160271.601
 -13135535.85849 -10235482.89945  22376758.387    22376760.415
  -6647332.48749  -5179736.92346  22176969.527    22176969.823
  -9261552.82248  -7216796.66344  23602003.295    23602003.771
 -22781277.19149 -17751636.54847  20748381.810    20748381.884
  -9791977.71948  -7630109.54045  23226658.584    23226660.343
   2313201.81148   1802495.78144  24176100.549    24176101.424
   -423009.87148   -329616.41845  23520350.497    23520351.027
 02  1 10  0  5 30.0000000  0  8G20G22G29G11G25G 1G30G14
 -22050840.26949 -17182470.28247  21149823.568    21149823.544
 -13238860.67549 -10315995.74445  22357096.180    22357099.187
  -6583317.17949  -5129854.88446  22189151.890    22189151.781
  -9184064.98148                  23616746.534
 -22745940.29249 -17724101.29847  20755106.103    20755106.262
  -9869433.95848  -7690465.03745  23211918.974    23211920.833
   2387521.70048   1860407.41844  24190243.397    24190244.056
   -342805.73748   -267119.72145  23535613.367    23535613.430
 02  1 10  0  6  0.0000000  0  8G20G22G29G11G25G 1G30G14
 -22105262.31949 -17224877.07947  21139467.611    21139467.717
 -13341902.10049 -10396287.76445  22337488.163    22337489.137
  -6519100.40849  -5079815.86446  22201372.017    22201371.399
  -9106334.67348  -7095847.49344  23631539.931    23631539.613
 -22710222.67349 -17696269.37947  20761903.335    20761903.056
  -9946786.91548  -7750740.06545  23197199.704    23197200.763
   2462289.80748   1918668.23044  24204470.083    24204470.759
   -262468.57448   -204519.35745  23550900.731    23550900.402
 02  1 10  0  6 30.0000000  0  8G20G22G29G11G25G 1G30G14
 -22159220.92149 -17266922.74647  21129199.565    21129199.499
 -13444677.70049 -10476372.65045  22317930.493    22317932.727
  -6454703.17049  -5029636.21646  22213625.984    22213625.630
  -9028385.69548  -7035108.16444  23646373.309    23646374.009
 -22674146.62349 -17668158.16847  20768768.191    20768768.184
 -10024056.94048  -7810950.44445  23182495.173    23182498.199
   2537482.89648   1977260.29644  24218780.627    24218780.300
   -182019.29048   -141831.62745  23566210.087    23566209.128
 02  1 10  0  7  0.0000000  0  8G20G22G29G11G25G 1G30G14
 -22212728.52549 -17308616.98747  21119017.407    21119017.524
 -13547198.72549 -10556259.14745  22298421.852    22298423.683
  -6390140.35549  -4979327.55646  22225912.197    22225912.642
  -8950235.51648                  23661244.556
 -22637728.22549 -17639780.19047  20775698.323    20775698.302
 -10101258.17348  -7871107.23745  23167804.984    23167806.056
   2613083.98048   2036170.24244  24233166.550    24233167.152
   -101472.78048    -79068.15245  23581537.531    23581536.402
 02  1 10  0  7 30.0000000  0  8G20G22G29G11G25G 1G30G14
 -22265770.36249 -17349948.29247  21108924.350    21108924.177
 -13649449.05549 -10635934.73745  22278963.784    22278965.383
  -6325399.39149  -4928880.07146  22238231.655    22238232.041
  -8871874.49148                  23676156.936
 -22600956.47049 -17611126.86947  20782696.003    20782695.868
 -10178377.60548  -7931200.29545  23153128.858    23153130.577
   2689103.33248   2095406.05644  24247633.516    24247633.550
    -20816.83248    -16219.39245  23596885.514    23596885.596
 02  1 10  0  8  0.0000000  0  8G20G22G29G11G25G 1G30G14
 -22318334.63249 -17390907.46547  21098921.321    21098921.352
 -13751416.23649 -10715389.67145  22259560.374    22259562.847
  -6260471.07549  -4878286.59646  22250587.472    22250587.639
  -8793296.18148                  23691108.478
 -22563823.47149 -17582192.06047  20789761.928    20789761.834
 -10255405.24548  -7991221.81545  23138471.295    23138473.474
   2765547.99648   2154973.38444  24262180.104    24262181.446
     59957.86848     46721.89545  23612256.283    23612255.634
 02  1 10  0  8 30.0000000  0  8G20G22G29G11G25G 1G30G14
 -22370417.95049 -17431491.87047  21089009.768    21089009.604
 -13853095.20149 -10794620.03545  22240211.236    22240213.206
  -6195354.16249  -4827546.16546  22262978.323    22262978.455
  -8714501.83348  -6790522.30844  23706104.140    23706101.316
 -22526329.25749 -17552975.78047  20796896.935    20796896.860
 -10332339.05648  -8051170.21645  23123831.547    23123833.074
   2842417.08848   2214871.38644  24276807.171    24276807.170
    140852.07048    109756.32345  23627650.924    23627650.384
 02  1 10  0  9  0.0000000  0  8G20G22G29G11G25G 1G30G14
 -22422046.26349 -17471721.72947  21079185.449    21079185.320
 -13954511.09749 -10873645.41245  22220912.832    22220914.423
  -6130076.94649  -4776680.82946  22275400.413    22275400.906
  -8635522.89548                  23721132.473
 -22488503.67849 -17523501.30047  20804095.190    20804095.230
 -10409206.87948  -8111067.22945  23109203.259    23109204.686
   2919679.80448   2275076.07944  24291510.842    24291508.777
    221837.31148    172861.66245  23643061.030    23643061.563
 02  1 10  0  9 30.0000000  0  8G20G22G29G11G25G 1G30G14
 -22473207.65449 -17511587.75647  21069449.793    21069449.700
 -14055650.65549 -10952455.44946  22201665.852    22201668.429
  -6064629.72049  -4725683.00846  22287855.010    22287854.663
  -8556352.01948  -6667288.77744  23736198.655    23736200.201
 -22450338.16149 -17493761.94047  20811357.368    20811357.410
 -10485998.05249  -8170904.48545  23094591.697    23094592.253
   2997343.83548   2335593.50344  24306288.642    24306290.726
    302923.40548    236045.59445  23658491.253    23658491.351
 02  1 10  0 10  0.0000000  0  8G20G22G29G11G25G 1G30G14
 -22523892.26249 -17551082.25647  21059804.993    21059804.919
 -14156502.62049 -11031041.38145  22182475.435    22182477.069
  -5999004.68349  -4674546.63646  22300342.389    22300341.967
  -8476984.58048                  23751300.756
 -22411826.51049 -17463752.85847  20818685.877    20818685.887
 -10562704.31749  -8230675.59145  23079994.177    23079995.922
   3075414.39848   2396427.68244  24321146.116    24321143.152
    384117.73648    299313.88445  23673943.265    23673941.689
 02  1 10  0 10 30.0000000  0  8G20G22G29G11G25G 1G30G14
 -22574109.90549 -17590212.89247  21050248.728    21050248.735
 -14257076.02749 -11109410.26446  22163336.578    22163338.889
  -5933214.17549  -4623281.32446  22312862.331    22312862.430
  -8397435.61548                  23766440.497
 -22372982.24849 -17433484.59847  20826077.411    20826077.384
 -10639337.28148  -8290389.57245  23065410.783    23065411.995
   3153877.13648   2457567.50844  24336076.352    24336076.440
    465407.70448    362656.67445  23689410.894    23689410.575
 02  1 10  0 11  0.0000000  0  8G20G22G29G11G25G 1G30G14
 -22623854.07849 -17628974.58847  21040782.860    21040782.873
 -14357362.93249 -11187555.89646  22144252.944    22144254.670
  -5867254.09649  -4571883.88546  22325414.313    22325414.853
  -8317703.58748                  23781611.525
 -22333802.66449 -17402955.05247  20833533.558    20833533.508
 -10715891.93749  -8350042.53846  23050843.437    23050844.711
   3232733.96948   2519014.39544  24351081.633    24351078.731
    546797.55748    426077.29845  23704898.736    23704900.578
 02  1 10  0 11 30.0000000  0  8G20G22G29G11G25G 1G30G14
 -22673098.58949 -17667346.93647  21031411.857    21031412.020
 -14457335.92149 -11265456.92846  22125228.277    22125229.567
  -5801100.30949  -4520335.49946  22338002.506    22338003.638
  -8237767.29548                  23796823.129
 -22294265.22749 -17372146.66047  20841057.140    20841057.069
 -10792343.59249  -8409615.23545  23036295.177    23036296.768
   3312006.56248   2580785.24544  24366167.814    24366167.269
    628311.19248    489594.37245  23720411.557    23720411.253
 02  1 10  0 12  0.0000000  0  8G20G22G29G11G25G 1G30G14
 -22721847.45849 -17705333.07447  21022135.116    21022135.350
 -14556997.86149 -11343115.56346  22106263.069    22106264.582
  -5734759.01949  -4468641.00946  22350627.200    22350627.258
  -8157635.86648                  23812073.251
 -22254377.38649 -17341065.22747  20848647.216    20848647.218
 -10868697.97649  -8469112.12645  23021765.427    23021767.092
   3391686.43848   2642873.48244  24381330.456    24381330.985
    709941.98848    553202.76245  23735944.601    23735944.360
 02  1 10  0 12 30.0000000  0  8G20G22G29G11G25G 1G30G14
 -22770099.97349 -17742932.44147  21012953.218    21012953.319
 -14656346.83149 -11420530.32746  22087357.874    22087358.934
  -5668232.05449  -4416801.82446  22363287.145    22363288.313
  -8077313.39248                  23827357.152
 -22214141.98849 -17309712.97047  20856303.825    20856303.803
 -10944955.82149  -8528533.81245  23007255.249    23007254.528
   3471769.66948   2705275.93544  24396570.267    24396568.923
    791688.43248    616901.26145  23751500.389    23751501.803
 02  1 10  0 13  0.0000000  0  8G20G22G29G11G25G 1G30G14
 -22817850.44549 -17780140.60147  21003866.634    21003866.771
 -14755376.02249 -11497695.92346  22068513.094    22068514.681
  -5601515.77249  -4364815.14546  22375982.016    22375982.410
  -7996799.45348                  23842678.084
 -22173557.16349 -17278088.42847  20864027.094    20864027.089
 -11021112.94749  -8587877.01145  22992761.273    22992763.606
   3552257.28148   2767993.64844  24411885.319    24411887.425
    873553.90648    680692.48945  23767079.554    23767078.414
 02  1 10  0 13 30.0000000  0  8G20G22G29G11G25G 1G30G14
 -22865095.74549 -17816955.12947  20994876.130    20994876.093
 -14854080.61449 -11574608.57646  22049730.413    22049731.618
  -5534609.04649  -4312680.05146  22388714.587    22388715.276
  -7916095.48348                  23858035.223
 -22132623.22049 -17246191.85547  20871816.535    20871816.250
 -11097167.42349  -8647140.21346  22978290.040    22978290.752
   3633148.37548   2831025.60444  24427278.691    24427278.002
    955539.25248    744577.13745  23782679.871    23782679.430
 02  1 10  0 14  0.0000000  0  8G20G22G29G11G25G 1G30G14
 -22911855.48749 -17853391.29547  20985978.026    20985977.732
 -14952479.24849 -11651282.82546  22031005.728    22031007.326
  -5467534.04249  -4260413.83146  22401478.973    22401479.202
  -7835226.30948                  23873424.845
 -22091363.28449 -17214041.25447  20879668.224    20879667.942
 -11173140.57049  -8706340.06946  22963832.651    22963832.941
   3714418.40248   2894352.89344  24442744.456    24442743.281
   1037622.27148    808537.89645  23798300.621    23798301.059
 02  1 10  0 14 30.0000000  0  8G20G22G29G11G25G 1G30G14
 -22958122.59549 -17889443.59247  20977173.846    20977173.879
 -15050563.47049 -11727712.07646  22012341.406    22012341.872
  -5400285.58649  -4208012.46246  22414275.199    22414274.961
  -7754189.65647                  23888842.808
 -22049773.86449 -17181633.91147  20887582.363    20887582.019
 -11249026.73248  -8765472.11746  22949390.384    22949392.802
   3796070.03648   2957977.59944  24458281.127    24458280.064
   1119807.81248    872578.54745  23813940.039    23813940.316
 02  1 10  0 15  0.0000000  0  8G20G22G29G11G25G 1G30G14
 -23003875.97249 -17925095.58147  20968467.196    20968467.222
 -15148311.25949 -11803879.16946  21993739.566    21993742.370
  -5332845.05049  -4155461.41546  22427108.565    22427109.799
  -7672969.64148                  23904302.395
 -22007837.80449 -17148956.46647  20895562.689    20895562.364
 -11324806.30249  -8824521.12146  22934972.011    22934972.517
   3878119.63048   3021912.26244  24473894.981    24473892.934
   1202114.45148    936713.55745  23829602.066    23829602.237
 02  1 10  0 15 30.0000000  0  8G20G22G29G11G25G 1G30G14
 -23049116.96449 -17960348.30447  20959858.145    20959858.392
 -15245722.20549 -11879783.78846  21975203.670    21975205.427
  -5265215.76149  -4102763.28646  22439978.532    22439978.804
  -7591572.23947                  23919789.454
 -21965559.60649 -17116012.42147  20903607.922    20903607.578
 -11400481.83748  -8883489.04146  22920569.625    22920571.437
   3960561.65848   3086152.91744  24489583.592    24489583.353
   1284538.62148   1000940.12445  23845286.889    23845285.629
 02  1 10  0 16  0.0000000  0  8G20G22G29G11G25G 1G30G14
 -23093865.54049 -17995217.32947  20951342.780    20951342.659
 -15342815.13649 -11955440.60746  21956726.787    21956728.496
  -5197419.71549  -4049935.22446  22452879.770    22452878.715
  -7510022.41047                  23935308.471
 -21922962.49149 -17082819.87047  20911713.741    20911713.460
 -11476074.75349  -8942392.57845  22906185.444    22906186.264
   4043371.67848   3150680.14344  24505342.230    24505340.269
   1367058.42648   1065241.25545  23860990.508    23860990.570
 02  1 10  0 16 30.0000000  0  8G20G22G29G11G25G 1G30G14
 -23138138.31849 -18029715.60747  20942917.638    20942917.717
 -15439605.37449 -12030861.55746  21938308.043    21938309.744
  -5129475.87849  -3996991.98746  22465808.365    22465808.431
  -7428341.65347                  23950850.400
 -21880066.91749 -17049394.75347  20919876.553    20919876.211
 -11551603.01749  -9001245.76146  22891813.982    22891815.008
   4126528.43448   3215477.63644  24521166.009    24521166.347
   1449654.57748   1129601.86145  23876707.391    23876708.107
 02  1 10  0 17  0.0000000  0  8G20G22G29G11G25G 1G30G14
 -23181908.09249 -18063821.92747  20934588.786    20934588.645
 -15536064.57249 -12106024.55046  21919952.832    21919954.504
  -5061359.09749  -3943913.99846  22478770.591    22478770.363
  -7346507.68948                  23966424.434
 -21836849.37049 -17015718.74947  20928100.664    20928100.587
 -11627040.97348  -9060028.54146  22877456.290    22877458.593
   4210054.65148   3280562.98944  24537059.724    24537060.496
   1532351.92048   1194041.29545  23892444.119    23892443.769
 02  1 10  0 17 30.0000000  0  8G20G22G29G11G25G 1G30G14
 -23225151.97949 -18097518.46747  20926359.922    20926359.757
 -15632168.32449 -12180910.56646  21901665.060    21901667.066
  -4993048.64549  -3890685.09846  22491770.533    22491770.798
  -7264502.63947                  23982028.491
 -21793290.46349 -16981776.75047  20936389.930    20936389.713
 -11702367.07149  -9118724.17745  22863124.154    22863124.600
   4293968.74648   3345950.58244  24553028.778    24553026.161
   1615171.27348   1258575.80845  23908204.602    23908202.966
 02  1 10  0 18  0.0000000  0  8G20G22G29G11G25G 1G30G14
 -23267871.86549 -18130806.69447  20918230.350    20918230.162
 -15727917.05049 -12255519.95546  21883444.874    21883446.408
  -4924548.30149  -3837308.22745  22504804.959    22504804.801
  -7182332.86948                  23997666.608
 -21749395.19749 -16947572.65247  20944742.648    20944742.390
 -11777584.26449  -9177334.97545  22848810.874    22848811.808
   4378264.41148   3411635.52444  24569069.476    24569070.403
   1698108.72848   1323202.37745  23923986.978    23923986.634
 02  1 10  0 18 30.0000000  0  8G20G22G29G11G25G 1G30G14
 -23310074.64149 -18163691.97747  20910199.774    20910199.670
 -15823316.62949 -12329857.26146  21865290.097    21865292.533
  -4855867.38349  -3783790.63745  22517874.676    22517875.292
  -7100010.69348                  24013331.333
 -21705174.35249 -16913114.85747  20953157.306    20953157.364
 -11852701.03748  -9235867.50146  22834514.450    22834517.032
   4462930.19848   3477608.85444  24585180.337    24585180.770
   1781154.59948   1387913.43345  23939790.154    23939791.336
 02  1 10  0 19  0.0000000  0  8G20G22G29G11G25G 1G30G14
 -23351768.54649 -18196180.73647  20902265.444    20902265.612
 -15918373.79649 -12403927.75346  21847202.088    21847203.463
  -4787015.95649  -3730140.21245  22530976.544    22530977.505
  -7017548.80248                  24029023.591
 -21660639.44449 -16878412.33747  20961632.184    20961632.259
 -11927726.72949  -9294329.06246  22820239.500    22820239.578
   4547953.35248   3543860.66044  24601360.525    24601360.451
   1864298.75348   1452701.02245  23955611.749    23955612.961
 02  1 10  0 19 30.0000000  0  8G20G22G29G11G25G 1G30G14
 -23392952.95049 -18228272.48047  20894428.334    20894428.476
 -16013086.64349 -12477729.94646  21829178.189    21829180.005
  -4717995.45749  -3676358.02745  22544111.525    22544111.921
  -6934951.42048                  24044741.102
 -21615793.17349 -16843467.19647  20970166.116    20970166.046
 -12002661.94349  -9352720.13246  22805979.504    22805980.589
   4633330.09948   3610387.99144  24617606.684    24617606.292
   1947539.51048   1517563.91445  23971453.305    23971452.766
 02  1 10  0 20  0.0000000  0  8G20G22G29G11G25G 1G30G14
 -23433618.56249 -18259959.97247  20886689.731    20886689.769
 -16107444.54649 -12551255.55646  21811223.162    21811224.553
  -4648798.96249  -3622438.70745  22557278.057    22557279.066
  -6852214.20148                  24060485.799
 -21570629.96649 -16808275.09247  20978760.395    20978760.090
 -12077498.84848  -9411034.56746  22791737.374    22791739.340
   4719065.28048   3677194.63244  24633921.570    24633922.514
   2030884.22648   1582507.82445  23987311.135    23987310.806
 02  1 10  0 20 30.0000000  0  8G20G22G29G11G25G 1G30G14
 -23473733.99349 -18291218.75047  20879055.955    20879056.208
 -16201414.61449 -12624478.96046  21793340.741    21793342.544
  -4579396.77449  -3568359.11045  22570485.767    22570485.217
  -6769310.26248                  24076262.872
 -21525121.93749 -16772814.29847  20987420.036    20987419.991
 -12152207.05049  -9469248.73646  22777522.714    22777523.090
   4805185.93448   3744301.62044  24650310.375    24650309.140
   2114361.82748   1647555.24745  24003197.667    24003197.452
 02  1 10  0 21  0.0000000  0  8G20G22G29G11G25G 1G30G14
 -23513323.85849 -18322068.00047  20871522.657    20871522.618
 -16295019.94849 -12697418.14946  21775528.630    21775529.665
  -4509815.55649  -3514140.00145  22583727.136    22583726.431
  -6686268.98748                  24092064.396
 -21479296.65649 -16737106.29247  20996140.347    20996140.099
 -12226812.21948  -9527382.62546  22763323.640    22763325.678
   4891663.02448   3811686.37344  24666765.590    24666764.502
   2197945.75248   1712685.53145  24019103.341    24019102.367
 02  1 10  0 21 30.0000000  0  8G20G22G29G11G25G 1G30G14
 -23552402.91649 -18352519.21947  20864086.217    20864086.239
 -16388274.15849 -12770083.73346  21757782.573    21757784.438
  -4440072.13248  -3459794.50445  22596997.292    22596998.390
  -6603110.09048                  24107888.285
 -21433172.52949 -16701165.42047  21004917.577    21004917.405
 -12301330.70348  -9585448.94946  22749143.461    22749145.189
   4978477.31348   3879333.91044  24683286.282    24683286.442
   2281618.92948   1777885.36944  24035024.931    24035025.511
 02  1 10  0 22  0.0000000  0  8G20G22G29G11G25G 1G30G14
 -23590970.04849 -18382571.53247  20856746.712    20856746.926
 -16481174.69849 -12842473.72746  21740104.347    21740105.609
  -4370167.40549  -3405323.32145  22610300.418    22610300.797
  -6519837.20748                  24123736.237
 -21386751.83749 -16664993.45447  21013751.057    21013751.033
 -12375762.23949  -9643447.54146  22734981.794    22734982.389
   5065625.48148   3947241.52244  24699869.567    24699870.650
   2365380.36448   1843153.98045  24050964.282    24050963.635
 02  1 10  0 22 30.0000000  0  8G20G22G29G11G25G 1G30G14
 -23629006.49049 -18412210.32047  20849508.656    20849508.717
 -16573701.40349 -12914572.43246  21722497.360    21722498.463
  -4300084.64949  -3350713.40045  22623637.310    22623636.622
  -6436436.29448                  24139606.368
 -21340019.49549 -16628578.64247  21022644.351    21022644.015
 -12450089.53048  -9701364.89946  22720835.213    22720837.016
   5153122.00648   4015420.66844  24716519.860    24716516.012
   2449246.60048   1908504.26945  24066924.385    24066924.359
 02  1 10  0 23  0.0000000  0  8G20G22G29G11G25G 1G30G14
 -23666525.30249 -18441445.75847  20842369.245    20842369.334
 -16665865.83649 -12986388.84046  21704958.486    21704960.094
  -4229838.93948  -3295976.51645  22637003.625    22637004.885
  -6352924.93848                  24155497.169
 -21292991.51949 -16591933.47047  21031593.454    21031593.128
 -12524326.60549  -9759211.94546  22706709.683    22706711.017
   5240949.08748   4083857.34544  24733232.541    24733235.200
   2533202.70148   1973924.55545  24082900.383    24082901.755
 02  1 10  0 23 30.0000000  0  8G20G22G29G11G25G 1G30G14
 -23703493.96749 -18470252.51347  20835334.351    20835334.191
 -16757633.84149 -13057896.35746  21687496.270    21687497.409
  -4159399.32748  -3241088.53545  22650408.340    22650409.651
  -6269275.30748                  24171415.468
 -21245638.71049 -16555035.17947  21040604.260    21040603.820
 -12598441.76349  -9816964.01246  22692606.655    22692607.264
   5329135.37248   4152573.89144  24750013.704    24750012.843
   2617279.19648   2039438.64845  24098899.013    24098898.470
 02  1 10  0 24  0.0000000  0  8G20G22G29G11G25G 1G30G14
 -23739930.45349 -18498644.58147  20828400.617    20828400.582
 -16849022.19549 -13129108.03846  21670105.016    21670106.780
  -4088785.85748  -3186065.07745  22663845.474    22663845.871
  -6185510.10748  -4819880.27444  24187355.649    24187357.086
 -21197982.50549 -16517900.48147  21049673.060    21049672.605
 -12672454.22749  -9874636.04646  22678520.952    22678522.707
   5417658.38448   4221552.83844  24766859.653    24766861.456
   2701455.79848   2105030.76345  24114918.836    24114918.295
 02  1 10  0 24 30.0000000  0  7G22G20G29G11G25G 1G14
 -16940030.24549 -13200023.38146  21652787.269    21652788.775
 -23775835.58549 -18526622.60647  20821567.877    20821567.928
  -4018001.61149  -3130908.55745  22677315.909    22677316.441
  -6101634.79948                  24203317.254
 -21150026.62149 -16480532.26247  21058798.572    21058798.129
 -12746365.92449  -9932229.56246  22664457.336    22664458.520
   2785729.72548   2170698.74745  24130954.544    24130954.715
 02  1 10  0 25  0.0000000  0  7G20G22G29G11G25G 1G14
 -23811195.13049 -18554175.50047  20814839.176    20814839.142
 -17030642.25649 -13270630.12746  21635544.130    21635546.053
  -3947034.01248  -3075609.15345  22690820.343    22690821.184
  -6017639.87548                  24219299.281
 -21101760.55149 -16442922.34147  21067983.301    21067982.904
 -12820163.55649  -9989734.19846  22650413.483    22650414.517
   2870113.08848   2236451.95445  24147012.214    24147012.159
 02  1 10  0 25 30.0000000  0  8G20G22G29G11G25G 1G 4G14
 -23846021.29049 -18581312.76947  20808212.146    20808211.998
 -17120869.03349 -13340936.68046  21618374.586    21618375.990
  -3875897.01948  -3020177.77345  22704356.552    22704358.846
  -5933541.88848  -4623541.50344  24235304.314    24235301.228
 -21053199.57049 -16405082.62347  21077224.112    21077223.734
 -12893860.30949 -10047160.21546  22636389.310    22636391.535
        -1.12158                  25320034.835
   2954591.68848   2302279.39544  24163088.767    24163088.892
 02  1 10  0 26  0.0000000  0  8G20G22G29G11G25G 1G 4G14
 -23880308.35149 -18608029.96247  20801687.645    20801687.499
 -17210703.48149 -13410937.52446  21601279.267    21601280.909
  -3804587.10048  -2964611.61845  22717927.355    22717927.542
  -5849339.63548                  24251325.556
 -21004341.25649 -16367011.21647  21086521.725    21086521.274
 -12967451.71349 -10104504.15346  22622385.905    22622386.794
    -53046.43948                  25309941.697
   3039169.27848   2368183.97244  24179182.172    24179181.580
 02  1 10  0 26 30.0000000  0  8G20G22G29G11G25G 1G 4G14
 -23914061.48849 -18634331.10847  20795264.487    20795264.577
 -17300149.27949 -13480635.51646  21584258.490    21584259.800
  -3733111.27548  -2908916.20145  22731528.198    22731528.678
  -5765043.31848                  24267368.493
 -20955194.30849 -16328714.89647  21095873.865    21095873.556
 -13040943.96849 -10161770.83646  22608400.468    22608401.569
   -105644.17548                  25299933.090
   3123838.60148   2434160.01945  24195294.684    24195293.387
 02  1 10  0 27  0.0000000  0  8G20G22G29G11G25G 1G 4G14
 -23947274.73149 -18660211.55947  20788944.130    20788944.303
 -17389198.81049 -13550024.74046  21567312.637    21567314.204
  -3661465.39648  -2853088.25945  22745161.644    22745163.337
  -5680651.31848  -4426484.01444  24283427.272    24283428.000
 -20905755.81649 -16290191.39947  21105281.843    21105281.370
 -13114331.74049 -10218956.09246  22594434.579    22594436.174
   -157788.02848                  25290009.189
   3208603.55148   2500210.60345  24211424.945    24211424.575
 02  1 10  0 27 30.0000000  0  8G20G22G29G11G25G 1G 4G14
 -23979934.75949 -18685660.93247  20782729.265    20782729.259
 -17477837.37149 -13619093.71846  21550445.829    21550446.896
  -3589637.85748  -2797118.78145  22758830.553    22758830.104
  -5596154.86548                  24299507.288
 -20856016.14149 -16251433.21547  21114747.032    21114746.809
 -13187602.81549 -10276050.41646  22580492.440    22580493.480
   -209464.86448                  25280175.980
   3293475.62848   2566344.62544  24227575.516    24227577.930
 02  1 10  0 28  0.0000000  0  8G20G22G29G11G25G 1G 4G14
 -24012045.73349 -18710682.47247  20776619.069    20776618.958
 -17566067.55849 -13687844.49146  21533655.249    21533656.981
  -3517634.62148  -2741012.39345  22772532.143    22772532.971
  -5511562.57648  -4294726.60044  24315603.447    24315602.293
 -20805982.26049 -16212445.77847  21124267.770    21124267.562
 -13260762.24949 -10333057.75446  22566570.098    22566570.984
   -260678.86248                  25270431.343
   3378448.74948   2632557.40244  24243745.682    24243745.793
 02  1 10  0 28 30.0000000  0  8G20G22G29G11G25G 1G 4G14
 -24043614.08649 -18735281.19147  20770611.845    20770611.589
 -17653894.07249 -13756280.71746  21516943.368    21516945.161
  -3445463.71548  -2684775.36845  22786265.418    22786266.348
  -5426885.37448                  24331717.450
 -20755663.19449 -16173236.11647  21133843.483    21133843.138
 -13333817.03749 -10389983.55146  22552668.475    22552669.760
   -311435.97848                  25260772.387
   3463514.74148   2698842.55745  24259932.711    24259933.167
 02  1 10  0 29  0.0000000  0  8G20G22G29G11G25G 1G 4G14
 -24074637.62349 -18759455.37547  20764708.032    20764707.937
 -17741313.60449 -13824399.80546  21500307.317    21500309.002
  -3373125.02548  -2628407.59645  22800031.450    22800031.167
  -5342125.64348                  24347845.966
 -20705060.38149 -16133805.35647  21143473.005    21143472.844
 -13406766.16849 -10446827.00946  22538786.941    22538787.284
   -361734.45848                  25251200.444
   3548673.51048   2765199.98644  24276137.915    24276138.417
 02  1 10  0 29 30.0000000  0  8G20G22G29G11G25G 1G 4G14
 -24105109.46549 -18783199.67147  20758909.329    20758909.238
 -17828317.44649 -13892194.99246  21483751.136    21483753.258
  -3300613.57548  -2571905.17445  22813830.343    22813831.086
  -5257280.80748                  24363991.256
 -20654169.97649 -16094150.49847  21153156.671    21153156.790
 -13479603.47549 -10503583.34346  22524926.093    22524927.641
   -411567.31648                  25241717.774
   3633930.04048   2831633.61744  24292362.361    24292362.065
 02  1 10  0 30  0.0000000  0  8G20G22G29G11G25G 1G 4G14
 -24135010.71549 -18806499.34947  20753219.244    20753219.182
 -17914885.20949 -13959650.37346  21467277.896    21467279.427
  -3227911.82048  -2515254.49345  22827663.821    22827665.986
  -5172336.21448                  24380156.530
 -20602976.17549 -16054259.23047  21162898.638    21162898.423
 -13552310.83449 -10560238.41746  22511090.832    22511091.959
   -460915.32948                  25232327.354
   3719301.52948   2898156.80844  24308607.578    24308607.266
 02  1 10  0 30 30.0000000  0  8G20G22G29G11G25G 1G 4G14
 -24164359.30049 -18829368.38147  20747634.285    20747634.474
 -18001033.49449 -14026778.89246  21450884.716    21450885.914
  -3155039.74348  -2458471.08445  22841532.972    22841533.276
  -5087314.62848                  24396335.581
 -20551500.15749 -16014148.04947  21172694.323    21172694.461
 -13624907.04049 -10616806.87246  22497276.224    22497276.715
   -509796.69448                  25223025.102
   3804768.19348   2964754.12944  24324871.257    24324871.002
 02  1 10  0 31  0.0000000  0  8G20G22G29G11G25G 1G 4G14
 -24193152.96849 -18851805.00747  20742155.421    20742155.402
 -18086758.22549 -14093577.36846  21434571.506    21434572.845
  -3081996.86548  -2401554.58345  22855431.502    22855432.060
  -5002218.04148                  24412528.847
 -20499742.62549 -15973817.50547  21182543.082    21182543.142
 -13697390.55149 -10673287.51546  22483482.207    22483483.534
   -558209.13148                  25213811.236
   3890330.42148   3031425.99444  24341153.169    24341150.057
 02  1 10  0 31 30.0000000  0  8G20G22G29G11G25G 1G 4G14
 -24221387.30949 -18873805.79647  20736782.606    20736782.506
 -18172053.41149 -14160041.12846  21418340.337    21418341.769
  -3008780.04948  -2344502.55245  22869363.025    22869365.367
  -4917046.32348                  24428737.296
 -20447702.13949 -15933266.48247  21192446.180    21192446.405
 -13769757.62549 -10729677.41946  22469712.117    22469713.157
   -606148.13448                  25204690.136
   3975990.86448   3098174.31744  24357455.134    24357453.987
 02  1 10  0 32  0.0000000  0  8G20G22G29G11G25G 1G 4G14
 -24249051.47249 -18895362.28947  20731518.185    20731518.041
 -18256906.81249 -14226160.64246  21402193.380    21402194.361
  -2935380.42948  -2287308.08045  22883332.740    22883333.372
  -4831793.11648                  24444959.120
 -20395370.95849 -15892488.94047  21202404.672    21202404.924
 -13841998.37749 -10785968.90446  22455964.672    22455965.903
   -653602.57348                  25195660.293
   4061758.35748   3165006.08644  24373774.711    24373776.828
 02  1 10  0 32 30.0000000  0  8G20G22G29G11G25G 1G 4G14
 -24276166.76149 -18916491.08747  20726358.331    20726358.210
 -18341337.92849 -14291951.10746  21386126.708    21386128.187
  -2861820.97448  -2229989.05545  22897330.027    22897330.916
  -4746483.76848                  24461193.888
 -20342773.54649 -15851503.94747  21212413.392    21212413.764
 -13914134.44849 -10842178.80946  22442237.472    22442238.555
   -700266.83747                  25186718.888
   4147610.10848   3231903.51144  24390111.730    24390111.037
 02  1 10  0 33  0.0000000  0  8G20G22G29G11G25G 1G 4G14
 -24302743.17649 -18937199.98847  20721300.952    20721301.031
 -18425355.40549 -14357419.25346  21370139.037    21370140.067
  -2788113.42548  -2172554.62845  22911355.055    22911356.127
  -4661132.90848                  24477435.375
 -20289922.97849 -15810321.68447  21222470.748    21222471.053
 -13986176.54549 -10898315.47746  22428528.486    22428529.977
   -746055.06947                  25177863.761
   4233534.01848   3298857.16144  24406464.003    24406461.931
 02  1 10  0 33 30.0000000  0  7G20G22G29G11G25G 1G14
 -24328740.71049 -18957457.81247  20716353.532    20716353.703
 -18508917.48449 -14422532.54846  21354237.023    21354237.867
  -2714219.12048  -2114974.70545  22925417.749    22925417.734
  -4575704.54548                  24493691.940
 -20236782.22549 -15768913.30847  21232583.253    21232583.412
 -14058085.30249 -10954348.25646  22414845.186    22414845.810
   4319568.55548   3365897.00344  24422834.692    24422835.111
 02  1 10  0 34  0.0000000  0  7G20G22G29G11G25G 1G14
 -24354163.28849 -18977267.61747  20711515.554    20711515.683
 -18592026.48849 -14487292.78646  21338422.246    21338423.760
  -2640143.86448  -2057253.75545  22939514.353    22939515.032
  -4490207.00248                  24509962.407
 -20183357.92849 -15727283.98647  21242749.178    21242749.492
 -14129865.37449 -11010280.76346  22401184.881    22401185.899
   4405708.00548   3433018.60044  24439226.243    24439228.185
 02  1 10  0 34 30.0000000  0  8G20G22G29G11G25G 1G 4G14
 -24379025.77349 -18996640.98447  20706784.615    20706784.966
 -18674695.73349 -14551710.35146  21322690.657    21322692.140
  -2565904.12448  -1999404.62845  22953640.469    22953641.835
  -4404659.39648                  24526239.795
 -20129667.92449 -15685447.62247  21252966.467    21252966.533
 -14201532.39649 -11066125.17446  22387547.878    22387548.078
         -.26758                  25151851.165
   4491935.71848   3500208.93544  24455635.796    24455633.671
 02  1 10  0 35  0.0000000  0  7G22G20G29G11G25G 1G14
 -18756915.43549 -14615777.62946  21307044.846    21307046.442
 -24403320.07649 -19015571.61547  20702161.601    20702161.912
  -2491493.29548  -1941422.19945  22967801.114    22967800.700
  -4319057.65048                  24542531.587
 -20075706.90449 -15643400.06947  21263234.833    21263234.883
 -14273078.76049 -11121875.56746  22373932.651    22373933.446
   4578258.01548   3567473.05744  24472061.938    24472061.894
 02  1 10  0 35 30.0000000  0  7G20G22G29G11G25G 1G14
 -24427071.18149 -19034078.97647  20697642.206    20697642.396
 -18838708.91949 -14679512.78746  21291479.909    21291481.489
  -2416937.97048  -1883327.17445  22981988.461    22981987.954
  -4233431.02848                  24558823.664
 -20021502.78549 -15601163.09047  21273549.399    21273549.447
 -14344529.92749 -11177551.77646  22360335.355    22360336.161
   4664648.27648   3634790.02344  24488500.596    24488502.924
 02  1 10  0 36  0.0000000  0  7G20G22G29G11G25G 1G14
 -24450248.41449 -19052139.16447  20693231.732    20693232.070
 -18920044.02949 -14742890.77246  21276002.799    21276003.829
  -2342208.95848  -1825096.81245  22996208.344    22996208.705
  -4147753.05348                  24575129.597
 -19967028.23149 -15558715.38647  21283915.646    21283915.532
 -14415855.84049 -11233130.38846  22346763.112    22346763.703
   4751135.57648   3702182.73144  24504960.332    24504959.751
 02  1 10  0 36 30.0000000  0  7G20G22G29G11G25G 1G14
 -24472833.48549 -19069737.92647  20688933.846    20688934.031
 -19000900.63149 -14805895.89746  21260615.726    21260616.989
  -2267289.50148  -1766718.03445  23010465.919    23010467.179
  -4062009.50248                  24591443.890
 -19912267.37749 -15516044.58747  21294336.376    21294336.209
 -14487038.54249 -11288597.40046  22333217.226    22333218.472
   4837736.72848   3769664.07644  24521439.110    24521438.424
 02  1 10  0 37  0.0000000  0  7G20G22G29G11G25G 1G14
 -24494852.50749 -19086895.61247  20684743.639    20684743.760
 -19081303.29549 -14868547.30446  21245316.238    21245317.641
  -2192207.34948  -1708212.49645  23024753.039    23024755.172
  -3976230.60148                  24607768.348
 -19857249.35049 -15473173.39847  21304805.760    21304805.845
 -14558104.65749 -11343973.56646  22319693.648    22319695.321
   4924423.72948   3837212.28844  24537934.792    24537935.219
 02  1 10  0 37 30.0000000  0  8G20G22G29G11G25G 1G13G14
 -24516303.09549 -19103610.36547  20680661.757    20680662.055
 -19161247.96049 -14930841.83246  21230102.638    21230103.879
  -2116961.50948  -1649579.39345  23039072.813    23039073.415
  -3890418.22348                  24624096.868
 -19801974.36049 -15430101.97947  21315324.148    21315324.157
 -14629052.36749 -11399257.46746  22306193.614    22306194.630
         -.49657                  25220257.352
   5011197.40848   3904828.05944  24554447.477    24554447.030
 02  1 10  0 38  0.0000000  0  7G20G22G29G11G25G 1G14
 -24537165.03349 -19119866.42947  20676692.100    20676692.260
 -19240712.72349 -14992762.40546  21214980.888    21214982.631
  -2041533.38448  -1590804.25445  23053425.928    23053426.134
  -3804555.92847                  24640434.878
 -19746424.90749 -15386816.69047  21325895.242    21325895.271
 -14699861.76949 -11454433.60746  22292718.303    22292718.839
   5098076.44448   3972525.94644  24570980.297    24570981.943
 02  1 10  0 38 30.0000000  0  8G20G22G29G11G25G 1G13G14
 -24557430.33449 -19135657.57947  20672836.075    20672836.234
 -19319687.93949 -15054301.51546  21199952.611    21199954.020
  -1965916.29448  -1531881.90145  23067814.718    23067815.159
  -3718639.96048                  24656785.691
 -19690596.03349 -15343313.66847  21336518.942    21336519.031
 -14770525.17849 -11509495.97746  22279271.360    22279272.193
         -.38257                  25185359.208
   5185067.20248   4040310.87344  24587533.909    24587534.059
 02  1 10  0 39  0.0000000  0  8G20G22G29G11G25G 1G13G14
 -24577127.62449 -19151006.12747  20669087.204    20669087.527
 -19398200.40549 -15115480.04546  21185012.237    21185013.624
  -1890140.28548  -1472835.69045  23082234.936    23082236.477
  -3632702.96147                  24673137.908
 -19634518.86749 -15299617.17647  21347190.237    21347190.160
 -14841071.52849 -11564467.13146  22265847.854    22265848.456
    -91721.00447                  25167905.151
   5272139.36748   4108159.23244  24604104.099    24604105.143
 02  1 10  0 39 30.0000000  0  7G20G22G29G11G25G 1G14
 -24596259.36749 -19165913.98647  20665446.398    20665446.756
 -19476251.16149 -15176298.79046  21170159.501    21170161.353
  -1814209.40648  -1413668.79745  23096684.115    23096685.408
  -3546751.43548                  24689496.228
 -19578199.00549 -15255731.56947  21357907.459    21357907.482
 -14911503.70749 -11619349.32446  22252444.221    22252445.544
   5359289.17048   4176068.11444  24620687.358    24620687.110
 02  1 10  0 40  0.0000000  0  6G20G22G29G25G 1G14
 -24614815.78649 -19180373.53947  20661915.559    20661915.709
 -19553828.62249 -15236748.73946  21155396.855    21155398.221
  -1738115.32648  -1354374.75045  23111163.899    23111164.048
 -19521629.25149 -15211651.24447  21368671.801    21368672.188
 -14981812.28149 -11674135.20646  22239064.931    22239065.726
   5446524.93848   4244043.92944  24637288.034    24637286.081
 02  1 10  0 40 30.0000000  0  8G20G22G29G 4G25G 1G13G14
 -24632818.03349 -19194401.27047  20658489.989    20658490.109
 -19630952.15149 -15296844.97346  21140720.917    21140722.563
  -1661880.51748  -1294971.02145  23125671.581    23125672.605
        -1.13358                  25056119.867
 -19464832.95649 -15167394.39447  21379480.357    21379480.366
 -15052018.62649 -11728841.42846  22225705.901    22225706.641
        -1.20257                  25115511.598
   5533823.81048   4312068.96544  24653901.535    24653898.801
 02  1 10  0 41  0.0000000  0  8G22G20G29G 4G25G 1G13G14
 -19707607.05649 -15356576.04846  21126133.720    21126135.485
 -24650253.03549 -19207986.99347  20655171.740    20655171.954
  -1585493.11448  -1235448.42145  23140206.826    23140208.307
    -38763.01148                  25048742.662
 -19407799.77949 -15122952.96247  21390333.186    21390333.321
 -15122109.90649 -11783457.99246  22212367.083    22212368.160
    -91836.81548                  25098038.112
   5621197.37148   4380152.18044  24670527.340    24670527.944
 02  1 10  0 41 30.0000000  0  8G22G20G29G 4G25G 1G13G14
 -19783748.73549 -15415907.21246  21111645.198    21111646.373
 -24667077.99349 -19221097.35747  20651969.890    20651970.158
  -1508911.76348  -1175774.69445  23154780.621    23154780.780
    -76999.66048    -59998.69744  25041467.005    25041465.696
 -19350489.91749 -15078295.92947  21401238.762    21401239.000
 -15192043.42749 -11837951.62746  22199059.260    22199060.357
   -183657.82448                  25080564.562
   5708687.02648   4448325.87044  24687176.137    24687178.628
 02  1 10  0 42  0.0000000  0  8G22G20G29G 4G25G 1G13G14
 -19859379.33349 -15474840.13046  21097252.203    21097253.815
 -24683296.77649 -19233735.38047  20648883.977    20648884.080
  -1432141.65448  -1115953.86645  23169388.588    23169389.147
   -114714.73948                  25034290.357
 -19292910.00149 -15033428.46347  21412196.160    21412196.184
 -15261823.33349 -11892325.56646  22185780.662    22185781.242
   -275468.59648                  25063093.104
   5796287.37448   4516585.79144  24703845.840    24703846.598
 02  1 10  0 42 30.0000000  0  7G22G20G29G 4G25G 1G14
 -19934526.73449 -15533396.52446  21082952.635    21082953.842
 -24698939.06349 -19245924.18647  20645907.417    20645907.393
  -1355213.71448  -1056010.04445  23184028.454    23184028.979
   -151937.77848                  25027206.757
 -19235091.98149 -14988375.46447  21423198.627    21423198.511
 -15331479.49749 -11946603.06946  22172525.248    22172526.355
   5883967.51348   4584907.89944  24720531.106    24720533.286
 02  1 10  0 43  0.0000000  0  7G20G22G29G 4G25G 1G14
 -24714001.11849 -19257660.85947  20643041.212    20643041.542
 -20009185.43849 -15591572.12346  21068745.841    21068746.929
  -1278125.71248   -995941.50245  23198697.681    23198697.900
   -188665.34148                  25020217.764
 -19177034.39649 -14943135.78947  21434246.297    21434246.438
 -15401008.41149 -12000781.41846  22159294.485    22159295.523
   5971729.68748   4653293.92444  24737231.877    24737231.662
 02  1 10  0 43 30.0000000  0  7G22G20G29G 4G25G 1G14
 -20083353.80149 -15649365.63646  21054631.903    21054633.244
 -24728482.80149 -19268945.29847  20640285.538    20640285.499
  -1200878.52948   -935748.91245  23213396.022    23213397.269
   -224896.97648   -175243.41044  25013323.313    25013322.325
 -19118739.87549 -14897711.48847  21445339.528    21445339.461
 -15470409.95749 -12054860.50746  22146088.482    22146089.513
   6059572.79148   4721743.03344  24753947.800    24753949.455
 02  1 10  0 44  0.0000000  0  8G22G20G29G 4G25G 1G13G14
 -20157017.14749 -15706765.63246  21040613.775    21040615.288
 -24742371.36449 -19279767.56347  20637642.699    20637642.844
  -1123460.98348   -875423.61045  23228129.883    23228129.160
   -260619.84348   -203079.46444  25006526.435    25006525.861
 -19060198.03849 -14852094.46947  21456479.915    21456479.619
 -15539671.61549 -12108830.60446  22132907.093    22132908.064
          .03658                  24993177.212
   6147507.96848   4790263.81044  24770682.146    24770681.008
 02  1 10  0 44 30.0000000  0  8G22G20G29G 4G25G 1G13G14
 -20230160.53049 -15763760.45846  21026695.638    21026697.100
 -24755653.78149 -19290117.50747  20635115.187    20635115.399
  -1045860.96148   -814956.07445  23242896.267    23242897.587
   -295820.88348                  24999827.432
 -19001398.70949 -14806276.81647  21467668.931    21467668.849
 -15608780.05149 -12162681.31546  22119757.168    22119758.236
    -91861.72148                  24975696.655
   6235547.19648   4858865.79144  24787434.491    24787438.019
 02  1 10  0 45  0.0000000  0  8G22G20G29G 4G25G 1G13G14
 -20302798.29249 -15820361.29546  21012872.637    21012873.811
 -24768345.72449 -19300007.34047  20632699.786    20632699.927
   -968095.69548   -754359.80445  23257693.448    23257695.131
   -330515.87048                  24993224.316
 -18942360.15849 -14760272.75247  21478903.530    21478903.533
 -15677751.34749 -12216425.15446  22106632.841    22106633.602
   -183731.73648                  24958215.060
   6323673.10448   4927535.18744  24804204.264    24804205.079
 02  1 10  0 45 30.0000000  0  8G22G20G29G 4G25G 1G13G14
 -20374908.59949 -15876551.12646  20999150.176    20999151.851
 -24780427.47049 -19309421.69947  20630400.590    20630400.939
   -890146.42248   -693620.16845  23272528.639    23272529.800
   -364684.90148                  24986722.423
 -18883064.49249 -14714068.34347  21490187.141    21490187.140
 -15746565.57349 -12270046.60646  22093536.901    22093537.587
   -275590.26848                  24940734.203
   6411904.23948   4996286.63644  24820995.243    24820996.424
 02  1 10  0 46  0.0000000  0  8G29G25G 1G20G22G 4G13G14
   -812033.92848   -632753.32645  23287391.470    23287393.643
 -18823533.71649 -14667680.73247  21501515.339    21501515.648
 -15815242.25649 -12323560.87646  22080467.998    22080469.022
 -24791918.73649 -19318375.93947  20628213.681    20628213.954
 -20446509.19749 -15932343.78546  20985525.309    20985526.788
   -398347.32948   -310399.69444  24980316.470    24980315.382
   -367457.30148                  24923251.905
   6500219.82048   5065103.85544  24837800.907    24837803.022
 02  1 10  0 46 30.0000000  0  8G29G25G 1G20G22G 4G13G14
   -733774.81848   -571772.23045  23302283.733    23302284.373
 -18763785.81949 -14621123.93447  21512884.954    21512884.901
 -15883796.84449 -12376980.00746  22067423.575    22067424.135
 -24802834.73049 -19326881.91547  20626136.697    20626136.939
 -20517613.78449 -15987749.93846  20971994.832    20971996.296
   -431518.38548                  24974004.325
   -459348.38448                  24905765.540
   6588603.23848   5133973.97544  24854619.296    24854619.331
 02  1 10  0 47  0.0000000  0  8G29G25G 1G20G22G 4G13G14
   -655351.98048   -510663.55345  23317208.024    23317209.227
 -18703804.85449 -14574385.52447  21524299.166    21524299.230
 -15952211.05349 -12430289.75946  22054404.074    22054405.515
 -24813157.31949 -19334925.50047  20624172.328    20624172.676
 -20588202.44949 -16042754.07046  20958561.969    20958563.359
   -464179.96148   -361697.88944  24967789.761    24967789.752
   -551245.89948                  24888278.673
   6677071.47348   5202910.15944  24871454.898    24871456.823
 02  1 10  0 47 30.0000000  0  8G29G25G 1G20G22G 4G13G14
   -576776.22148   -449435.71845  23332159.792    23332162.813
 -18643602.81549 -14527474.85047  21535755.210    21535755.386
 -16020494.30349 -12483497.45946  22041409.355    22041410.545
 -24822896.00649 -19342514.09947  20622318.781    20622319.132
 -20658282.84849 -16097362.15146  20945226.207    20945227.958
   -496341.47148   -386758.85044  24961668.768    24961668.040
   -643159.38148                  24870788.635
   6765613.67648   5271903.98344  24888304.047    24888307.140
 02  1 10  0 48  0.0000000  0  8G29G25G 1G20G22G 4G13G14
   -498035.53048   -388079.41845  23347143.070    23347144.336
 -18583169.00549 -14480383.57147  21547255.059    21547255.136
 -16088633.54449 -12536592.95746  22028444.340    22028444.952
 -24832038.00049 -19349637.74147  20620579.294    20620579.336
 -20727840.37249 -16151562.79646  20931989.908    20931991.522
   -527989.99248   -411420.04244  24955646.874    24955648.543
   -735076.12748                  24853296.194
   6854241.63348   5340964.64744  24905169.057    24905168.366
 02  1 10  0 48 30.0000000  0  8G29G25G 1G20G22G 4G13G14
   -419139.09348   -326601.69145  23362158.065    23362159.173
 -18522513.32149 -14433119.40347  21558797.579    21558797.685
 -16156636.56049 -12589582.29646  22015503.510    22015504.414
 -24840591.12749 -19356302.52747  20618951.982    20618952.210
 -20796881.01949 -16205360.67546  20918851.703    20918852.950
   -559133.30448                  24949720.628
   -827004.22348                  24835805.171
   6942946.21048   5410084.99944  24922049.451    24922051.711
 02  1 10  0 49  0.0000000  0  8G29G25G 1G20G22G 4G13G14
   -340084.16448   -265000.48745  23377200.417    23377201.249
 -18461634.70549 -14385681.52447  21570382.382    21570382.414
 -16224499.52149 -12642462.49046  22002588.599    22002590.262
 -24848551.75349 -19362505.62447  20617437.046    20617437.205
 -20865399.41549 -16258751.60946  20905813.385    20905814.314
   -589767.46948                  24943891.366
   -918940.02848                  24818307.136
   7031729.88848   5479266.97444  24938944.613    24938944.655
 02  1 10  0 49 30.0000000  0  8G29G25G 1G20G22G 4G13G14
   -260873.76448   -203278.15444  23392273.989    23392275.475
 -18400537.17749 -14338073.06547  21582008.825    21582008.918
 -16292224.11749 -12695234.85746  21989702.095    21989702.868
 -24855921.78549 -19368248.52147  20616034.796    20616035.133
 -20933395.47349 -16311735.53446  20892873.918    20892875.354
   -619894.37948                  24938158.424
  -1010885.34548                  24800812.289
   7120589.64448   5548508.22444  24955853.675    24955853.775
 02  1 10  0 50  0.0000000  0  8G29G25G 1G20G22G 4G13G14
   -181503.29348   -141431.09444  23407378.223    23407377.921
 -18339217.56249 -14290291.54847  21593677.690    21593677.397
 -16359804.41849 -12747894.84646  21976841.918    21976842.346
 -24862695.50549 -19373526.75647  20614745.822    20614745.993
 -21000861.76449 -16364306.63047  20880035.378    20880036.792
   -649508.46148   -506109.80744  24932522.909    24932522.436
  -1102834.92948                  24783314.566
   7209529.97948   5617812.23144  24972778.260    24972780.687
 02  1 10  0 50 30.0000000  0  8G29G25G 1G20G22G 4G13G14
   -101955.88748    -79446.13245  23422515.079    23422517.806
 -18277659.86249 -14242324.51647  21605391.656    21605391.681
 -16427222.22149 -12800428.17946  21964012.195    21964012.990
 -24868855.10249 -19378326.45547  20613573.600    20613573.932
 -21067778.62749 -16416449.61447  20867301.962    20867303.029
   -678591.59348   -528772.00944  24926987.703    24926988.337
  -1194771.00648                  24765818.297
   7298567.77448   5687192.24444  24989722.314    24989722.837
 02  1 10  0 51  0.0000000  0  8G25G29G 1G20G22G 4G13G14
 -18215887.75249 -14194190.41147  21617146.863    21617146.804
    -22254.22748    -17340.99545  23437682.523    23437682.900
 -16494498.79849 -12852851.47346  21951209.799    21951211.259
 -24874422.35849 -19382664.58847  20612513.910    20612514.305
 -21134166.01249 -16468180.01647  20854668.135    20854669.562
   -707165.31948   -551037.22844  24921551.063    24921556.903
  -1286715.04548                  24748323.955
   7387680.09648                  25006679.860
 02  1 10  0 51 30.0000000  0  8G29G25G20G22G 4G 1G13G14
     57603.04248     44885.41344  23452878.676    23452880.250
 -18153901.40149 -14145889.36647  21628942.296    21628942.513
 -24879395.10849 -19386539.47047  20611567.583    20611567.901
 -21200019.73649 -16519494.57547  20842137.028    20842138.291
   -735227.31248   -572903.77144  24916211.253    24916212.070
 -16561631.71149 -12905162.81546  21938435.156    21938435.809
  -1378664.76548                  24730824.721
   7476868.25848                  25023650.704
 02  1 10  0 52  0.0000000  0  8G29G25G20G22G 4G 1G13G14
    137628.32148    107242.73144  23468107.059    23468108.203
 -18091689.47449 -14097412.55047  21640780.784    21640780.936
 -24883759.83049 -19389940.56147  20610737.222    20610737.456
 -21265324.54949 -16570381.41947  20829709.908    20829711.013
   -762764.16148   -594361.14244  24910971.654    24910969.390
 -16628607.08249 -12957351.41146  21925690.162    21925690.845
  -1470606.55648                  24713329.506
   7566144.57248   5895693.26144  25040640.378    25040640.685
 02  1 10  0 52 30.0000000  0  8G29G25G20G22G 4G 1G13G14
    217815.76748    169726.35945  23483366.629    23483367.181
 -18029258.68549 -14048765.19047  21652661.060    21652660.831
 -24887521.25749 -19392871.55347  20610021.467    20610021.683
 -21330083.46549 -16620842.88147  20817386.241    20817387.619
   -789780.52048                  24905830.373
 -16695429.23449 -13009420.61346  21912973.948    21912975.209
  -1562545.35148                  24695834.363
   7655503.35248   5965323.38344  25057644.863    25057646.098
 02  1 10  0 53  0.0000000  0  8G29G25G20G22G 4G 1G13G14
    298162.88748    232334.48044  23498655.862    23498655.440
 -17966612.76249 -13999950.19346  21664582.132    21664582.205
 -24890681.23349 -19395333.88347  20609419.938    20609420.325
 -21394296.45849 -16670878.94547  20805167.180    20805168.595
   -816278.07048                  24900786.759
 -16762099.58949 -13061371.53046  21900286.810    21900288.238
  -1654482.69848                  24678339.404
   7744941.72048   6035015.48844  25074664.450    25074663.726
 02  1 10  0 53 30.0000000  0  8G29G25G20G22G 4G 1G13G14
