     2.11           OBSERVATION DATA    G (GPS)             RINEX VERSION / TYPE
teqc  2019Feb25     Salamtina Y.M.      20230920 03:20:31UTCPGM / RUN BY / DATE
OBSERVATION MODE: Permanent                                 COMMENT
CHUM Chumysh (CHUM)                                         MARKER NAME
25601M001                                                   MARKER NUMBER
4549261325          TRIMBLE NETRS        1.3-2              REC # / TYPE / VERS
237                 TRM29659.00     NONE                    ANT # / TYPE
        0.0900        0.0000        0.0000                  ANTENNA: DELTA H/E/N
  1228950.3077  4508080.0113  4327868.5426                  APPROX POSITION XYZ
  74.75110459  42.99850160  716.3366  LonLatAlt  S/W        COMMENT
ANT ADDED FROM RCV_ANT.txt                                  COMMENT
Linux 2.6.32-573.12.1.x86_64|x86_64|gcc|Linux 64|=+         COMMENT
BIT 2 OF LLI FLAGS DATA COLLECTED UNDER A/S CONDITION       COMMENT
Konovalov S.M.      RS_RAS                                  OBSERVER / AGENCY
     1     1                                                WAVELENGTH FACT L1/2
     7    L1    L2    C1    P1    P2    S1    S2            # / TYPES OF OBSERV
    30.0000                                                 INTERVAL
    18                                                      LEAP SECONDS
TIME: 2023.01.01                                            COMMENT
TOUR: cont                                                  COMMENT
RSET: RAS02                                                 COMMENT
ASET: DS24                                                  COMMENT
OPER: skon (Konovalov S.M.)                                 COMMENT
SOUR: chum202301010000d.dat                                 COMMENT
SUPP: chum202301010000d.eph                                 COMMENT
SUPP: chum202301010000d.ion                                 COMMENT
SUPP: chum202301010000d.mes                                 COMMENT
Forced Modulo Decimation to 30 seconds                      COMMENT
 SNR is mapped to RINEX snr flag value [0-9]                COMMENT
  L1 & L2: min(max(int(snr_dBHz/6), 0), 9)                  COMMENT
  2023     1     1     0     0    0.0000000     GPS         TIME OF FIRST OBS
  2023     1     1    23    59   30.0000000     GPS         TIME OF LAST OBS
                                                            END OF HEADER
 23  1  1  0  0  0.0000000  0 10G24G23G22G27G08G21G18G10G15G32
 -14500797.16047 -12209884.30147  22151332.9924                   22151324.2154
        43.7504         44.5004
 -14703196.22747 -13450868.49546  21100649.9224                   21100639.0944
        46.5004         40.0004
  -3339530.51546  -3245765.50343  23103320.0084                   23103309.0634
        39.0004         21.5004
 -14533109.22647 -11163364.43947  22852684.2504                   22852674.7704
        44.7504         44.5004
 -10674430.29246  -8293899.11546  23299858.2194                   23299850.5554
        40.2504         40.2504
  -4825831.92945  -2855526.98242  24773397.0314                   24773383.9184
        35.7504         16.2504
 -16302346.46147 -12638185.53945  22772764.8054                   22772754.9144
        43.0004         32.2504
 -27239707.91248 -21091038.87449  20564003.5634                   20563994.9024
        52.7504         55.2504
    566731.26745   -194303.16742  25318350.5314                   25318341.0514
        32.7504         16.2504
 -14350129.90448 -17343273.50749  21212266.8834                   21212258.1644
        49.7504         55.2504
 23  1  1  0  0 30.0000000  0 10G24G23G22G27G08G21G18G10G15G32
 -14477475.86847 -12191711.86147  22155770.6564                   22155762.1724
        43.5004         44.5004
 -14658099.23647 -13415727.98346  21109232.2114                   21109221.2664
        47.0004         40.2504
  -3429868.68846  -3316158.82843  23086128.4304                   23086118.3054
        38.2504         22.0004
 -14467953.98247 -11112594.13547  22865082.0864                   22865073.7774
        44.5004         44.2504
 -10665634.77046  -8287045.47346  23301531.9384                   23301524.2734
        41.0004         40.2504
  -4913922.02945  -2924168.58142  24756632.5314                   24756621.6454
        33.2504         15.5004
 -16203044.27947 -12560807.21245  22791661.2584                   22791651.4264
        42.5004         30.5004
 -27252044.98748 -21100652.17849  20561655.8984                   20561646.9454
        52.0004         55.0004
    679430.76045   -106485.39842  25339797.2034                   25339787.2544
        31.0004         15.5004
 -14405607.64548 -17386502.90549  21201710.1414                   21201701.1884
        50.0004         54.7504
 23  1  1  0  1  0.0000000  0 10G24G23G22G27G08G21G18G10G15G32
 -14453517.72847 -12173043.17747  22160329.6804                   22160321.1374
        44.0004         44.5004
 -14612747.26047 -13380388.79746  21117862.0164                   21117851.4804
        46.5004         40.2504
  -3519969.08346  -3386366.94343  23068982.7664                   23068972.1724
        37.7504         22.0004
 -14402388.06247 -11061503.83547  22877558.6414                   22877550.2154
        43.5004         44.0004
 -10656284.63346  -8279759.67246  23303311.9064                   23303303.5394
        41.0004         40.5004
  -5001895.17945  -2992719.08442  24739893.3754                   24739880.7304
        35.5004         17.2504
 -16103472.08447 -12483218.51145  22810609.7664                   22810599.2304
        42.2504         30.2504
 -27264119.34948 -21110060.76849  20559358.2344                   20559349.2234
        51.5004         55.0004
    792109.02845    -18684.17742  25361239.5394                   25361229.8244
        33.0004         15.5004
 -14460682.11248 -17429418.06349  21191229.6174                   21191220.8404
        50.2504         55.0004
 23  1  1  0  1 30.0000000  0 10G24G23G22G27G08G21G18G10G15G32
 -14428925.31147 -12153880.25747  22165009.1804                   22165001.4574
        43.5004         44.2504
 -14567142.30847 -13344852.47746  21126540.4534                   21126529.6844
        45.7504         40.2504
  -3609831.87746  -3456389.87843  23051882.7584                   23051872.0474
        39.0004         22.0004
 -14336416.15547 -11010097.15247  22890113.8984                   22890103.8914
        44.2504         44.0004
 -10646382.27246  -8272043.56646  23305196.1644                   23305188.1484
        41.0004         40.2504
  -5089751.27545  -3061178.39442  24723172.5004                   24723162.8444
        33.0004         16.7504
 -16003633.56646 -12405422.26545  22829607.6954                   22829597.8634
        41.7504         31.2504
 -27275932.76748 -21119266.03249  20557110.2664                   20557101.0204
        52.2504         55.5004
    904762.81045     69098.00542  25382676.3054                   25382666.8834
        32.5004         15.5004
 -14515354.60348 -17472019.99749  21180825.7974                   21180817.1374
        50.2504         54.7504
 23  1  1  0  2  0.0000000  0 10G24G23G22G27G08G21G18G10G15G32
 -14403698.36347 -12134222.89647  22169810.1174                   22169801.5744
        44.0004         44.5004
 -14521283.62547 -13309118.45546  21135266.9224                   21135256.4454
        46.2504         40.5004
  -3699454.92846  -3526226.01643  23034828.4694                   23034817.2304
        38.2504         22.0004
 -14270039.96147 -10958375.45047  22902743.1334                   22902735.2344
        42.7504         43.5004
 -10635927.41746  -8263896.94446  23307185.1954                   23307177.6484
        40.2504         40.2504
  -5177487.94845  -3129544.63942  24706478.4774                   24706467.0634
        35.7504         17.7504
 -15903529.55146 -12327419.16545  22848656.6254                   22848647.1454
        41.7504         30.5004
 -27287483.54848 -21128266.63349  20554912.4064                   20554903.4534
        53.0004         55.2504
   1017391.50845    156860.62542  25404108.6564                   25404099.4104
        31.0004         15.5004
 -14569623.49248 -17514307.42849  21170498.7034                   21170489.6914
        50.5004         55.0004
 23  1  1  0  2 30.0000000  0 10G24G23G22G27G08G21G18G10G15G32
 -14377838.65747 -12114072.46647  22174730.9304                   22174722.6214
        43.2504         44.2504
 -14475172.48547 -13273187.70246  21144041.8524                   21144030.9654
        46.0004         40.7504
  -3788837.69446  -3595874.88943  23017818.6724                   23017808.4304
        38.7504         22.0004
 -14203263.33447 -10906341.74547  22915450.3134                   22915442.5904
        42.5004         43.0004
 -10624921.94946  -8255321.26546  23309279.9304                   23309271.7384
        40.0004         40.0004
  -5265104.25845  -3197817.13042  24689805.1334                   24689793.3674
        33.2504         16.7504
 -15803163.00146 -12249211.47245  22867755.8284                   22867746.3484
        41.5004         30.0004
 -27298772.45848 -21137063.19249  20552764.0704                   20552755.2344
        51.5004         55.0004
   1129992.40545    244601.60842  25425535.8134                   25425526.3914
        31.7504         16.2504
 -14623489.23648 -17556280.73149  21160248.4694                   21160239.5164
        50.7504         54.7504
 23  1  1  0  3  0.0000000  0 10G24G23G22G27G08G21G18G10G15G32
 -14351346.06847 -12093428.88347  22179772.2814                   22179763.7384
        43.0004         44.2504
 -14428808.11047 -13237059.63246  21152864.6644                   21152853.8954
        46.0004         40.2504
  -3877977.95246  -3665334.80143  23000856.6954                   23000845.4574
        39.0004         22.5004
 -14136088.11347 -10853997.41447  22928234.0634                   22928225.6954
        43.7504         43.2504
 -10613366.02846  -8246316.66346  23311477.9304                   23311470.6174
        40.7504         40.0004
  -5352597.43945  -3265993.58542  24673154.9144                   24673144.2624
        34.7504         16.2504
 -15702534.71247 -12170799.85245  22886905.5084                   22886895.0904
        42.0004         31.0004
 -27309798.07448 -21145654.57049  20550665.8444                   20550656.6564
        52.7504         55.0004
   1242565.20544    332320.70542  25446957.7194                   25446948.4734
        29.7504         14.7504
 -14676950.30848 -17597938.69749  21150074.8914                   21150066.4654
        50.7504         54.7504
 23  1  1  0  3 30.0000000  0 10G24G23G22G27G08G21G18G10G15G32
 -14324222.07647 -12072293.30047  22184933.5004                   22184925.1914
        42.5004         44.5004
 -14382191.44247 -13200734.96946  21161734.8524                   21161724.6684
        46.5004         40.5004
  -3966875.52646  -3734605.61843  22983939.9774                   22983928.8554
        39.5004         23.2504
 -14068517.82647 -10801345.24347  22941092.2274                   22941083.2734
        43.2504         43.0004
 -10601261.12246  -8236884.28446  23313781.8444                   23313774.4144
        40.7504         40.0004
  -5439966.11946  -3334073.08742  24656530.9304                   24656518.6374
        36.0004         16.2504
 -15601647.39246 -12092186.35745  22906103.8204                   22906093.3444
        41.7504         31.7504
 -27320560.60448 -21154040.94849  20548617.9144                   20548608.7854
        53.0004         55.2504
   1355107.78645    420016.15342  25468373.5234                   25468365.9774
        32.2504         12.5004
 -14730006.85348 -17639281.44849  21139978.5314                   21139969.6374
        51.0004         55.0004
 23  1  1  0  4  0.0000000  0 10G24G23G22G27G08G21G18G10G15G32
 -14296467.08147 -12050666.03447  22190215.7734                   22190206.8794
        42.5004         44.0004
 -14335322.19647 -13164213.47846  21170654.2894                   21170643.5204
        46.0004         40.5004
  -4055528.19746  -3803685.62043  22967069.1174                   22967058.6994
        38.2504         21.2504
 -14000554.87147 -10748387.11647  22954024.8054                   22954016.6134
        43.0004         42.7504
 -10588607.74046  -8227024.52346  23316189.5314                   23316182.5124
        40.2504         40.0004
  -5527208.40545  -3402054.01942  24639927.7114                   24639916.4734
        35.5004         17.2504
 -15500502.38846 -12013372.07445  22925350.7814                   22925340.4224
        41.5004         31.2504
 -27331059.04848 -21162221.55049  20546620.2894                   20546611.3364
        52.0004         55.0004
   1467618.927 5                  25489783.250
        33.000
 -14782657.90248 -17680308.21949  21129959.8674                   21129950.8554
        51.2504         54.7504
 23  1  1  0  4 30.0000000  0  9G24G23G22G27G08G21G18G10G32
 -14268080.15047 -12028546.35247  22195616.9304                   22195608.8554
        42.5004         44.0004
 -14288198.88147 -13127494.02846  21179621.5234                   21179610.8134
        46.5004         40.7504
  -4143932.89446  -3872572.40143  22950246.6884                   22950235.9184
        38.7504         22.2504
 -13932200.27647 -10695123.79947  22967032.4774                   22967024.4024
        43.5004         42.7504
 -10575405.17246  -8216736.81446  23318703.3284                   23318694.1414
        40.2504         39.7504
  -5614320.44946  -3469933.55842  24623352.5474                   24623340.0784
        36.5004         17.2504
 -15399099.84746 -11934357.12445  22944646.4614                   22944637.2154
        40.0004         30.5004
 -27341291.33448 -21170194.76349  20544673.0784                   20544663.9494
        52.5004         55.5004
 -14834901.08948 -17721017.19149  21120018.0394                   21120009.3204
        50.5004         55.0004
 23  1  1  0  5  0.0000000  0  9G24G23G22G27G08G21G18G10G32
 -14239067.04247 -12005938.73247  22201138.4924                   22201129.8324
        43.0004         44.2504
 -14240826.50547 -13090580.49846  21188636.2274                   21188625.3404
        47.2504         40.5004
  -4232093.52646  -3941268.95043  22933469.2034                   22933459.5474
        38.2504         22.5004
 -13863461.70747 -10641561.30947  22980113.2584                   22980104.7154
        43.2504         42.7504
 -10561658.98546  -8206025.51946  23321317.9144                   23321310.6024
        40.0004         40.5004
  -5701305.01546  -3537713.71042  24606798.9694                   24606787.3204
        36.0004         17.7504
 -15297446.41246 -11855146.68145  22963991.0864                   22963981.1374
        40.7504         30.5004
 -27351261.72748 -21177963.90449  20542775.7974                   20542766.6684
        52.5004         55.0004
 -14886740.79748 -17761411.75249  21110153.2114                   21110144.1414
        51.2504         54.7504
 23  1  1  0  5 30.0000000  0  9G24G23G22G27G08G21G18G10G32
 -14209426.10547 -11982841.89547  22206778.5554                   22206770.3634
        42.2504         44.0004
 -14193202.66547 -13053471.03746  21197698.3914                   21197688.0904
        46.2504         40.5004
  -4320005.96246  -4009772.15443  22916740.3284                   22916730.1454
        38.5004         22.5004
 -13794339.44747 -10587699.80647  22993266.6254                   22993257.5554
        43.7504         42.5004
 -10547367.82546  -8194889.58146  23324037.4534                   23324029.5554
        40.0004         40.2504
  -5788157.85946  -3605391.27042  24590272.5004                   24590259.3284
        37.7504         17.7504
 -15195541.48646 -11775740.25945  22983382.3524                   22983372.7544
        39.5004         30.0004
 -27360967.42448 -21185526.77449  20540928.8204                   20540919.9264
        52.0004         55.0004
 -14938173.85348 -17801489.46049  21100366.2344                   21100357.2234
        51.7504         55.0004
 23  1  1  0  6  0.0000000  0  9G24G23G22G27G08G21G18G10G32
 -14179157.31847 -11959255.82447  22212538.5704                   22212530.3794
        42.7504         44.0004
 -14145326.71947 -13016165.11946  21206809.2734                   21206798.5044
        46.0004         40.2504
  -4407667.54446  -4078079.87743  22900059.1484                   22900049.0824
        38.5004         22.5004
 -13724835.41847 -10533540.83847  23006492.5004                   23006484.1914
        43.0004         42.5004
 -10532531.97246  -8183329.18246  23326860.5004                   23326853.2464
        40.0004         40.0004
  -5874876.35546  -3672964.14143  24573769.4614                   24573757.6374
        37.2504         19.2504
 -15093386.00646 -11696138.61945  23002822.2894                   23002812.3984
        40.5004         30.5004
 -27370406.68948 -21192882.04949  20539132.6334                   20539123.4454
        52.2504         55.0004
 -14989198.92648 -17841249.23849  21090655.9454                   21090647.4024
        51.0004         55.2504
 23  1  1  0  6 30.0000000  0  9G24G23G22G27G08G21G18G10G32
 -14148263.03147 -11935182.34747  22218417.6724                   22218409.0704
        42.5004         44.2504
 -14097200.11447 -12978663.87346  21215967.3524                   21215956.6414
        47.0004         40.5004
  -4495078.99746  -4146192.66343  22883425.6024                   22883415.0084
        39.0004         23.0004
 -13654953.82247 -10479087.66347  23019791.2664                   23019782.8404
        42.7504         42.5004
 -10517153.62146  -8171346.08946  23329787.1804                   23329779.3984
        40.0004         40.5004
  -5961459.78946  -3740431.72443  24557293.9694                   24557281.2074
        38.0004         19.0004
 -14990983.27546 -11616344.29945  23022309.2584                   23022299.0744
        40.0004         30.0004
 -27379580.73448 -21200030.65049  20537386.8674                   20537377.8554
        53.2504         55.5004
 -15039816.79148 -17880691.72049  21081024.2274                   21081014.9804
        51.5004         54.7504
 23  1  1  0  7  0.0000000  0  9G24G23G22G27G08G21G18G10G32
 -14116743.46047 -11910621.63847  22224415.8134                   22224407.0354
        43.0004         44.2504
 -14048822.36847 -12940966.94146  21225173.6884                   21225162.9184
        46.5004         40.5004
  -4582238.12246  -4214108.84543  22866839.6564                   22866829.2974
        39.5004         23.0004
 -13584696.79447 -10424341.93947  23033159.7894                   23033151.7154
        42.5004         42.0004
 -10501232.51146  -8158940.04446  23332817.2424                   23332809.3444
        40.0004         39.7504
  -6047905.35646  -3807791.90343  24540842.2194                   24540830.8634
        37.5004         18.2504
 -14888334.31546 -11536358.11045  23041842.7504                   23041832.3914
        41.0004         30.0004
 -27388488.50848 -21206971.77249  20535691.8914                   20535682.9964
        51.7504         55.2504
 -15090026.21248 -17919815.93349  21071469.3674                   21071460.3554
        51.2504         54.7504
 23  1  1  0  7 30.0000000  0  9G24G23G22G27G08G21G18G10G32
 -14084600.34647 -11885575.04547  22230532.2734                   22230523.8484
        42.5004         44.0004
 -14000194.35347 -12903074.99046  21234426.9844                   21234416.7424
        46.0004         40.5004
  -4669144.19346  -4281827.86344  22850301.1804                   22850291.0554
        38.7504         24.7504
 -13514067.88647 -10369306.44247  23046600.6024                   23046591.9414
        42.5004         42.2504
 -10484771.32646  -8146113.18246  23335949.4844                   23335941.5864
        40.2504         40.0004
  -6134212.48546  -3875044.21843  24524419.8364                   24524407.6604
        38.7504         20.5004
 -14785441.92146 -11456182.23044  23061422.3134                   23061412.5394
        39.5004         29.0004
 -27397130.06548 -21213705.44849  20534047.5004                   20534038.4304
        53.2504         55.0004
 -15139827.46948 -17958622.09249  21061992.5704                   21061983.6764
        51.5004         54.7504
 23  1  1  0  8  0.0000000  0  9G24G23G22G27G08G21G18G10G32
 -14051833.97546 -11860042.80647  22236767.2974                   22236759.1054
        41.7504         44.0004
 -13951315.52647 -12864987.61046  21243728.3054                   21243717.8284
        46.2504         40.2504
  -4755795.41646  -4349348.28044  22833814.0004                   22833802.4104
        40.5004         25.5004
 -13443069.27647 -10313982.86747  23060110.8984                   23060103.0004
        43.2504         42.5004
 -10467770.23246  -8132865.58846  23339184.9614                   23339176.7114
        39.5004         40.0004
  -6220377.85046  -3942186.07343  24508022.7584                   24508010.8754
        38.0004         19.2504
 -14682307.06346 -11375817.43644  23081048.4384                   23081038.4304
        39.5004         29.2504
 -27405504.00348 -21220230.59449  20532453.7974                   20532444.9614
        52.2504         55.0004
 -15189219.32448 -17997109.24549  21052593.6334                   21052584.5634
        52.0004         55.0004
 23  1  1  0  8 30.0000000  0  9G24G23G22G27G08G21G18G10G32
 -14018445.55347 -11834025.85247  22243120.7034                   22243112.6294
        42.0004         44.0004
 -13902186.24247 -12826705.06246  21253077.7034                   21253066.6994
        47.0004         40.5004
  -4842190.44846  -4416669.05344  22817371.6334                   22817361.4494
        40.0004         24.5004
 -13371703.93647 -10258373.53946  23073691.5394                   23073682.9964
        42.0004         41.7504
 -10450229.99746  -8119197.89646  23342522.6174                   23342514.4844
        40.0004         40.2504
  -6306399.98746  -4009216.29943  24491653.4694                   24491641.4104
        38.5004         20.7504
 -14578931.97046 -11295265.40444  23100719.5554                   23100709.6644
        38.5004         29.5004
 -27413610.07348 -21226547.00949  20530911.5004                   20530902.2544
        52.7504         54.7504
 -15238201.51248 -18035277.16749  21043272.7584                   21043263.4534
        51.5004         54.7504
 23  1  1  0  9  0.0000000  0  9G24G23G22G27G08G21G18G10G32
 -13984436.27747 -11807525.11247  22249592.7664                   22249584.1054
        42.5004         44.0004
 -13852806.79947 -12788227.58046  21262474.2664                   21262463.2624
        47.5004         40.5004
  -4928328.19246  -4483789.37744  22800981.4614                   22800970.3404
        40.2504         24.2504
 -13299974.96447 -10202480.84447  23087341.3444                   23087332.2734
        43.0004         42.0004
 -10432152.53246  -8105111.58246  23345962.7344                   23345954.6024
        40.7504         40.0004
  -6392277.21646  -4076133.65043  24475312.0234                   24475299.3204
        39.2504         21.5004
 -14475318.63646 -11214527.77444  23120436.9774                   23120426.5004
        39.5004         29.2504
 -27421447.80948 -21232654.33149  20529419.9534                   20529410.9414
        52.7504         55.0004
 -15286773.66548 -18073125.58449  21034029.7814                   21034020.8284
        51.7504         54.7504
 23  1  1  0  9 30.0000000  0  9G24G23G22G27G08G21G18G10G32
 -13949807.66947 -11780541.78747  22256182.5634                   22256173.8444
        43.5004         44.0004
 -13803177.76147 -12749555.61746  21271917.7424                   21271907.5594
        46.0004         40.5004
  -5014207.91346  -4550708.61444  22784638.0084                   22784627.9414
        40.0004         25.5004
 -13227885.62547 -10146307.33946  23101059.2344                   23101050.6914
        42.2504         41.7504
 -10413538.91246  -8090607.48846  23349504.6954                   23349497.1484
        40.0004         39.7504
  -6478008.13946  -4142936.91543  24458997.7504                   24458985.4574
        39.5004         21.5004
 -14371469.29846 -11133606.19944  23140198.8134                   23140189.2154
        39.2504         28.0004
 -27429017.47448 -21238552.77049  20527979.1254                   20527970.1724
        52.7504         54.7504
 -15334935.72048 -18110654.44749  21024864.7734                   21024855.9384
        51.2504         55.0004
 23  1  1  0 10  0.0000000  0  9G24G23G22G27G08G21G18G10G32
 -13914560.73147 -11753076.62647  22262890.0394                   22262881.2034
        43.0004         44.5004
 -13753299.23047 -12710689.24546  21281409.8834                   21281398.7624
        47.0004         40.2504
  -5099828.16646  -4617425.67244  22768345.8674                   22768334.5704
        40.2504         26.0004
 -13155438.63147 -10089855.17547  23114845.5474                   23114837.0044
        42.7504         42.0004
 -10394390.72346  -8075686.83946  23353148.8284                   23353140.5784
        40.2504         40.0004
  -6563590.43246  -4209624.44143  24442711.9384                   24442699.6454
        38.5004         21.2504
 -14267385.82946 -11052502.24944  23160003.7584                   23159995.4494
        39.0004         28.7504
 -27436318.36748 -21244241.77849  20526590.1564                   20526580.9104
        52.7504         54.7504
 -15382687.22348 -18147863.39649  21015777.8284                   21015769.2274
        51.5004         55.0004
 23  1  1  0 10 30.0000000  0  9G24G23G22G27G08G21G18G10G32
 -13878696.21047 -11725130.24047  22269713.9614                   22269705.8284
        42.5004         44.5004
 -13703170.99547 -12671628.30346  21290948.6174                   21290938.1414
        46.7504         40.2504
  -5185187.27846  -4683939.26644  22752103.0554                   22752091.7584
        41.2504         25.2504
 -13082636.56647 -10033126.29746  23128700.0554                   23128690.8094
        42.5004         41.7504
 -10374708.26146  -8060349.87846  23356893.6644                   23356885.5314
        39.0004         39.5004
  -6649021.84146  -4276194.37943  24426453.9774                   24426442.3284
        39.0004         21.2504
 -14163069.79746 -10971217.03444  23179855.6724                   23179845.8984
        38.7504         28.5004
 -27443349.47148 -21249720.55849  20525252.1094                   20525242.9224
        52.5004         55.0004
 -15430027.29248 -18184751.74949  21006769.5864                   21006760.7504
        51.5004         55.0004
 23  1  1  0 11  0.0000000  0  9G24G23G22G27G08G21G18G10G32
 -13842214.51447 -11696702.95047  22276656.8444                   22276648.1254
        43.2504         44.2504
 -13652792.39147 -12632372.27046  21300535.5474                   21300525.1294
        46.7504         40.0004
  -5270283.26146  -4750247.80044  22735909.1334                   22735898.1884
        40.5004         26.0004
 -13009481.53646  -9976122.39446  23142619.5784                   23142612.2664
        41.0004         41.0004
 -10354491.84046  -8044596.82346  23360740.7974                   23360732.8984
        39.5004         39.5004
  -6734299.37446  -4342644.40943  24410227.0314                   24410214.6804
        38.5004         20.7504
 -14058522.23746 -10889751.42744  23199751.2974                   23199739.8834
        39.5004         29.5004
 -27450109.46848 -21254988.09049  20523965.8914                   20523956.8204
        53.0004         54.7504
 -15476954.74748 -18221318.58149  20997839.5474                   20997830.2424
        52.7504         54.7504
 23  1  1  0 11 30.0000000  0  9G24G23G22G27G08G21G18G10G32
 -13805119.25347 -11667797.53947  22283716.7814                   22283707.2424
        43.7504         44.2504
 -13602166.00647 -12592923.14646  21310169.1724                   21310158.9304
        46.5004         40.2504
  -5355117.22346  -4816352.18144  22719765.5944                   22719755.1174
        40.7504         25.2504
 -12935978.80947  -9918847.57046  23156608.1174                   23156598.9304
        42.5004         41.5004
 -10333745.54046  -8028430.89346  23364689.4064                   23364680.5704
        39.0004         40.0004
  -6819423.89446  -4408975.19643  24394028.5554                   24394015.8524
        38.2504         21.2504
 -13953747.57846 -10808108.84744  23219688.6954                   23219678.6294
        40.5004         28.5004
 -27456600.40248 -21260045.96249  20522730.6644                   20522721.4774
        52.0004         55.0004
 -15523471.57948 -18257565.45549  20988987.3834                   20988978.3134
        51.5004         55.0004
 23  1  1  0 12  0.0000000  0  9G24G23G22G27G08G21G18G10G32
 -13767410.54847 -11638414.14147  22290891.1024                   22290882.9694
        42.5004         44.2504
 -13551290.96347 -12553280.27046  21319850.6024                   21319839.8324
        47.0004         40.0004
  -5439687.13846  -4882250.80644  22703672.6414                   22703661.6374
        40.2504         26.2504
 -12862130.36047  -9861303.32346  23170659.8444                   23170651.7114
        43.0004         40.7504
 -10312469.39646  -8011852.11246  23368737.2344                   23368729.3364
        39.0004         40.2504
  -6904392.19146  -4475184.27043  24377859.6254                   24377846.9804
        38.7504         21.5004
 -13848746.71546 -10726290.00244  23239669.8834                   23239659.4654
        40.5004         28.0004
 -27462820.70648 -21264892.96049  20521546.8914                   20521537.5274
        53.2504         54.7504
 -15569576.39648 -18293491.26549  20980213.9844                   20980204.7384
        52.0004         54.7504
 23  1  1  0 12 30.0000000  0  9G24G23G22G27G08G21G18G10G32
 -13729089.11947 -11608553.28747  22298183.9454                   22298175.3444
        43.0004         44.5004
 -13500166.92147 -12513443.35746  21329579.3674                   21329568.3634
        46.2504         40.2504
  -5523990.91946  -4947942.05344  22687630.4774                   22687619.2384
        40.7504         26.5004
 -12787938.48847  -9803491.49346  23184778.7344                   23184770.3674
        42.5004         41.0004
 -10290664.18946  -7994861.06346  23372886.8984                   23372879.1174
        39.2504         39.7504
  -6989201.97746  -4541269.82243  24361719.2504                   24361708.4224
        37.7504         20.7504
 -13743520.93046 -10644295.89544  23259694.2274                   23259683.3984
        40.0004         28.2504
 -27468769.26048 -21269528.19049  20520414.8914                   20520405.6454
        51.7504         55.0004
 -15615268.22748 -18329095.27949  20971519.1644                   20971510.1524
        51.7504         55.0004
 23  1  1  0 13  0.0000000  0  9G24G23G22G27G08G21G18G10G32
 -13690156.89747 -11578216.48947  22305592.8834                   22305584.2234
        43.5004         44.5004
 -13448794.66247 -12473413.03746  21339355.0394                   21339344.2704
        46.5004         39.7504
  -5608028.12546  -5013425.59044  22671638.0164                   22671627.4804
        40.5004         26.5004
 -12713406.82247  -9745414.89446  23198961.5314                   23198953.5744
        42.0004         40.7504
 -10268331.68046  -7977459.12446  23377136.2274                   23377128.4454
        39.2504         39.7504
  -7073852.08846  -4607230.93243  24345612.9454                   24345600.0084
        39.2504         21.2504
 -13638072.83646 -10562128.56844  23279760.6954                   23279749.2814
        41.5004         29.2504
 -27474446.20448 -21273951.78749  20519334.6174                   20519325.4304
        52.7504         54.7504
 -15660547.37148 -18364377.71549  20962902.8834                   20962893.6374
        52.0004         55.0004
 23  1  1  0 13 30.0000000  0  9G24G23G22G27G08G21G18G10G32
 -13650614.98947 -11547404.61547  22313116.8834                   22313108.3404
        43.2504         44.0004
 -13397174.25347 -12433189.35346  21349178.1174                   21349167.5234
        46.0004         40.0004
  -5691797.40046  -5078700.32144  22655697.3754                   22655686.3714
        41.5004         26.2504
 -12638538.17446  -9687075.70746  23213207.5704                   23213200.3754
        41.2504         40.0004
 -10245473.42846  -7959647.53246  23381486.1254                   23381478.5204
        39.0004         40.0004
  -7158340.17146  -4673065.81143  24329534.1414                   24329522.4344
        38.5004         21.0004
 -13532404.31447 -10479789.46645  23299868.8284                   23299857.9414
        42.0004         30.0004
 -27479850.75948 -21278163.12149  20518306.0394                   20518296.9694
        52.7504         55.0004
 -15705413.34148 -18399338.19749  20954365.1334                   20954356.2384
        51.5004         55.0004
 23  1  1  0 14  0.0000000  0  9G24G23G22G27G08G21G18G10G32
 -13610464.19647 -11516118.26547  22320757.5944                   22320749.1684
        43.5004         44.0004
 -13345305.23647 -12392771.95846  21359048.2974                   21359037.7624
        46.7504         40.2504
  -5775296.94946  -5143764.89944  22639807.6804                   22639797.6134
        40.5004         25.5004
 -12563334.81747  -9628475.70446  23227519.8754                   23227511.0984
        42.5004         40.0004
 -10222089.91946  -7941426.64346  23385936.2504                   23385928.4104
        39.0004         40.0004
  -7242663.84946  -4738772.55343  24313487.7584                   24313475.9924
        39.7504         21.5004
 -13426516.64446 -10397279.63444  23320018.0314                   23320007.3204
        41.5004         29.0004
 -27484981.86348 -21282161.38949  20517329.8984                   20517320.7704
        52.5004         55.0004
 -15749865.21048 -18433975.99949  20945906.1174                   20945897.2814
        52.0004         54.7504
 23  1  1  0 14 30.0000000  0  9G24G23G22G27G08G21G18G10G32
 -13569707.12047 -11484359.52047  22328512.7814                   22328504.9414
        43.2504         44.5004
 -13293189.15447 -12352162.02746  21368965.9304                   21368955.2774
        47.0004         39.7504
  -5858526.86746  -5208619.36744  22623969.8444                   22623959.7774
        41.0004         27.0004
 -12487801.14446  -9569618.29446  23241892.7424                   23241884.6094
        40.5004         39.5004
 -10198183.64646  -7922798.40246  23390486.0394                   23390477.7894
        39.2504         40.0004
  -7326822.27846  -4804350.54143  24297473.2814                   24297460.8714
        39.7504         22.0004
 -13320413.17546 -10314601.61044  23340208.7974                   23340198.3204
        41.5004         28.5004
 -27489840.34648 -21285947.21949  20516405.3674                   20516395.9454
        52.5004         55.0004
 -15793904.00748 -18468291.93849  20937525.5164                   20937516.7384
        52.2504         54.7504
 23  1  1  0 15  0.0000000  0  9G24G23G22G27G08G21G18G10G32
 -13528344.62147 -11452128.98447  22336384.9304                   22336375.9184
        43.7504         44.5004
 -13240825.54047 -12311359.22346  21378930.1174                   21378919.5824
        47.2504         40.0004
  -5941485.42546  -5273262.40044  22608183.2814                   22608172.6884
        40.2504         27.2504
 -12411939.43546  -9510505.30046  23256328.4694                   23256320.4534
        41.0004         39.2504
 -10173756.04846  -7903763.94346  23395134.5314                   23395126.2234
        41.5004         40.0004
  -7410812.98046  -4869797.85443  24281490.7974                   24281478.9144
        39.0004         21.0004
 -13214095.33446 -10231756.53244  23360439.7504                   23360429.7424
        40.0004         29.0004
 -27494425.23948 -21289519.85949  20515532.7114                   20515523.6994
        52.5004         55.5004
 -15837528.74948 -18502285.23849  20929224.1174                   20929215.2814
        51.2504         54.7504
 23  1  1  0 15 30.0000000  0  9G24G23G22G27G08G21G18G10G32
 -13486378.23647 -11419427.91547  22344370.3364                   22344361.6764
        42.5004         44.0004
 -13188214.84947 -12270363.88646  21388941.4614                   21388930.9844
        46.2504         39.7504
  -6024171.89046  -5337693.38044  22592448.0944                   22592438.2034
        41.0004         27.5004
 -12335753.00146  -9451139.24346  23270827.3834                   23270818.6644
        41.5004         39.0004
 -10148808.27246  -7884324.14046  23399881.0784                   23399873.6484
        39.2504         40.0004
  -7494634.08946  -4935113.00243  24265539.9144                   24265527.7384
        40.0004         21.7504
 -13107565.23746 -10148746.12244  23380713.3444                   23380701.8714
        41.0004         28.5004
 -27498736.40748 -21292879.20949  20514712.3134                   20514702.8914
        52.7504         54.7504
 -15880739.48448 -18535955.92749  20921001.4454                   20920992.4924
        51.5004         55.0004
 23  1  1  0 16  0.0000000  0  9G24G23G22G27G08G21G18G10G32
 -13443809.27447 -11386257.29447  22352470.8594                   22352462.3164
        43.0004         44.0004
 -13135357.03647 -12229175.98946  21399000.2814                   21398989.2774
        46.5004         40.0004
  -6106584.63746  -5401911.09744  22576765.6024                   22576755.1844
        41.5004         27.0004
 -12259244.55246  -9391522.29246  23285385.0394                   23285377.1414
        39.2504         39.0004
 -10123341.45346  -7864479.89046  23404728.0864                   23404719.9534
        41.5004         39.7504
  -7578283.41746  -5000294.28543  24249622.2504                   24249609.4304
        40.5004         21.7504
 -13000824.67846 -10065571.67844  23401025.0634                   23401014.0004
        41.0004         28.5004
 -27502772.53548 -21296024.23649  20513944.3444                   20513935.1564
        52.2504         54.7504
 -15923535.67648 -18569303.59449  20912857.8054                   20912848.7934
        52.0004         54.7504
 23  1  1  0 16 30.0000000  0  9G24G23G22G27G08G21G18G10G32
 -13400638.54747 -11352617.76347  22360685.9694                   22360677.4264
        42.5004         44.0004
 -13082251.74847 -12187795.25246  21409105.8834                   21409095.2894
        46.0004         40.0004
  -6188722.14547  -5465914.33844  22561135.8134                   22561125.1024
        42.0004         27.0004
 -12182416.53646  -9331656.31146  23300006.0234                   23299997.2464
        41.0004         39.2504
 -10097356.59946  -7844231.97646  23409672.0394                   23409664.4924
        41.0004         40.2504
  -7661758.62846  -5065339.89243  24233736.9454                   24233724.6524
        40.2504         21.7504
 -12893875.07746  -9982234.33244  23421375.2734                   23421365.9104
        39.5004         28.7504
 -27506532.99248 -21298954.46349  20513228.4304                   20513219.1844
        52.0004         54.7504
 -15965916.46248 -18602327.57549  20904792.8204                   20904783.6914
        52.0004         55.0004
 23  1  1  0 17  0.0000000  0  9G24G23G22G27G08G21G18G10G32
 -13356868.55647 -11318511.28647  22369015.1644                   22369006.5634
        42.5004         44.0004
 -13028900.15347 -12146222.59246  21419258.5314                   21419247.7034
        46.0004         40.0004
  -6270584.35246  -5529703.02744  22545557.4304                   22545547.0704
        41.7504         26.5004
 -12105272.97246  -9271544.44646  23314685.1884                   23314676.9964
        39.7504         39.0004
 -10070856.34546  -7823582.44746  23414715.4144                   23414707.3404
        40.5004         39.5004
  -7745059.02846  -5130249.27143  24217886.1094                   24217873.2304
        40.7504         22.5004
 -12786719.47846  -9898736.49244  23441768.4064                   23441757.1684
        40.0004         27.7504
 -27510018.17848 -21301670.20149  20512565.4384                   20512556.1914
        52.7504         55.0004
 -16007882.63448 -18635028.46849  20896806.7814                   20896798.1804
        51.0004         55.0004
 23  1  1  0 17 30.0000000  0  9G24G23G22G27G08G21G18G10G32
 -13312499.92546 -11283938.31147  22377457.7034                   22377449.7464
        41.5004         43.7504
 -12975301.53947 -12104457.43946  21429457.4144                   21429447.0554
        46.0004         39.5004
  -6352168.98746  -5593275.47244  22530033.2814                   22530022.1024
        41.2504         27.0004
 -12027815.92046  -9211188.31746  23329425.2114                   23329417.0784
        40.5004         38.7504
 -10043841.28346  -7802531.78146  23419856.0704                   23419847.9964
        39.5004         39.5004
  -7828181.53446  -5195020.06743  24202067.4844                   24202055.9534
        40.0004         21.7504
 -12679358.91146  -9815078.93744  23462196.9614                   23462186.7194
        39.0004         27.2504
 -27513226.80948 -21304170.42949  20511954.7344                   20511945.7234
        53.0004         54.7504
 -16049433.16448 -18667405.50549  20888899.9924                   20888891.0394
        52.5004         54.7504
 23  1  1  0 18  0.0000000  0  9G24G23G22G27G08G21G18G10G32
 -13267535.32147 -11248900.97347  22386014.8674                   22386005.9144
        42.5004         43.7504
 -12921457.31147 -12062500.91046  21439704.2664                   21439693.4964
        46.0004         39.7504
  -6433476.27546  -5656631.77644  22514560.1334                   22514550.0664
        41.7504         27.2504
 -11950049.67146  -9150591.23246  23344223.5004                   23344215.0744
        39.5004         38.5004
 -10016313.93946  -7781081.92846  23425093.5554                   23425086.1844
        39.7504         39.2504
  -7911125.02046  -5259651.35243  24186284.6094                   24186271.6724
        40.2504         22.2504
 -12571796.64746  -9731264.19044  23482664.9774                   23482655.7894
        38.2504         28.2504
 -27516159.45948 -21306455.61549  20511396.6804                   20511387.5514
        53.2504         55.0004
 -16090568.75748 -18699459.20649  20881072.1804                   20881063.6954
        51.2504         55.0004
 23  1  1  0 18 30.0000000  0  9G24G23G22G27G08G21G18G10G32
 -13221976.11347 -11213400.25947  22394684.9224                   22394675.7934
        42.2504         43.7504
 -12867367.36547 -12020352.90446  21449996.9844                   21449986.4494
        46.5004         39.7504
  -6514504.82947  -5719770.91144  22499141.3594                   22499131.0594
        42.5004         27.2504
 -11871976.86146  -9089755.28946  23359079.5634                   23359072.1334
        39.7504         38.0004
  -9988275.67846  -7759233.96746  23430429.9534                   23430422.3484
        39.7504         40.0004
  -7993887.57746  -5324141.65043  24170535.3284                   24170522.8594
        40.7504         22.0004
 -12464034.38046  -9647293.61344  23503172.3914                   23503161.6214
        39.0004         28.0004
 -27518815.17348 -21308525.00549  20510891.2344                   20510882.2814
        53.0004         55.0004
 -16131289.07048 -18731189.30749  20873323.1484                   20873314.5474
        51.5004         54.7504
 23  1  1  0 19  0.0000000  0  9G24G23G22G27G08G21G18G10G32
 -13175823.54146 -11177437.22547  22403466.0314                   22403458.8364
        40.5004         43.5004
 -12813031.65647 -11978013.40946  21460336.5864                   21460326.0514
        45.7504         39.5004
  -6595253.12547  -5782691.61344  22483774.5234                   22483764.4574
        42.2504         27.5004
 -11793600.36346  -9028682.69946  23373995.3364                   23373986.5004
        40.5004         38.0004
  -9959727.40646  -7736988.59546  23435862.4614                   23435854.4454
        39.7504         40.0004
  -8076466.80946  -5388489.10843  24154820.6414                   24154808.5234
        39.2504         23.5004
 -12356073.94546  -9563168.60344  23523716.6564                   23523706.2974
        37.7504         29.2504
 -27521193.25748 -21310378.05749  20510438.5554                   20510429.5434
        52.0004         54.7504
 -16171593.68748 -18762595.49549  20865653.5704                   20865644.8524
        52.0004         55.2504
 23  1  1  0 19 30.0000000  0  9G24G23G22G27G08G21G18G10G32
 -13129078.54546 -11141012.57447  22412362.0864                   22412353.8954
        40.7504         43.5004
 -12758449.75847 -11935482.07546  21470723.7504                   21470712.6294
        47.0004         39.0004
  -6675719.84847  -5845392.95244  22468462.6724                   22468452.1374
        42.5004         28.0004
 -11714922.54646  -8967375.32346  23388966.6414                   23388958.7424
        39.2504         38.2504
  -9930670.75546  -7714347.07846  23441392.0554                   23441383.9804
        41.0004         39.5004
  -8158860.68846  -5452692.11043  24139142.3134                   24139129.2584
        40.2504         22.5004
 -12247916.60546  -9478890.19544  23544298.0704                   23544287.8284
        37.5004         26.7504
 -27523292.91348 -21312014.15149  20510039.2974                   20510030.2274
        53.0004         54.7504
 -16211481.73148 -18793677.06649  20858063.1254                   20858054.6414
        51.0004         54.7504
 23  1  1  0 20  0.0000000  0  9G24G23G22G27G08G21G18G10G32
 -13081744.62946 -11104128.99547  22421369.0944                   22421360.9614
        41.2504         43.2504
 -12703623.61247 -11892760.40246  21481156.8054                   21481145.6254
        46.7504         39.5004
  -6755905.44947  -5907875.23344  22453204.0474                   22453193.4534
        42.5004         28.2504
 -11635948.19346  -8905836.87546  23403994.9144                   23403986.5474
        39.2504         38.0004
  -9901109.06546  -7691312.01846  23447018.2194                   23447009.2664
        39.7504         39.7504
  -8241068.38146  -5516750.04343  24123498.1724                   24123486.2304
        39.7504         22.0004
 -12139566.26946  -9394461.35844  23564916.1884                   23564906.4734
        38.5004         27.0004
 -27525115.08348 -21313434.02949  20509692.6804                   20509683.4924
        52.7504         54.7504
 -16250954.85248 -18824435.33449  20850551.7734                   20850543.0554
        51.0004         55.0004
 23  1  1  0 20 30.0000000  0  9G24G23G22G27G08G21G18G10G32
 -13033821.45646 -11066786.26547  22430488.8364                   22430480.0594
        41.5004         43.2504
 -12648551.58047 -11849847.14146  21491636.3444                   21491625.9264
        46.7504         39.5004
  -6835807.08847  -5970136.21144  22437998.8834                   22437988.4064
        43.0004         27.7504
 -11556678.52846  -8844068.31146  23419080.2114                   23419070.9654
        39.7504         38.7504
  -9871041.57446  -7667882.83446  23452739.2584                   23452730.6564
        40.7504         39.7504
  -8323086.27046  -5580660.11843  24107890.5004                   24107878.6764
        40.2504         22.5004
 -12031023.11346  -9309882.30044  23585570.6484                   23585561.3444
        37.0004         26.0004
 -27526657.41748 -21314635.84549  20509399.1334                   20509390.0634
        53.5004         54.7504
 -16290010.99348 -18854868.67749  20843119.5634                   20843110.9024
        51.0004         54.7504
 23  1  1  0 21  0.0000000  0  9G24G23G22G27G08G21G18G10G32
 -12985311.58846 -11028986.36047  22439719.1174                   22439711.3954
        41.2504         43.0004
 -12593234.68847 -11806743.08746  21502162.3834                   21502152.5514
        46.0004         39.0004
  -6915424.50547  -6032175.74844  22422848.7974                   22422838.1454
        42.5004         27.5004
 -11477117.40146  -8782072.63846  23434219.8834                   23434211.7504
        39.0004         39.0004
  -9840471.56346  -7644062.06246  23458555.9844                   23458547.9104
        40.0004         39.5004
  -8404913.25246  -5644421.38943  24092319.8524                   24092307.4414
        40.0004         22.7504
 -11922289.93946  -9225155.15644  23606262.9304                   23606252.6884
        38.2504         27.0004
 -27527920.15448 -21315619.80249  20509158.9304                   20509149.8014
        52.7504         54.7504
 -16328650.83648 -18884977.64249  20835766.4064                   20835757.1604
        51.5004         55.0004
 23  1  1  0 21 30.0000000  0  9G24G23G22G27G08G21G18G10G32
 -12936216.25046 -10990730.27247  22449062.6484                   22449054.3404
        41.2504         43.0004
 -12537672.68947 -11763448.02946  21512735.8364                   21512725.4774
        46.0004         39.2504
  -6994756.27647  -6093992.68844  22407751.9454                   22407742.0554
        42.7504         28.2504
 -11397267.46746  -8719851.92246  23449414.2504                   23449406.5274
        39.2504         38.0004
  -9809399.56046  -7619850.14046  23464468.7894                   23464461.0664
        39.5004         39.7504
  -8486547.54146  -5708032.51143  24076785.0784                   24076772.9614
        39.5004         21.7504
 -11813368.44446  -9140281.28644  23626988.7034                   23626979.3984
        37.0004         26.5004
 -27528902.39648 -21316385.18549  20508971.8524                   20508963.0164
        52.5004         54.7504
 -16366873.84648 -18914761.79949  20828493.0554                   20828483.9844
        51.7504         55.0004
 23  1  1  0 22  0.0000000  0  9G24G23G22G27G08G21G18G10G32
 -12886538.24246 -10952020.13147  22458515.4844                   22458507.3524
        40.0004         43.0004
 -12481866.88047 -11719962.98546  21523355.3834                   21523344.7894
        45.2504         39.0004
  -7073802.23347  -6155586.93844  22392710.5084                   22392699.4454
        42.7504         28.0004
 -11317132.81446  -8657409.33746  23464664.5314                   23464655.6374
        40.2504         38.5004
  -9777828.61146  -7595249.41346  23470476.6484                   23470468.9264
        39.5004         39.7504
  -8567987.40246  -5771492.14643  24061287.4774                   24061275.1844
        39.7504         22.2504
 -11704261.63046  -9055262.99644  23647751.6484                   23647742.0514
        38.0004         26.5004
 -27529604.96548 -21316932.63649  20508838.1254                   20508829.4064
        53.5004         55.0004
 -16404680.96448 -18944221.87149  20821298.7194                   20821289.9414
        51.7504         55.0004
 23  1  1  0 22 30.0000000  0  9G24G23G22G27G08G21G18G10G32
 -12836278.56046 -10912856.75747  22468079.8594                   22468071.3164
        40.0004         42.5004
 -12425816.72847 -11676287.56146  21534020.8914                   21534010.5904
        46.2504         39.2504
  -7152560.81647  -6216957.24144  22377722.8984                   22377712.4224
        42.5004         28.2504
 -11236715.81846  -8594746.75446  23479966.8834                   23479958.2814
        40.5004         38.0004
  -9745759.70146  -7570260.66846  23476579.3984                   23476571.3834
        40.0004         39.2504
  -8649230.08246  -5834798.14843  24045827.5314                   24045815.9414
        39.7504         22.5004
 -11594970.85246  -8970101.38444  23668549.8284                   23668539.0594
        38.7504         26.2504
 -27530026.30948 -21317260.96149  20508758.1724                   20508749.2194
        53.0004         54.7504
 -16442071.33048 -18973357.21249  20814183.3984                   20814174.5044
        51.5004         54.7504
 23  1  1  0 23  0.0000000  0  9G24G23G22G27G08G21G18G10G32
 -12785438.67146 -10873241.24947  22477754.4144                   22477746.2814
        40.5004         42.7504
 -12369522.14747 -11632421.67746  21544733.9224                   21544723.0354
        46.0004         39.0004
  -7231030.65747  -6278102.55044  22362790.2194                   22362779.8014
        42.2504         28.0004
 -11156019.19846  -8531866.30946  23495322.6414                   23495314.2154
        39.2504         38.2504
  -9713194.27946  -7544885.04246  23482776.2344                   23482768.2194
        39.5004         39.0004
  -8730273.66446  -5897948.95943  24030405.3984                   24030393.3404
        40.5004         22.2504
 -11485497.95146  -8884797.81644  23689380.9924                   23689371.2774
        38.5004         25.5004
 -27530165.75248 -21317369.61149  20508731.5474                   20508722.4184
        52.0004         55.0004
 -16479044.57948 -19002167.53149  20807147.7814                   20807138.7114
        51.5004         55.0004
 23  1  1  0 23 30.0000000  0  9G24G23G22G27G08G21G18G10G32
 -12734021.68346 -10833176.06147  22487538.7814                   22487530.1804
        40.0004         42.7504
 -12312984.72447 -11588366.55446  21555492.7114                   21555481.8244
        46.0004         39.0004
  -7309212.18447  -6339023.20944  22347913.2034                   22347902.9614
        42.5004         28.2504
 -11075047.48146  -8468771.45446  23510732.2894                   23510722.8094
        39.7504         38.0004
  -9680135.05846  -7519124.61446  23489067.2974                   23489059.0474
        40.7504         39.2504
  -8811117.56446  -5960944.20343  24015021.6724                   24015009.3204
        40.7504         23.0004
 -11375846.26946  -8799354.99844  23710247.1644                   23710237.2734
        38.2504         25.2504
 -27530023.82048 -21317259.01949  20508758.4064                   20508749.3364
        53.7504         55.0004
 -16515601.96648 -19030653.79449  20800191.0314                   20800182.1954
        52.0004         54.7504
 23  1  1  0 24  0.0000000  0  9G24G23G22G27G08G21G18G10G32
 -12682028.33046 -10792661.76247  22497431.3674                   22497424.8754
        39.0004         42.2504
 -12256203.47547 -11544121.44546  21566297.9614                   21566287.3674
        46.0004         38.7504
  -7387103.21347  -6399717.49644  22333090.9694                   22333080.6094
        43.0004         28.5004
 -10993802.56046  -8405463.74946  23526191.1484                   23526182.9574
        38.5004         38.0004
  -9646583.09046  -7492980.23246  23495452.0704                   23495443.7624
        40.2504         39.2504
  -8891758.55246  -6023781.34844  23999676.1884                   23999663.3674
        41.2504         24.0004
 -11266016.79646  -8713773.59944  23731147.1644                   23731137.0984
        39.0004         25.0004
 -27529599.41848 -21316928.31949  20508839.0004                   20508829.9304
        52.5004         54.7504
 -16551742.32148 -19058815.09949  20793313.5944                   20793304.7584
        50.7504         55.0004
 23  1  1  0 24 30.0000000  0  9G24G23G22G27G08G21G18G10G32
 -12629460.84246 -10751700.10147  22507437.3674                   22507427.6524
        41.2504         42.5004
 -12199179.16547 -11499686.92346  21577149.1804                   21577138.6454
        45.7504         38.7504
  -7464703.29447  -6460185.08144  22318323.8914                   22318313.8244
        42.0004         28.0004
 -10912287.96046  -8341945.88946  23541704.0314                   23541695.2544
        39.7504         38.0004
  -9612540.72446  -7466453.71546  23501930.5164                   23501922.0314
        39.7504         39.2504
  -8972194.80746  -6086458.93244  23984369.1724                   23984357.4654
        39.5004         24.2504
 -11156012.01246  -8628055.58544  23752078.3284                   23752069.9024
        37.5004         25.5004
 -27528892.30348 -21316377.32849  20508973.7274                   20508964.7734
        53.7504         54.7504
 -16587466.02848 -19086651.74949  20786515.6724                   20786506.7774
        51.7504         55.0004
 23  1  1  0 25  0.0000000  0  9G24G23G22G27G08G21G18G10G32
 -12576321.11646 -10710292.50647  22517547.6804                   22517539.6644
        39.5004         42.5004
 -12141911.98847 -11455063.16346  21588047.2344                   21588036.1724
        46.0004         38.7504
  -7542011.55947  -6520425.25544  22303612.8204                   22303602.3444
        43.0004         28.7504
 -10830506.78346  -8278220.31446  23557265.1484                   23557257.3674
        38.2504         37.5004
  -9578009.55146  -7439546.32646  23508501.2734                   23508493.1414
        40.5004         39.2504
  -9052424.70046  -6148975.73044  23969101.9844                   23969089.9264
        40.0004         24.2504
 -11045834.09346  -8542202.67644  23773046.2114                   23773036.2034
        37.7504         25.5004
 -27527901.74849 -21315605.46549  20509162.2034                   20509153.2504
        54.7504         55.0004
 -16622773.07748 -19114163.71949  20779796.9694                   20779787.9574
        52.2504         54.7504
 23  1  1  0 25 30.0000000  0  9G24G23G22G27G08G21G18G10G32
 -12522610.23146 -10668439.87247  22527769.5944                   22527761.0514
        40.2504         42.0004
 -12084401.39047 -11410249.71546  21598990.6254                   21598980.1484
        46.0004         38.5004
  -7619026.00947  -6580436.51644  22288957.4774                   22288947.7624
        43.2504         29.5004
 -10748461.41846  -8214288.88846  23572878.7894                   23572870.0704
        39.0004         37.2504
  -9542990.52346  -7412258.78546  23515164.2424                   23515156.5784
        40.5004         39.0004
  -9132445.80846  -6211329.82944  23953875.6174                   23953862.7384
        41.7504         24.2504
 -10935484.25046  -8456215.82244  23794045.4064                   23794035.3984
        39.0004         25.2504
 -27526626.68848 -21314611.91549  20509404.8054                   20509395.7934
        53.0004         55.2504
 -16657662.70748 -19141350.43549  20773157.7504                   20773148.7974
        51.7504         55.0004
