     2.10           OBSERVATION DATA    G (GPS)             RINEX VERSION / TYPE
teqc  2004Apr5                          20041208 15:58:07UTCPGM / RUN BY / DATE
OBSERVATION MODE: Permanent                                 COMMENT
CHUM Chumysh (CHUM)                                         MARKER NAME
25601M001                                                   MARKER NUMBER
T136                ROGUE SNR-8000       3.20               REC # / TYPE / VERS
113                 AOAD/M_T        NONE                    ANT # / TYPE
        0.0900        0.0000        0.0000                  ANTENNA: DELTA H/E/N
  1228950.8684  4508079.8913  4327868.4935                  APPROX POSITION XYZ
  74.75109757  42.99850109  716.3263  LonLatAlt  S/W        COMMENT
Linux 2.0.36|Pentium II|gcc -static|Linux|486/DX+           COMMENT
BIT 2 OF LLI FLAGS DATA COLLECTED UNDER A/S CONDITION       COMMENT
Konovalov           IVTAN                                   OBSERVER / AGENCY
     1     1                                                WAVELENGTH FACT L1/2
     5    L1    L2    C1    P2    P1                        # / TYPES OF OBSERV
    30.0000                                                 INTERVAL
    P1 =    P1  TurboRogue; =    Y1  Benchmark              COMMENT
    L1 = L1(P1) TurboRogue; = L1(Y1) Benchmark              COMMENT
    P2 =    P2  TurboRogue; =    Y2  Benchmark              COMMENT
    L2 = L2(P2) TurboRogue; = L2(Y2) Benchmark              COMMENT
 SNR is mapped to RINEX snr flag value [1,4-9]              COMMENT
    SNR:  >=316 >=100 >=31.6 >=10 >=3.2    >0 bad=0         COMMENT
L1 & L2:      9     8     7     6     5     4     1         COMMENT
  2002     1     3     0     0    0.0000000     GPS         TIME OF FIRST OBS
  2002     1     3    23    59   30.0000000     GPS         TIME OF LAST OBS
                                                            END OF HEADER
 02  1  3  0  0  0.0000000  0  8G 1G11G22G14G25G20G21G29
  -4433358.74648  -3454564.95045  24241076.506    24241078.330
 -13839812.37349 -10784273.41445  22733887.856    22733888.216
  -2731527.96548  -2128464.43645  23790502.857    23790504.290
  -5371884.83449  -4185885.43146  22555383.620    22555384.603
 -24234017.79749 -18883647.29147  20464566.072    20464566.337
 -17484509.52749 -13624293.23746  22037922.084    22037923.514
  18672400.73548                  24418409.360
 -14064858.83249 -10959629.70547  21107936.888    21107937.869
 02  1  3  0  0 30.0000000  0  8G 1G11G22G14G25G20G21G29
  -4515551.59848  -3518611.33245  24225434.309    24225439.655
 -13783808.82749 -10740634.33745  22744544.279    22744544.889
  -2845128.91748  -2216984.68644  23768884.715    23768886.822
  -5300087.73249  -4129939.61346  22569046.023    22569046.371
 -24226873.37149 -18878080.16447  20465925.544    20465925.805
 -17565172.39949 -13687147.40046  22022572.773    22022573.701
  18780643.55948                  24439007.176
 -14021668.13349 -10925974.59647  21116155.740    21116156.690
 02  1  3  0  1  0.0000000  0  8G 1G11G22G14G25G20G21G29
  -4597671.58548  -3582600.88244  24209807.260    24209810.521
 -13727384.42749 -10696667.35745  22755282.219    22755283.134
  -2958671.25448  -2305459.28844  23747278.640    23747279.634
  -5228137.70649  -4073874.62446  22582737.389    22582737.704
 -24219266.55349 -18872152.74847  20467372.900    20467373.159
 -17645518.14849 -13749754.45346  22007283.555    22007284.617
  18889062.80048                  24459637.895
 -13978249.48949 -10892141.87247  21124418.319    21124419.101
 02  1  3  0  1 30.0000000  0  8G 1G11G22G14G25G20G21G29
  -4679725.87048  -3646539.34545  24194193.717    24194194.827
 -13670549.08349 -10652380.14245  22766097.394    22766097.762
  -3072159.29948  -2393891.58344  23725682.654    23725684.653
  -5156042.65349  -4017696.63346  22596456.833    22596457.376
 -24211205.71949 -18865871.56047  20468906.864    20468907.157
 -17725551.50849 -13812118.07846  21992053.438    21992053.984
  18997649.23148                  24480301.921
 -13934610.34549 -10858137.33247  21132722.951    21132723.587
 02  1  3  0  2  0.0000000  0  8G 1G11G22G14G25G20G21G29
  -4761721.62048  -3710432.17845  24178589.968    24178593.771
 -13613312.78449 -10607780.50545  22776988.507    22776989.298
  -3185597.21948  -2482284.78844  23704097.044    23704097.435
  -5083810.65049  -3961411.93446  22610202.231    22610202.674
 -24202699.45249 -18859243.28947  20470525.530    20470525.843
 -17805277.82049 -13874242.46446  21976882.145    21976883.241
  19106393.59548                  24500995.027
 -13890758.52649 -10823967.07147  21141067.311    21141068.222
 02  1  3  0  2 30.0000000  0  8G 1G11G22G14G25G20G21G29
  -4843637.60948  -3774262.84045  24163002.279    24163005.310
 -13555656.90949 -10562853.94945  22787960.564    22787961.968
  -3298961.25348  -2570620.47845  23682523.231    23682525.200
  -5011421.21349  -3905004.55146  22623977.311    22623977.623
 -24193727.84949 -18852252.42847  20472232.714    20472233.042
 -17884673.88349 -13936109.53346  21961773.378    21961774.564
  19215314.32648                  24521722.187
 -13846673.28249 -10789614.92147  21149456.239    21149457.126
 02  1  3  0  3  0.0000000  0  8G 1G11G22G14G25G20G21G29
  -4925482.28048  -3838037.96845  24147427.750    24147431.848
 -13497592.94449 -10517609.41945  22799010.179    22799010.309
  -3412257.03348  -2658902.96545  23660964.223    23660967.432
  -4938883.50449  -3848481.61546  22637780.757    22637780.906
 -24184300.74949 -18844906.65447  20474026.789    20474027.022
 -17963745.73749 -13997723.96046  21946727.050    21946727.585
  19324401.22148                  24542480.685
 -13802363.66049 -10755087.93147  21157888.385    21157888.966
 02  1  3  0  3 30.0000000  0  8G 1G11G22G14G25G20G21G29
  -5007267.29548  -3901766.59145  24131864.701    24131867.849
 -13439135.08249 -10472057.94945  22810134.472    22810135.130
  -3525493.41248  -2747139.20745  23639416.099    23639419.147
  -4866209.94449  -3791852.82846  22651610.415    22651610.985
 -24174431.14349 -18837216.07347  20475904.937    20475905.270
 -18042503.07949 -14059093.31546  21931738.993    21931739.867
  19433640.75248                  24563268.348
 -13757841.70349 -10720395.48147  21166360.565    21166361.153
 02  1  3  0  4  0.0000000  0  8G 1G11G22G14G25G20G21G29
  -5089001.25048  -3965455.38445  24116309.982    24116315.132
 -13380295.03649 -10426208.64945  22821330.793    22821331.124
  -3638676.17848  -2835333.61545  23617878.547    23617880.825
  -4793410.08349  -3735125.61746  22665462.951    22665463.973
 -24164128.91249 -18829188.38347  20477865.320    20477865.649
 -18120952.41249 -14120222.66546  21916811.634    21916812.345
  19543021.63548                  24584082.620
 -13713116.55049 -10685544.69447  21174871.217    21174871.949
 02  1  3  0  4 30.0000000  0  8G 1G11G22G14G25G20G21G29
  -5170685.38048  -4029105.36945  24100767.490    24100769.775
 -13321076.27049 -10380064.24745  22832600.141    22832600.528
  -3751803.45448  -2923484.81144  23596351.189    23596353.722
  -4720485.61849  -3678301.31145  22679340.210    22679340.568
 -24153396.19749 -18820825.25847  20479907.610    20479908.044
 -18199092.33749 -14181110.88146  21901941.298    21901942.745
  19652540.85648                  24604923.049
 -13668189.86549 -10650536.87447  21183420.419    21183421.353
 02  1  3  0  5  0.0000000  0  8G 1G11G22G14G25G20G21G29
  -5252307.54248  -4092707.08945  24085234.501    24085240.656
 -13261469.52449 -10333617.46645  22843943.536    22843944.021
  -3864860.21348  -3011581.00144  23574837.039    23574839.046
  -4647425.17549  -3621371.04545  22693243.398    22693243.697
 -24142222.23849 -18812118.30247  20482033.935    20482034.322
 -18276908.87149 -14241747.10846  21887133.328    21887134.745
  19762208.31248                  24625791.317
 -13623049.99549 -10615362.92547  21192010.157    21192011.382
 02  1  3  0  5 30.0000000  0  8G 1G11G22G14G25G20G21G29
  -5333874.42048  -4156265.65345  24069712.478    24069716.691
 -13201484.80749 -10286876.19045  22855357.106    22855357.526
  -3977850.70448  -3099625.56244  23553335.317    23553336.571
  -4574236.29949  -3564340.69646  22707170.723    22707171.478
 -24130615.30949 -18803073.96047  20484242.998    20484243.431
 -18354406.71849 -14302135.00846  21872386.537    21872387.153
  19872015.09648                  24646686.927
 -13577704.26349 -10580028.56347  21200639.340    21200640.011
 02  1  3  0  6  0.0000000  0  8G 1G11G22G14G25G20G21G29
  -5415383.18648  -4219778.96745  24054202.480    24054204.237
 -13141121.77649 -10239840.09845  22866844.357    22866845.975
  -4090768.88448  -3187613.74444  23531848.587    23531850.351
  -4500916.58349  -3507208.38245  22721122.914    22721123.296
 -24118574.14549 -18793691.26247  20486534.432    20486534.826
 -18431580.85049 -14362270.66646  21857700.318    21857701.586
  19981961.76948  15570354.80844  24667609.674    24667612.780
 -13532150.27849 -10544531.92847  21209307.825    21209308.687
 02  1  3  0  6 30.0000000  0  8G 1G11G22G14G25G20G21G29
  -5496829.86048  -4283243.85844  24038702.325    24038707.734
 -13080379.65549 -10192508.62745  22878404.194    22878405.827
  -4203608.24548  -3275540.52645  23510375.623    23510377.161
  -4427463.18449  -3449971.90845  22735100.481    22735101.147
 -24106095.80949 -18783967.91047  20488908.799    20488909.237
 -18508425.09149 -14422149.26646  21843077.620    21843078.390
  20092050.22448                  24688559.286
 -13486384.62249 -10508870.35547  21218016.791    21218017.456
 02  1  3  0  7  0.0000000  0  8G 1G11G22G14G25G20G21G29
  -5578209.68948  -4346656.64345  24023218.703    24023221.799
 -13019256.25248 -10144880.06845  22890034.177    22890033.791
  -4316360.93348  -3363399.76844  23488919.019    23488921.061
  -4353871.65649  -3392627.79545  22749104.902    22749104.978
 -24093177.22849 -18773901.50947  20491366.893    20491367.445
 -18584932.47249 -14481765.38946  21828518.390    21828519.041
  20202283.00448                  24709534.920
 -13440402.85049 -10473040.37847  21226766.836    21226767.558
 02  1  3  0  7 30.0000000  0  8G 1G11G22G14G25G20G21G29
  -5659507.47248  -4410005.55545  24007746.271    24007749.562
 -12957739.12048 -10096944.65945  22901740.996    22901741.241
  -4429008.90248  -3451177.39544  23467482.702    23467484.628
  -4280127.69549  -3335164.90845  22763137.456    22763137.639
 -24079804.45649 -18763481.19847  20493911.658    20493912.217
 -18661085.58749 -14541105.43746  21814027.314    21814027.902
  20312673.71248                  24730542.719
 -13394190.15049 -10437030.46247  21235561.062    21235561.602
 02  1  3  0  8  0.0000000  0  7G 1G11G22G14G25G20G29
  -5740750.52248  -4473311.78145  23992286.732    23992289.958
 -12895858.64849 -10048726.11845  22913517.117    22913516.930
  -4541576.65948  -3538892.52244  23446062.008    23446064.578
  -4206259.34349  -3277605.10045  22777194.314    22777194.542
 -24066006.13549 -18752729.28847  20496537.632    20496538.136
 -18736909.87449 -14600189.26146  21799598.466    21799599.359
 -13347774.66149 -10400862.52047  21244393.449    21244394.090
 02  1  3  0  8 30.0000000  0  7G 1G11G22G14G25G20G29
  -5821916.62248  -4536557.99745  23976840.801    23976843.007
 -12833595.70148 -10000209.55345  22925364.203    22925366.477
  -4654039.20848  -3626525.64044  23424660.741    23424662.770
  -4132245.35149  -3219931.81845  22791278.150    22791278.714
 -24051761.61549 -18741629.68447  20499248.246    20499248.922
 -18812380.92349 -14658997.82446  21785236.372    21785236.952
 -13301134.60649 -10364519.59547  21253268.699    21253269.647
 02  1  3  0  9  0.0000000  0  8G 1G11G22G14G25G20G30G29
  -5903038.58148  -4599769.78345  23961404.505    23961406.301
 -12770985.73049  -9951422.57745  22937279.795    22937279.521
  -4766426.39148  -3714100.08344  23403274.942    23403276.539
  -4058119.16249  -3162171.08645  22805384.698    22805384.293
 -24037104.83149 -18730208.82847  20502037.401    20502038.005
 -18887529.22749 -14717554.88446  21770936.790    21770937.200
        -1.22058         -.89555  23584883.377    23584884.242
 -13254303.06849 -10328027.46447  21262180.693    21262181.306
 02  1  3  0  9 30.0000000  0  8G 1G11G22G14G25G20G30G29
  -5984107.29348  -4662940.17445  23945977.956    23945980.828
 -12708022.69248  -9902360.47645  22949260.880    22949261.540
  -4878726.03648  -3801606.30144  23381904.408    23381907.377
  -3983872.02449  -3104316.15045  22819512.905    22819513.371
 -24022028.25749 -18718460.85347  20504906.383    20504906.984
 -18962343.62749 -14775851.76646  21756699.683    21756700.392
     50122.59748     39056.65345  23594422.445    23594423.473
 -13207271.45049 -10291379.42747  21271130.308    21271131.071
 02  1  3  0 10  0.0000000  0  8G 1G11G22G14G25G20G30G29
  -6065105.68348  -4726055.76745  23930563.280    23930565.869
 -12644692.29648  -9853012.14645  22961311.018    22961311.985
  -4990918.41648  -3889028.94544  23360554.966    23360558.494
  -3909487.90749  -3046354.43245  22833667.195    22833667.861
 -24006516.37149 -18706373.66847  20507857.990    20507858.683
 -19036804.97849 -14833873.54746  21742529.351    21742530.795
    100781.48648     78531.15845  23604062.474    23604062.945
 -13160023.41749 -10254562.75247  21280121.058    21280121.775
 02  1  3  0 10 30.0000000  0  8G 1G11G22G14G25G20G30G29
  -6146028.78748  -4789112.74145  23915165.415    23915168.932
 -12580992.63849  -9803376.04845  22973435.301    22973435.644
  -5102995.65548  -3976361.88245  23339227.458    23339227.064
  -3834962.59649  -2988282.71645  22847850.022    22847849.927
 -23990565.79549 -18693944.64547  20510892.935    20510893.700
 -19110906.04249 -14891614.58046  21728429.485    21728429.799
    151978.50448    118424.96245  23613803.954    23613806.311
 -13112554.18749 -10217573.72147  21289154.395    21289155.001
 02  1  3  0 11  0.0000000  0  8G 1G11G22G14G25G20G30G29
  -6226883.05448  -4852116.01745  23899777.681    23899782.426
 -12516933.32748  -9753459.68245  22985623.192    22985625.958
  -5214961.34848  -4063607.92345  23317921.443    23317926.044
  -3760303.30649  -2930106.59645  22862056.639    22862056.100
 -23974184.58849 -18681180.07247  20514010.342    20514011.137
 -19184651.52849 -14949078.54946  21714395.443    21714396.219
    203705.14548    158731.45345  23623647.625    23623647.162
 -13064871.10749 -10180418.05747  21298227.903    21298228.836
 02  1  3  0 11 30.0000000  0  8G 1G11G22G14G25G20G30G29
  -6307679.82748  -4915074.44745  23884403.454    23884406.113
 -12452528.48648  -9703274.09845  22997879.231    22997879.849
  -5326824.05448  -4150773.65545  23296634.730    23296636.663
  -3685522.00749  -2871835.41245  22876286.718    22876287.295
 -23957385.17749 -18668089.61347  20517207.452    20517208.141
 -19258050.48049 -15006272.47146  21700427.750    21700429.115
    255948.21748    199440.38745  23633588.818    23633589.116
 -13016985.81649 -10143104.82547  21307340.258    21307341.099
 02  1  3  0 12  0.0000000  0  8G 1G11G22G14G25G20G30G29
  -6388398.54948  -4977972.06645  23869043.554    23869045.418
 -12387760.94548  -9652805.85945  23010205.056    23010205.651
  -5438560.31448  -4237840.86745  23275371.506    23275373.434
  -3610599.04849  -2813453.84645  22890544.660    22890544.228
 -23940148.92849 -18654658.75047  20520487.352    20520487.978
 -19331080.26049 -15063178.71546  21686531.267    21686531.777
    308726.01148    240565.97145  23643632.796    23643634.312
 -12968878.56749 -10105618.63847  21316494.738    21316495.463
 02  1  3  0 12 30.0000000  0  8G 1G11G22G14G25G20G30G29
  -6469050.08448  -5040817.32745  23853695.253    23853698.924
 -12322644.18848  -9602065.53545  23022594.650    23022596.555
  -5550178.16648  -4324815.82344  23254131.301    23254134.128
  -3535545.99249  -2754970.91045  22904825.973    22904825.853
 -23922487.92349 -18640896.90947  20523848.096    20523848.693
 -19403749.77749 -15119804.25446  21672702.245    21672703.230
    362025.74648    282098.26345  23653774.808    23653778.296
 -12920560.51049 -10067968.19747  21325689.478    21325690.218
 02  1  3  0 13  0.0000000  0  8G 1G11G22G14G25G20G30G29
  -6549638.81148  -5103613.68245  23838360.235    23838363.302
 -12257185.67148  -9551058.85545  23035052.634    23035053.371
  -5661678.95348  -4411699.55645  23232913.496    23232916.601
  -3460367.60849  -2696390.31245  22919132.228    22919131.940
 -23904408.14749 -18626808.75047  20527288.678    20527289.430
 -19476060.99849 -15176150.58946  21658941.642    21658942.565
    415841.35248    324032.48645  23664016.165    23664018.554
 -12872036.27249 -10030157.08547  21334923.222    21334923.884
 02  1  3  0 13 30.0000000  0  8G 1G11G22G14G25G20G30G29
  -6630165.41548  -5166361.61545  23823035.615    23823038.004
 -12191389.10048  -9499788.78445  23047572.432    23047573.171
  -5773060.26848  -4498490.18045  23211718.851    23211720.931
  -3385065.55749  -2637713.34145  22933462.207    22933461.587
 -23885911.98149 -18612396.12847  20530808.184    20530808.883
 -19548012.66349 -15232216.75646  21645250.107    21645250.885
    470169.73148    366366.30845  23674355.135    23674355.676
 -12823307.12849  -9992186.30047  21344195.797    21344196.560
 02  1  3  0 14  0.0000000  0  8G 1G11G22G14G25G20G30G29
  -6710612.37848  -5229047.41245  23807727.523    23807731.475
 -12125240.17348  -9448244.17845  23060160.295    23060161.407
  -5884302.09548  -4585172.12645  23190549.632    23190553.887
  -3309623.39549  -2578927.20645  22947817.515    22947818.096
 -23866983.60849 -18597646.72047  20534410.069    20534410.777
 -19619585.04149 -15287987.37246  21631630.098    21631630.671
    525026.56048    409111.89244  23684792.744    23684795.412
 -12774356.40649  -9954042.86747  21353511.055    21353512.090
 02  1  3  0 14 30.0000000  0  8G 1G11G22G14G25G20G30G29
  -6790989.80548  -5291679.01745  23792432.576    23792435.706
 -12058752.17448  -9396435.35545  23072812.774    23072812.888
  -5995411.57848  -4671750.95245  23169406.882    23169408.505
  -3234051.71049  -2520040.13145  22962199.115    22962199.293
 -23847634.47649 -18582569.44547  20538092.056    20538092.873
 -19690786.53949 -15343468.99646  21618080.813    21618081.493
    580399.42248    452259.59244  23695330.485    23695330.894
 -12725194.65349  -9915734.99747  21362866.302    21362867.030
 02  1  3  0 15  0.0000000  0  8G 1G11G22G14G25G20G30G29
  -6871309.05948  -5354265.34145  23777147.972    23777150.819
 -11991938.85948  -9344373.02545  23085526.451    23085525.597
  -6106396.87048  -4758232.99145  23148286.097    23148289.314
  -3158362.32749  -2461061.34545  22976602.296    22976601.866
 -23827877.68649 -18567174.51747  20541851.771    20541852.462
 -19761626.13549 -15398668.63146  21604600.371    21604601.105
    636275.16548    495799.17245  23705963.316    23705963.107
 -12675833.40849  -9877271.67546  21372259.338    21372260.081
 02  1  3  0 15 30.0000000  0  8G 1G11G22G14G25G20G30G29
  -6951576.36748  -5416811.23445  23761873.328    23761875.962
 -11924809.79648  -9292064.59345  23098301.843    23098303.634
  -6217261.41848  -4844620.94845  23127190.347    23127192.325
  -3082562.21949  -2401996.27845  22991026.177    22991027.391
 -23807720.82049 -18551467.84147  20545687.442    20545688.134
 -19832107.99949 -15453589.52246  21591188.503    21591189.117
    692645.14848    539723.87644  23716689.930    23716690.433
 -12626279.50449  -9838658.23146  21381689.200    21381689.846
 02  1  3  0 16  0.0000000  0  8G 1G11G22G14G25G20G30G29
  -7031769.85148  -5479299.63345  23746612.527    23746617.458
 -11857346.30148  -9239495.57245  23111138.707    23111141.370
  -6327980.80748  -4930895.80545  23106120.654    23106121.164
  -3006630.62149  -2342828.75545  23005475.660    23005475.532
 -23787144.21749 -18535434.09647  20549603.278    20549603.880
 -19902208.44449 -15508213.20246  21577848.305    21577848.947
    749529.11648    584049.03745  23727514.624    23727516.313
 -12576511.87349  -9799878.24646  21391159.521    21391160.304
 02  1  3  0 16 30.0000000  0  8G 1G11G22G14G25G20G30G29
  -7111901.33448  -5541739.66045  23731364.762    23731367.675
 -11789563.49448  -9186677.73644  23124037.210    23124037.522
  -6438563.78348  -5017064.36645  23085077.530    23085080.581
  -2930579.94649  -2283568.45745  23019947.642    23019947.009
 -23766160.69049 -18519083.26447  20553596.444    20553596.960
 -19971937.14749 -15562547.20146  21564579.610    21564580.114
    806913.03448    628763.81744  23738434.291    23738434.008
 -12526542.65449  -9760941.17546  21400668.317    21400669.287
 02  1  3  0 17  0.0000000  0  8G 1G11G22G14G25G20G30G29
  -7191957.83348  -5604121.18145  23716130.760    23716132.732
 -11721451.77048  -9133603.59144  23136999.827    23136997.736
  -6548994.74148  -5103114.47945  23064062.865    23064065.898
  -2854398.29349  -2224206.08945  23034444.162    23034443.580
 -23744759.38849 -18502406.89047  20557668.842    20557669.388
 -20041279.26549 -15616579.96746  21551384.061    21551384.666
    864807.31248    673876.26144  23749451.425    23749452.694
 -12476359.66049  -9721837.53146  21410218.186    21410218.786
 02  1  3  0 17 30.0000000  0  8G 1G11G22G14G25G20G30G29
  -7271950.41848  -5666452.92245  23700906.389    23700909.863
 -11653024.72548  -9080283.79244  23150019.303    23150019.846
  -6659281.36148  -5189052.09445  23043075.936    23043078.191
  -2778096.88549  -2164750.40445  23048963.773    23048963.302
 -23722952.93349 -18485414.81247  20561817.994    20561818.601
 -20110243.34749 -15670318.15946  21538260.328    21538260.969
    923199.15048    719376.39145  23760562.427    23760563.173
 -12425973.96249  -9682575.93646  21419805.865    21419806.616
 02  1  3  0 18  0.0000000  0  8G 1G11G22G14G25G20G30G29
  -7351866.88148  -5728725.51545  23685701.437    23685703.985
 -11584272.86348  -9026710.88644  23163102.492    23163102.325
  -6769408.03748  -5274865.10345  23022119.536    23022122.129
  -2701663.94049  -2105192.22645  23063508.829    23063509.674
 -23700729.96849 -18468098.18347  20566046.902    20566047.351
 -20178814.74149 -15723750.36946  21525211.845    21525212.248
    982099.10748    765272.51044  23771770.914    23771770.850
 -12375373.71749  -9643147.16546  21429434.653    21429435.552
 02  1  3  0 18 30.0000000  0  8G 1G11G22G14G25G20G30G29
  -7431693.71148  -5790928.24445  23670508.548    23670511.953
 -11515186.50748  -8972877.30244  23176249.630    23176249.949
  -6879358.98848  -5360541.20345  23001197.181    23001199.871
  -2625087.31049  -2045522.08245  23078080.618    23078080.430
 -23678079.16649 -18450448.17747  20570357.342    20570357.811
 -20246978.51949 -15776864.95146  21512240.283    21512240.946
   1041517.75948    811572.78544  23783078.158    23783078.179
 -12324546.26049  -9603541.33846  21439107.010    21439107.730
 02  1  3  0 19  0.0000000  0  8G 1G11G22G14G25G20G30G29
  -7511445.32148  -5853072.35445  23655333.888    23655334.966
 -11445783.14148  -8918796.71644  23189456.612    23189456.133
  -6989145.64748  -5446089.23245  22980305.278    22980307.195
  -2548381.97248  -1985751.65045  23092676.979    23092677.332
 -23655016.63349 -18432477.34647  20574745.932    20574746.357
 -20314746.96649 -15829671.48146  21499345.028    21499345.518
   1101438.56648    858264.33844  23794480.523    23794480.868
 -12273506.56949  -9563770.12846  21448819.544    21448820.110
 02  1  3  0 19 30.0000000  0  8G 1G11G22G14G25G20G30G29
  -7591125.12148  -5915160.42845  23640170.478    23640172.524
 -11376069.35648  -8864474.26244  23202722.329    23202724.059
  -7098769.01348  -5531510.06945  22959444.556    22959445.761
  -2471552.53049  -1925884.50645  23107297.867    23107297.462
 -23631547.76749 -18414189.88147  20579211.664    20579212.034
 -20382121.64249 -15882171.18346  21486523.552    21486523.771
   1161855.38648    905342.39544  23805977.460    23805977.117
 -12222258.90049  -9523836.86646  21458571.655    21458572.289
 02  1  3  0 20  0.0000000  0  8G 1G11G22G14G25G20G30G29
  -7670736.66748  -5977195.31845  23625019.740    23625023.594
 -11306051.78448  -8809915.09444  23216046.100    23216044.601
  -7208229.36548  -5616803.86645  22938614.698    22938616.548
  -2394602.91148  -1865923.72345  23121940.351    23121939.567
 -23607677.57249 -18395589.69447  20583754.037    20583754.417
 -20449104.11249 -15934365.26746  21473777.162    21473777.705
   1222762.58948    952802.57544  23817566.949    23817567.492
 -12170807.08649  -9483744.53246  21468362.711    21468363.587
 02  1  3  0 20 30.0000000  0  8G 1G11G22G14G25G20G30G29
  -7750275.79348  -6039173.75445  23609883.865    23609888.137
 -11235729.68448  -8755118.62144  23229428.736    23229427.593
  -7317519.81548  -5701965.27545  22917817.503    22917819.351
  -2317529.96248  -1805866.83145  23136606.335    23136606.547
 -23583403.81649 -18376675.04547  20588373.583    20588373.925
 -20515688.33049 -15986249.03946  21461107.455    21461107.804
   1284161.84048   1000646.12644  23829251.650    23829253.541
 -12119147.69549  -9443490.45846  21478193.035    21478194.116
 02  1  3  0 21  0.0000000  0  8G 1G11G22G14G25G20G30G29
  -7829748.88148  -6101100.74145  23594761.171    23594764.577
 -11165112.39548  -8700092.11444  23242865.714    23242867.191
  -7426643.69548  -5786996.94045  22897052.236    22897054.006
  -2240340.53849  -1745719.19545  23151295.751    23151294.553
 -23558734.40249 -18357452.09447  20593067.873    20593068.228
 -20581878.56849 -16037825.80946  21448511.066    21448511.494
   1346044.66648   1048866.53044  23841027.340    23841028.436
 -12067287.41249  -9403079.82846  21488061.765    21488062.549
 02  1  3  0 21 30.0000000  0  8G 1G11G22G14G25G20G30G29
  -7909157.52648  -6162977.51645  23579651.059    23579653.885
 -11094204.84148  -8644839.46144  23256359.131    23256359.673
  -7535599.95148  -5871898.13945  22876319.324    22876320.367
  -2163036.90748  -1685482.57045  23166005.330    23166005.646
 -23533672.61049 -18337923.39547  20597836.843    20597837.166
 -20647674.14749 -16089095.04346  21435990.519    21435991.102
   1408407.12248   1097460.66344  23852894.693    23852896.239
 -12015228.14249  -9362514.16346  21497968.190    21497968.934
 02  1  3  0 22  0.0000000  0  8G 1G11G22G14G25G20G30G29
  -7988501.07148  -6224803.53645  23564551.839    23564552.360
 -11023009.63548  -8589362.63344  23269907.552    23269909.442
  -7644384.72548  -5956665.71645  22855617.514    22855620.548
  -2085619.21748  -1625157.07945  23180737.574    23180737.313
 -23508219.74949 -18318089.95947  20602680.404    20602680.582
 -20713072.55749 -16140054.79846  21423545.468    21423546.104
   1471247.38348   1146427.10444  23864852.612    23864853.236
 -11962969.97849  -9321793.50546  21507912.912    21507913.896
 02  1  3  0 22 30.0000000  0  8G 1G11G22G14G25G20G30G29
  -8067751.20148  -6286556.75245  23549469.577    23549473.156
 -10951501.51148  -8533642.02144  23283514.733    23283515.870
  -7752967.04848  -6041275.73745  22834955.549    22834957.866
  -2008060.21048  -1564721.45145  23195497.165    23195497.064
 -23482349.25249 -18297931.09847  20607603.273    20607603.538
 -20778043.65249 -16190681.58446  21411182.116    21411182.680
   1534591.38048   1195786.08044  23876906.691    23876907.076
 -11910485.12649  -9280896.20646  21517900.047    21517900.736
 02  1  3  0 23  0.0000000  0  8G 1G11G22G14G25G20G30G29
  -8146926.97048  -6348252.00645  23534405.714    23534406.519
 -10879702.34948  -8477694.59544  23297177.436    23297177.256
  -7861363.06148  -6125740.53245  22814329.174    22814331.128
  -1930379.36848  -1504190.90345  23210278.781    23210279.163
 -23456081.88149 -18277462.98347  20612601.823    20612602.056
 -20842604.42849 -16240988.64946  21398896.401    21398896.815
   1598417.48048   1245520.70144  23889052.735    23889053.803
 -11857793.41049  -9239837.72646  21527926.963    21527927.577
 02  1  3  0 23 30.0000000  0  8G 1G11G22G14G25G20G30G29
  -8226019.73848  -6409882.59645  23519353.111    23519356.076
 -10807607.10748  -8421516.43644  23310897.422    23310897.845
  -7969560.88348  -6210050.91945  22793739.454    22793742.612
  -1852568.88148  -1443559.33345  23225085.710    23225086.277
 -23429410.84649 -18256680.32347  20617677.179    20617677.328
 -20906744.26649 -16290967.70146  21386690.921    21386691.398
   1662731.93448   1295635.84944  23901290.836    23901291.906
 -11804886.40949  -9198611.48546  21537994.958    21537995.664
 02  1  3  0 24  0.0000000  0  8G 1G11G22G14G25G20G30G29
  -8305047.41548  -6471462.42445  23504315.229    23504317.059
 -10735237.14448  -8365124.22844  23324669.160    23324671.592
  -8077575.38448  -6294218.20545  22773185.081    22773188.219
  -1774647.49048  -1382841.33645  23239913.766    23239914.062
 -23402355.71749 -18235598.37347  20622825.685    20622825.850
 -20970479.29849 -16340631.31746  21374562.689    21374563.219
   1727514.50348   1346115.76644  23913618.964    23913619.284
 -11751782.80449  -9157232.04846  21548100.166    21548100.733
 02  1  3  0 24 30.0000000  0  8G 1G11G22G14G25G20G30G29
  -8384010.35348  -6532991.83645  23489288.923    23489291.436
 -10662596.06348  -8308520.75544  23338491.783    23338494.707
  -8185404.06348  -6378240.63345  22752666.308    22752669.089
  -1696616.25648  -1322037.75145  23254762.442    23254761.758
 -23374918.54849 -18214218.73247  20628046.714    20628046.899
 -21033807.87449 -16389978.22346  21362511.489    21362512.246
   1792762.09948   1396958.02844  23926034.918    23926034.440
 -11698483.47249  -9115700.09246  21558242.494    21558243.476
 02  1  3  0 25  0.0000000  0  8G 1G11G22G14G25G20G30G29
  -8462902.15448  -6594465.78545  23474276.117    23474277.678
 -10589680.54648  -8251703.44444  23352368.373    23352367.993
  -8293037.83748  -6462111.15745  22732184.200    22732186.922
  -1618469.76548  -1261144.36445  23269633.861    23269633.134
 -23347094.65449 -18192537.74347  20633341.192    20633341.243
 -21096721.59949 -16439001.86746  21350539.953    21350540.482
   1858478.86248   1448165.89444  23938540.036    23938538.558
 -11644982.41549  -9074010.95446  21568423.743    21568424.300
 02  1  3  0 25 30.0000000  0  8G 1G11G22G14G25G20G30G29
  -8541708.92748  -6655873.46945  23459279.925    23459279.471
 -10516479.96448  -8194663.96044  23366296.985    23366295.986
  -8400460.01848  -6545816.77845  22711742.787    22711744.573
  -1540194.71848  -1200150.79445  23284528.323    23284527.814
 -23318872.37149 -18170546.32747  20638711.998    20638712.044
 -21159204.43349 -16487689.72846  21338649.461    21338649.874
   1924676.02648   1499748.08044  23951137.446    23951138.820
 -11591266.42549  -9032154.33546  21578645.765    21578646.501
 02  1  3  0 26  0.0000000  0  8G 1G11G22G14G25G20G30G29
  -8620429.45648  -6717213.98745  23444299.640    23444301.445
 -10442996.18848  -8137403.82644  23380280.107    23380279.157
  -8507666.24748  -6629354.08445  22691341.846    22691344.634
  -1461790.49948  -1139056.57545  23299448.601    23299448.532
 -23290252.00749 -18148244.72547  20644158.242    20644158.425
 -21221253.53249 -16536039.62046  21326841.351    21326841.849
   1991352.43748   1551703.70744  23963825.403    23963828.406
 -11537334.68649  -8990129.60346  21588908.237    21588908.872
 02  1  3  0 26 30.0000000  0  8G 1G11G22G14G25G20G30G29
  -8699071.25548  -6778493.25845  23429334.159    23429336.366
 -10369239.86948  -8079931.28844  23394315.908    23394317.910
  -8614660.83148  -6712726.34945  22670981.684    22670984.954
  -1383265.25048  -1077868.04745  23314391.771    23314391.252
 -23261242.72749 -18125640.06947  20649678.466    20649678.557
 -21282874.30349 -16584055.76246  21315116.004    21315116.428
   2058498.14348   1604025.02644  23976602.074    23976603.702
 -11483195.18749  -8947942.97046  21599210.626    21599211.169
 02  1  3  0 27  0.0000000  0  8G 1G11G22G14G25G20G30G29
  -8777644.95548  -6839719.51945  23414382.885    23414384.279
 -10295225.35248  -8022257.57944  23408400.253    23408400.393
  -8721451.92148  -6795940.08945  22650659.849    22650662.450
  -1304630.50648  -1016594.20845  23329354.835    23329354.402
 -23231857.20949 -18102742.23547  20655270.458    20655270.366
 -21344075.46149 -16631744.94746  21303469.632    21303470.050
   2126099.81848   1656701.62144  23989466.474    23989467.052
 -11428859.11449  -8905603.15846  21609550.575    21609550.790
 02  1  3  0 27 30.0000000  0  8G 1G11G22G14G25G20G30G29
  -8856141.14648  -6900885.40345  23399445.186    23399447.920
 -10220946.44948  -7964377.86944  23422534.678    23422534.006
  -8828027.61348  -6878986.12845  22630378.333    22630381.558
  -1225877.77648   -955228.42645  23344340.930    23344340.944
 -23202088.14049 -18079545.53747  20660935.326    20660935.232
 -21404845.93249 -16679098.52647  21291904.825    21291905.361
   2194164.30348   1709738.86744  24002419.561    24002420.457
 -11374317.69249  -8863103.33146  21619929.499    21619930.126
 02  1  3  0 28  0.0000000  0  8G 1G11G22G14G25G20G30G29
  -8934555.35648  -6961987.38645  23384523.723    23384525.285
 -10146402.10048  -7906291.37144  23436719.841    23436720.454
  -8934380.13248  -6961858.16845  22610140.955    22610144.422
  -1147003.51348   -893767.94345  23359350.995    23359350.067
 -23171932.71949 -18056047.78847  20666673.557    20666673.704
 -21465179.26349 -16726111.46947  21280424.309    21280424.663
   2262693.22648   1763138.00144  24015459.204    24015461.184
 -11319567.32549  -8820440.69946  21630348.296    21630348.529
 02  1  3  0 28 30.0000000  0  8G 1G11G22G14G25G20G30G29
  -9012898.20548  -7023033.83045  23369615.375    23369616.485
 -10071605.83348  -7848008.47044  23450953.184    23450954.055
  -9040517.17248  -7044562.27945  22589943.206    22589945.945
  -1068018.66648   -832221.29345  23374380.582    23374379.433
 -23141403.12349 -18032258.47547  20672483.147    20672483.423
 -21525084.07049 -16772790.48847  21269024.737    21269025.112
   2331673.53048   1816888.90144  24028586.836    24028588.130
 -11264618.80049  -8777623.64846  21640804.193    21640804.815
 02  1  3  0 29  0.0000000  0  8G 1G11G22G14G25G20G30G29
  -9091160.65548  -7084017.58745  23354722.570    23354724.738
  -9996552.34048  -7789525.19444  23465235.367    23465236.760
  -9146427.14448  -7127089.50845  22569789.394    22569792.453
   -988915.52248   -770582.46745  23389433.441    23389433.043
 -23110492.58249 -18008172.32247  20678365.333    20678365.493
 -21584549.78249 -16819127.36047  21257708.890    21257709.322
   2401111.55448   1870996.43944  24041799.620    24041802.042
 -11209463.80449  -8734645.71646  21651299.968    21651300.481
 02  1  3  0 29 30.0000000  0  8G 1G11G22G14G25G20G30G29
  -9169342.96048  -7144938.87845  23339844.389    23339847.237
  -9921245.49648  -7730844.52944  23479565.835    23479566.190
  -9252107.66249  -7209438.10245  22549679.954    22549682.220
   -909695.07848   -708852.23245  23404508.582    23404508.671
 -23079203.42449 -17983791.14147  20684319.428    20684319.616
 -21643574.87349 -16865120.90147  21246476.324    21246476.540
   2471004.38848   1925458.38344  24055099.393    24055101.190
 -11154103.59749  -8691507.87946  21661834.607    21661835.335
 02  1  3  0 30  0.0000000  0  8G 1G11G22G14G25G20G30G29
  -9247438.17048  -7205792.29045  23324984.137    23324985.191
  -9845681.40648  -7671963.44844  23493945.374    23493946.116
  -9357548.73748  -7291600.06745  22529614.796    22529617.208
   -830351.12648   -647025.76245  23419607.378    23419607.122
 -23047530.69349 -17959111.06847  20690346.259    20690346.574
 -21702150.64449 -16910764.32547  21235329.755    21235330.370
   2541355.84348   1980277.72644  24068488.257    24068488.741
 -11098531.51749  -8648204.94546  21672409.463    21672409.977
 02  1  3  0 30 30.0000000  0  8G 1G11G22G14G25G20G30G29
  -9325457.64948  -7266586.69245  23310136.974    23310138.663
  -9769874.76748                  23508371.168
  -9462758.58849  -7373581.79745  22509593.865    22509595.543
   -750896.00448   -585112.68345  23434726.673    23434727.897
 -23015487.07649 -17934141.99247  20696443.924    20696444.236
 -21760286.65849 -16956065.08647  21224266.976    21224267.294
   2612152.19848   2035443.72044  24081959.331    24081961.760
 -11042759.58149  -8604746.27646  21683022.767    21683022.937
 02  1  3  0 31  0.0000000  0  8G 1G11G22G14G25G20G30G29
  -9403411.04148  -7327329.59445  23295302.834    23295304.715
  -9693838.39348  -7553644.24244  23522839.426    23522836.332
  -9567743.92349  -7455388.45345  22489615.832    22489618.160
   -671339.60348   -523120.66645  23449866.100    23449865.688
 -22983084.60049 -17908893.29247  20702609.920    20702610.252
 -21817990.41249 -17001029.01747  21213286.392    21213286.779
   2683381.18948   2090946.79544  24095514.538    24095513.088
 -10986797.84049  -8561139.71846  21693672.082    21693672.309
 02  1  3  0 31 30.0000000  0  8G 1G11G22G14G25G20G30G29
  -9481264.45648  -7387994.63045  23280488.471    23280490.413
  -9617541.77248                  23537359.097
  -9672468.18948  -7536991.73445  22469687.097    22469690.419
   -591649.16548   -461024.21445  23465030.862    23465030.280
 -22950291.35549 -17883340.08847  20708850.182    20708850.297
 -21875226.17349 -17045628.27647  21202394.656    21202394.969
   2755073.95348   2146811.30744  24109156.432    24109156.050
 -10930612.98549  -8517359.29646  21704363.517    21704363.990
 02  1  3  0 32  0.0000000  0  8G 1G11G22G14G25G20G30G29
  -9559040.82648  -7448599.59945  23265688.035    23265689.739
  -9541011.54948                  23551921.224
  -9776951.73049  -7618407.51145  22449804.570    22449807.364
   -511848.45448   -398841.84045  23480216.352    23480216.173
 -22917131.92049 -17857501.54147  20715160.336    20715160.636
 -21932015.48249 -17089879.64947  21191588.072    21191588.570
   2827204.71948   2203017.08144  24122882.825    24122884.361
 -10874228.76549  -8473423.52846  21715093.093    21715093.785
 02  1  3  0 32 30.0000000  0  8G 1G11G22G14G25G20G30G29
  -9636752.47148  -7509154.10745  23250899.686    23250901.525
  -9464263.14148                  23566526.881
  -9881203.35549  -7699642.41945  22429966.256    22429968.405
   -431950.32148   -336583.54545  23495420.366    23495420.513
 -22883620.15049 -17831388.45247  20721537.362    20721537.770
 -21988368.68449 -17133791.19547  21180864.389    21180864.709
   2899758.53048   2259552.52344  24136689.500    24136688.425
 -10817657.92149  -8429342.34546  21725857.918    21725858.365
 02  1  3  0 33  0.0000000  0  8G 1G11G22G14G25G20G30G29
  -9714376.68248  -7569640.52045  23236127.886    23236130.679
  -9387277.22748                  23581175.405
  -9985197.85349  -7780676.97845  22410176.497    22410178.613
   -351932.97648   -274232.36345  23510647.307    23510647.205
 -22849735.99049 -17804985.19147  20727984.645    20727985.111
 -22044261.03549 -17177343.63247  21170228.159    21170228.670
   2972755.43248   2316433.21244  24150579.298    24150580.681
 -10760878.25449  -8385098.44546  21736662.880    21736663.328
 02  1  3  0 33 30.0000000  0  8G 1G11G22G14G25G20G30G29
  -9791908.76948  -7630055.12345  23221374.401    23221375.642
  -9310052.56848                  23595871.780
 -10088927.99049  -7861505.62445  22390437.496    22390439.249
   -271792.82848   -211785.49145  23525897.314    23525897.624
 -22815476.52549 -17778289.48247  20734504.227    20734504.608
 -22099686.47949 -17220532.24847  21159681.072    21159681.484
   3046197.09048   2373660.45944  24164555.508    24164558.536
 -10703886.02349  -8340688.90646  21747508.195    21747508.601
 02  1  3  0 34  0.0000000  0  8G 1G11G22G14G25G20G30G29
  -9869352.87348  -7690401.18645  23206637.747    23206639.165
  -9232597.00047                  23610609.111
 -10192395.02449  -7942129.26545  22370748.129    22370750.260
   -191534.74148   -149246.73845  23541170.337    23541169.972
 -22780847.99049 -17751306.18447  20741094.183    20741094.503
 -22154647.47949 -17263358.96447  21149222.382    21149222.748
   3120076.60948                  24178613.692
 -10646685.82249  -8296117.31046  21758392.960    21758393.560
 02  1  3  0 34 30.0000000  0  8G 1G11G22G14G25G20G30G29
  -9946712.97548  -7750681.75845  23191916.403    23191919.661
  -9154917.46448                  23625391.808
 -10295599.79949  -8022548.44645  22351109.004    22351112.186
   -111163.53348    -86619.81745  23556463.673    23556463.779
 -22745856.48649 -17724040.05047  20747752.723    20747753.104
 -22209146.39649 -17305825.61547  21138851.587    21138851.982
   3194387.09848   2489133.24644  24192755.707    24192758.777
 -10589282.29849  -8251387.28746  21769316.429    21769317.443
 02  1  3  0 35  0.0000000  0  8G 1G11G22G14G25G20G30G29
 -10023981.23848  -7810890.74345  23177212.616    23177214.598
  -9077009.67348                  23640218.566
 -10398531.54949  -8102754.78745  22331521.486    22331523.955
    -30671.95248    -23899.11045  23571781.128    23571780.504
 -22710495.74849 -17696486.20647  20754481.629    20754482.026
 -22263173.32349 -17347924.48647  21128570.651    21128570.916
   3269133.72548   2547377.32644  24206978.331    24206979.459
 -10531668.06049  -8206493.06746  21780280.202    21780280.761
 02  1  3  0 35 30.0000000  0  8G 1G11G22G14G25G20G30G29
 -10101168.19648  -7871036.41945  23162525.077    23162526.321
  -8998887.34148                  23655084.081
 -10501198.01349  -8182754.35845  22311984.374    22311986.592
     49928.58148     38906.50045  23587119.252    23587119.929
 -22674778.29849 -17668654.40647  20761278.556    20761278.663
 -22316737.33649 -17389662.64947  21118377.663    21118378.041
   3344303.10548   2605950.86544  24221282.683    24221281.751
 -10473854.42049  -8161443.47746  21791281.508    21791282.372
 02  1  3  0 36  0.0000000  0  8G 1G11G22G14G25G20G30G29
 -10178279.26048  -7931122.94445  23147850.151    23147852.310
  -8920559.88348                  23669989.924
 -10603602.15349  -8262549.60445  22292497.494    22292499.707
    130631.54648    101791.91745  23602475.711    23602476.519
 -22638711.91649 -17640550.70247  20768141.804    20768142.126
 -22369842.34549 -17431043.15847  21108272.459    21108272.810
   3419886.87748   2664847.31544  24235667.175    24235666.087
 -10415847.37549  -8116243.18246  21802320.458    21802320.743
 02  1  3  0 36 30.0000000  0  8G 1G11G22G14G25G20G30G29
 -10255315.73948  -7991151.32345  23133191.247    23133194.088
  -8842031.70448                  23684931.935
 -10705742.59749  -8342139.45545  22273060.333    22273063.178
    211435.02448    164755.66945  23617853.092    23617852.891
 -22602299.96849 -17612177.72647  20775070.575    20775070.947
 -22422487.86149 -17472065.62247  21098254.087    21098254.441
   3495880.68148   2724063.25444  24250127.886    24250129.571
 -10357648.83249  -8070893.65946  21813394.908    21813395.517
 02  1  3  0 37  0.0000000  0  8G 1G11G22G14G25G20G30G29
 -10332277.18048  -8051121.21245  23118546.039    23118548.830
  -8763305.76248                  23699914.640
 -10807615.86749  -8421521.08045  22253674.844    22253676.928
    292338.47448    227797.30545  23633248.032    23633248.344
 -22565543.89449 -17583536.60347  20782065.246    20782065.544
 -22474671.75449 -17512728.36847  21088323.517    21088323.845
   3572282.07048   2783596.81344  24264667.349    24264666.584
 -10299259.17749  -8025395.22346  21824505.944    21824506.564
 02  1  3  0 37 30.0000000  0  8G 1G11G22G14G25G20G30G29
 -10409142.09348  -8111015.90145  23103918.578    23103920.509
  -8684364.24148                  23714936.150
 -10909197.78149  -8500675.68446  22234344.144    22234346.930
    373362.58748    290932.95945  23648666.023    23648667.412
 -22528424.17649 -17554612.11947  20789128.723    20789128.854
 -22526371.20249 -17553013.63147  21078485.517    21078485.909
   3649109.74748   2843462.54544  24279285.799    24279284.986
 -10240657.67349  -7979731.70346  21835657.686    21835658.242
 02  1  3  0 38  0.0000000  0  8G 1G11G22G14G25G20G30G29
 -10485904.87449  -8170831.01045  23089312.103    23089314.053
  -8605204.69248                  23729999.727
 -11010479.84649  -8579596.72246  22215070.949    22215072.601
    454512.23048    354166.41945  23664109.025    23664107.860
 -22490937.12349 -17525401.39647  20796262.331    20796262.568
 -22577578.59749 -17592915.47347  21068741.031    21068741.273
   3726366.60748   2903662.66844  24293988.674    24293987.083
 -10181838.98549  -7933898.93946  21846850.612    21846851.128
 02  1  3  0 38 30.0000000  0  8G 1G11G22G14G25G20G30G29
 -10562556.55648  -8230559.51945  23074724.516    23074726.319
  -8525821.91848                  23745104.618
 -11111450.62849  -8658275.32746  22195856.955    22195858.851
    535795.42748    417503.98745  23679576.726    23679575.472
 -22453075.89749 -17495899.11747  20803467.186    20803467.525
 -22628283.30449 -17632425.60747  21059092.241    21059092.488
   3804058.37648   2964201.72844  24308772.735    24308772.772
 -10122795.01249  -7887890.63946  21858086.055    21858087.122
 02  1  3  0 39  0.0000000  0  8G 1G11G22G14G25G20G30G29
 -10639120.94648  -8290220.02345  23060154.567    23060155.992
  -8446242.87948                  23760249.904
 -11212130.54349  -8736727.23146  22176698.253    22176701.053
    617187.76448    480926.55445  23695064.416    23695064.674
 -22414866.28849 -17466125.37047  20810737.895    20810738.213
 -22678507.71449 -17671561.47647  21049534.698    21049535.297
   3882158.56448   3025059.02444  24323633.842    24323634.601
 -10063549.89849  -7841725.61446  21869360.090    21869360.461
 02  1  3  0 39 30.0000000  0  8G 1G11G22G14G25G20G30G29
 -10715597.71048  -8349812.24745  23045602.056    23045603.710
  -8366470.84148                  23775429.772
 -11312516.77849  -8814950.25446  22157595.658    22157597.693
    698688.50548    544433.61045  23710574.004    23710574.142
 -22376310.29249 -17436081.70947  20818074.882    20818075.363
 -22728250.03149 -17710321.68047  21040069.366    21040069.782
   3960664.34948   3086232.30544  24338573.805    24338575.391
 -10004104.20849  -7795404.29446  21880672.207    21880672.570
 02  1  3  0 40  0.0000000  0  8G 1G11G22G14G25G20G30G29
 -10791985.58949  -8409335.22545  23031065.994    23031068.947
  -8286508.26548                  23790644.427
 -11412605.25649  -8892941.28346  22138549.388    22138551.339
    780297.82948    608025.28645  23726104.134    23726103.075
 -22337408.54449 -17405768.63347  20825477.391    20825477.768
 -22777507.30249 -17748703.93647  21030695.829    21030696.071
   4039574.16048   3147720.46844  24353589.214    24353590.726
  -9944457.40849  -7748926.26546  21892022.664    21892023.232
 02  1  3  0 40 30.0000000  0  8G 1G11G22G14G25G20G30G29
 -10868297.00749  -8468798.61545  23016544.675    23016546.052
  -8206370.78648                  23805896.434
 -11512405.91149  -8970708.09646  22119557.629    22119560.195
    862002.79848    671691.48845  23741651.790    23741651.376
 -22298175.48349 -17375197.39947  20832943.708    20832944.032
 -22826290.34249 -17786716.66547  21021412.536    21021412.747
   4118872.39748   3209511.34844  24368679.233    24368680.566
  -9884622.46149  -7702301.60946  21903408.623    21903409.128
 02  1  3  0 41  0.0000000  0  8G 1G11G22G14G25G20G30G29
 -10944540.61149  -8528209.19845  23002036.314    23002037.371
  -8126070.57748                  23821175.694
 -11611924.58349  -9048255.21546  22100620.167    22100622.483
    943793.63248    735424.57045  23757215.989    23757215.747
 -22258621.90349 -17344376.40747  20840470.072    20840470.416
 -22874606.62449 -17824365.69247  21012218.534    21012219.002
   4198547.35948   3271595.72244  24383840.948    24383844.521
  -9824608.95049  -7655537.82846  21914829.165    21914829.513
 02  1  3  0 41 30.0000000  0  8G20G 1G11G22G14G25G30G29
 -22922433.51749 -17861633.37647  21003117.362    21003117.801
 -11020695.43248  -8587550.57746  22987543.017    22987545.964
  -8045590.25448                  23836491.209
 -11711137.33849  -9125563.87646  22081740.423    22081742.331
   1025690.48548    799240.26345  23772800.949    23772801.171
 -22218729.28649 -17313291.22447  20848061.214    20848061.590
   4278617.11348   3333987.75544  24399078.080    24399078.314
  -9764396.45549  -7608618.97846  21926287.012    21926287.307
 02  1  3  0 42  0.0000000  0  8G20G 1G11G22G14G25G30G29
 -22969747.22349 -17898501.17747  20994113.830    20994114.271
 -11096739.03249  -8646805.32545  22973074.096    22973075.757
  -7964910.84648                  23851842.528
 -11810018.78449  -9202614.31046  22062924.085    22062925.823
   1107714.78848    863155.30445  23788408.753    23788410.148
 -22178476.89549 -17281925.70847  20855721.076    20855721.448
   4359100.93148   3396702.44444  24414394.189    24414391.302
  -9703963.23849  -7561528.15146  21937786.735    21937787.341
 02  1  3  0 42 30.0000000  0  8G 1G11G22G14G25G20G30G29
 -11172677.06548  -8705977.82445  22958622.541    22958623.632
  -7884041.35848                  23867232.941
 -11908572.09649  -9279409.03546  22044169.785    22044171.876
   1189860.21748    927164.68845  23804041.600    23804042.584
 -22137872.64349 -17250286.01147  20863447.886    20863448.055
 -23016551.55949 -17934972.06147  20985207.114    20985207.511
   4439990.19748   3459733.07944  24429785.814    24429788.974
  -9643315.52849  -7514270.18646  21949328.512    21949328.928
 02  1  3  0 43  0.0000000  0  8G 1G11G22G14G25G20G30G29
 -11248523.36348  -8765078.84645  22944188.926    22944191.755
  -7802998.99147                  23882652.451
 -12006808.34149  -9355956.67746  22025476.427    22025478.298
   1272112.24248    991257.13045  23819693.126    23819692.585
 -22096932.34349 -17218384.46247  20871238.627    20871238.795
 -23062858.86649 -17971055.64747  20976395.290    20976395.627
   4521268.22148   3523066.57544  24445253.030    24445253.902
  -9582467.85249  -7466856.39846  21960906.617    21960906.842
 02  1  3  0 43 30.0000000  0  8G 1G11G22G14G25G20G30G29
 -11324285.79149  -8824114.47646  22929773.646    22929774.581
  -7721795.49948                  23898107.363
 -12104732.95249  -9432261.51646  22006841.744    22006843.914
   1354461.75648   1055425.54645  23835363.613    23835363.065
 -22055666.19149 -17186229.00247  20879091.338    20879091.517
 -23108676.11249 -18006757.36647  20967676.467    20967676.929
   4602923.75748   3586694.21444  24460791.384    24460793.315
  -9521428.89549  -7419293.55846  21972522.457    21972522.399
 02  1  3  0 44  0.0000000  0  8G 1G11G22G14G25G20G30G29
 -11399952.53848  -8883075.54945  22915372.480    22915375.357
  -7640422.38547                  23913590.380
 -12202331.26749  -9508312.11246  21988269.019    21988272.059
   1436919.75848   1119678.51845  23851055.047    23851053.800
 -22014064.10749 -17153811.77747  20887007.981    20887008.043
 -23153989.91349 -18042066.79447  20959053.546    20959053.914
   4684965.68748   3650623.06944  24476403.268    24476405.190
  -9460187.59549  -7371573.03546  21984176.165    21984176.985
 02  1  3  0 44 30.0000000  0  8G 1G11G22G14G25G20G30G29
 -11475536.10449  -8941971.82046  22900991.326    22900992.784
  -7558895.79147                  23929103.798
 -12299613.06149  -9584116.13246  21969757.346    21969759.711
   1519472.85348   1184005.55645  23866764.731    23866764.562
 -21972141.00249 -17121144.40847  20894985.867    20894985.854
 -23198811.33349 -18076992.55447  20950524.253    20950524.613
   4767378.41348   3714840.70744  24492086.461    24492084.426
  -9398756.91549  -7323704.94746  21995865.700    21995866.079
 02  1  3  0 45  0.0000000  0  8G 1G11G22G14G25G20G30G29
 -11551011.70649  -9000783.94145  22886628.497    22886630.577
  -7477194.39847                  23944650.934
 -12396551.00749  -9659652.24046  21951309.986    21951311.824
   1602144.91248   1248425.30145  23882496.199    23882496.578
 -21929874.53649 -17088209.48547  20903028.843    20903028.764
 -23243114.11149 -18111514.19747  20942093.405    20942093.529
   4850183.52048   3779364.23044  24507843.279    24507843.574
  -9337113.04149  -7275670.73546  22007596.345    22007596.345
 02  1  3  0 45 30.0000000  0  8G 1G11G22G14G25G20G30G29
 -11626393.94048  -9059523.29945  22872281.954    22872285.151
  -7395336.32147                  23960228.050
 -12493156.90149  -9734929.62046  21932927.382    21932929.778
   1684920.41248   1312925.63145  23898247.577    23898247.698
 -21887280.89949 -17055019.62547  20911133.960    20911133.995
 -23286911.41349 -18145641.95447  20933759.253    20933759.447
   4933363.28848   3844179.67444  24523672.279    24523672.846
  -9275271.25249  -7227482.29646  22019364.057    22019364.386
 02  1  3  0 46  0.0000000  0  7G 1G22G14G25G20G30G29
 -11701678.62149  -9118186.63245  22857958.333    22857958.164
 -12589424.14149  -9809943.09446  21914607.651    21914610.825
   1767802.18948   1377508.80245  23914020.408    23914019.934
 -21844358.65649 -17021573.70847  20919301.832    20919301.917
 -23330197.94949 -18179371.71647  20925522.228    20925522.570
   5016918.55748   3909287.69244  24539571.884    24539573.267
  -9213228.24349  -7179137.07746  22031170.966    22031170.956
 02  1  3  0 46 30.0000000  0  7G 1G22G14G25G20G30G29
 -11776877.37449  -9176783.00345  22843647.188    22843648.450
 -12685361.40749  -9884699.39046  21896352.147    21896354.385
   1850777.90948   1442165.14145  23929809.506    23929808.766
 -21801121.41449 -16987882.33547  20927529.615    20927529.743
 -23372984.16049 -18212711.60647  20917380.238    20917380.454
   5100834.67848   3974676.83244  24555540.527    24555544.246
  -9150996.30349  -7130644.63346  22043013.027    22043013.669
 02  1  3  0 47  0.0000000  0  8G 1G11G22G14G25G20G30G29
 -11851983.07848  -9235306.85645  22829354.192    22829356.039
          .16757                  24007131.758
 -12780959.28249  -9959191.33246  21878159.721    21878162.527
   1933853.89648   1506899.62145  23945618.181    23945617.033
 -21757564.47249 -16953941.85147  20935818.425    20935818.424
 -23415261.41049 -18245654.89447  20909335.476    20909335.470
   5185115.57548   4040350.30044  24571578.568    24571579.785
  -9088569.20949  -7082000.11746  22054892.614    22054892.556
 02  1  3  0 47 30.0000000  0  8G 1G11G22G14G25G20G30G29
 -11926995.38649  -9293757.93445  22815081.456    22815081.650
     82445.63847                  24022820.191
 -12876214.50249 -10033416.20546  21860033.966    21860036.287
   2017029.78348   1571711.93745  23961447.462    23961445.938
 -21713689.20849 -16919753.32347  20944167.383    20944167.406
 -23457028.22149 -18278200.43947  20901387.232    20901387.568
   5269758.59348   4106305.97244  24587685.453    24587686.380
  -9025947.21249  -7033203.73346  22066809.197    22066809.334
 02  1  3  0 48  0.0000000  0  8G 1G11G22G14G25G20G30G29
 -12001900.65549  -9352125.61146  22800826.195    22800827.610
    165043.78748                  24038538.287
 -12971110.70949 -10107361.26846  21841975.339    21841977.645
   2100318.06848   1636611.83044  23977295.158    23977294.511
 -21669483.98249 -16885307.68447  20952579.106    20952579.306
 -23498269.37949 -18310336.37947  20893539.181    20893539.513
   5354774.18548   4172551.81844  24603863.550    24603864.904
  -8963117.31949  -6984245.35446  22078765.010    22078765.545
 02  1  3  0 48 30.0000000  0  8G 1G11G22G14G25G20G30G29
 -12076709.68849  -9410418.27046  22786590.169    22786592.064
    247780.21148                  24054282.688
 -13065656.35149 -10181033.20146  21823984.148    21823986.050
   2183706.87748   1701590.07545  23993164.019    23993163.143
 -21624962.09749 -16850615.29547  20961051.536    20961051.790
 -23538994.53149 -18342070.23147  20885789.220    20885789.446
   5440148.27448   4239077.12644  24620110.304    24620110.466
  -8900091.20749  -6935134.08246  22090758.860    22090758.608
 02  1  3  0 49  0.0000000  0  8G 1G11G22G14G25G20G30G29
 -12151398.62549  -9468617.38346  22772378.468    22772379.111
    330675.09048                  24070058.270
 -13159824.75049 -10254411.12146  21806064.521    21806067.083
   2267219.26048   1766664.60345  24009056.069    24009054.960
 -21580102.08549 -16815659.43147  20969588.099    20969588.051
 -23579178.79549 -18373382.62647  20878142.386    20878142.794
   5525901.59048   4305897.92744  24636427.695    24636427.508
  -8836845.54849  -6885851.71346  22102794.130    22102794.164
 02  1  3  0 49 30.0000000  0  8G 1G11G22G14G25G20G30G29
 -12225981.72348  -9526734.00846  22758183.123    22758185.441
    413710.80648                  24085858.890
 -13253627.42549 -10327504.04646  21788214.027    21788216.628
   2350840.14448   1831823.67045  24024968.839    24024968.756
 -21534920.01149 -16780452.61247  20978185.973    20978186.182
 -23618834.71949 -18404283.33747  20870596.369    20870596.511
   5612016.74348   4373000.64244  24652815.118    24652817.362
  -8773395.41349  -6836410.02546  22114867.591    22114867.966
 02  1  3  0 50  0.0000000  0  8G 1G11G22G14G25G20G30G29
 -12300467.87149  -9584775.08946  22744011.008    22744012.433
    496875.03748                  24101682.802
 -13347070.70049 -10400316.98046  21770433.048    21770435.052
   2434559.59448   1897059.54245  24040899.658    24040900.711
 -21489426.99849 -16745003.50247  20986842.695    20986842.990
 -23657970.31749 -18434778.59147  20863149.174    20863149.541
   5698481.41948   4440375.75544  24669268.494    24669270.995
  -8709750.55749  -6786816.60346  22126979.265    22126979.535
 02  1  3  0 50 30.0000000  0  8G 1G11G22G14G25G20G30G29
 -12374861.40449  -9642744.01146  22729854.678    22729855.840
    580159.42348                  24117532.890
 -13440156.87349 -10472851.65046  21752718.854    21752721.615
   2518372.08248   1962367.91644  24056848.848    24056849.390
 -21443629.56749 -16709317.18247  20995557.772    20995557.711
 -23696588.83849 -18464870.91847  20855800.034    20855800.212
   5785288.09848   4508017.33144  24685787.395    24685789.049
  -8645916.25749  -6737075.58046  22139126.687    22139127.024
 02  1  3  0 51  0.0000000  0  8G 1G11G22G14G25G20G30G29
 -12449144.78549  -9700627.09646  22715717.116    22715719.238
    663578.04248                  24133407.647
 -13532865.44949 -10545092.07346  21735077.406    21735079.325
   2602294.27648   2027761.77045  24072819.258    24072818.700
 -21397512.43249 -16673381.74547  21004333.562    21004333.657
 -23734671.85649 -18494545.97747  20848553.037    20848553.249
   5872451.15848   4575936.61744  24702374.096    24702376.379
  -8581875.58749  -6687173.74146  22151312.883    22151313.581
 02  1  3  0 51 30.0000000  0  8G 1G11G22G14G25G20G30G29
 -12523321.22649  -9758426.84846  22701604.023    22701605.331
    747124.08448                  24149303.234
 -13625197.39349 -10617039.08346  21717506.613    21717508.961
   2686322.03248   2093237.88545  24088808.498    24088806.878
 -21351081.46249 -16637201.76047  21013169.003    21013169.262
 -23772221.11749 -18523805.11647  20841407.700    20841407.904
   5959963.90148   4644128.37044  24719026.847    24719027.373
