     2.10           OBSERVATION DATA    G (GPS)             RINEX VERSION / TYPE
teqc  2004Apr5                          20041208 15:58:13UTCPGM / RUN BY / DATE
OBSERVATION MODE: Permanent                                 COMMENT
CHUM Chumysh (CHUM)                                         MARKER NAME
25601M001                                                   MARKER NUMBER
T136                ROGUE SNR-8000       3.20               REC # / TYPE / VERS
113                 AOAD/M_T        NONE                    ANT # / TYPE
        0.0900        0.0000        0.0000                  ANTENNA: DELTA H/E/N
  1228950.8678  4508079.8907  4327868.4895                  APPROX POSITION XYZ
  74.75109758  42.99850107  716.3230  LonLatAlt  S/W        COMMENT
Linux 2.0.36|Pentium II|gcc -static|Linux|486/DX+           COMMENT
BIT 2 OF LLI FLAGS DATA COLLECTED UNDER A/S CONDITION       COMMENT
Konovalov           IVTAN                                   OBSERVER / AGENCY
     1     1                                                WAVELENGTH FACT L1/2
     5    L1    L2    C1    P2    P1                        # / TYPES OF OBSERV
    30.0000                                                 INTERVAL
    P1 =    P1  TurboRogue; =    Y1  Benchmark              COMMENT
    L1 = L1(P1) TurboRogue; = L1(Y1) Benchmark              COMMENT
    P2 =    P2  TurboRogue; =    Y2  Benchmark              COMMENT
    L2 = L2(P2) TurboRogue; = L2(Y2) Benchmark              COMMENT
 SNR is mapped to RINEX snr flag value [1,4-9]              COMMENT
    SNR:  >=316 >=100 >=31.6 >=10 >=3.2    >0 bad=0         COMMENT
L1 & L2:      9     8     7     6     5     4     1         COMMENT
  2002     1     6     0     0    0.0000000     GPS         TIME OF FIRST OBS
  2002     1     6    23    59   30.0000000     GPS         TIME OF LAST OBS
                                                            END OF HEADER
 02  1  6  0  0  0.0000000  0  8G14G 1G22G29G30G25G20G11
  -3983944.45949  -3104370.58445  22894303.539    22894303.930
  -6471544.92248  -5042757.71945  23864914.954    23864918.226
  -8602020.15348  -6702874.38345  23259913.855    23259916.258
 -12063293.87649  -9399965.78846  21472609.773    21472610.312
    556586.21648    433703.60144  23650905.723    23650907.144
 -24011308.92649 -18710108.39347  20525163.066    20525163.596
 -19317531.79149 -15052621.57046  21680923.175    21680923.593
 -12194546.84748  -9502248.83945  23017687.434    23017687.032
 02  1  6  0  0 30.0000000  0  8G14G 1G22G29G30G25G20G11
  -3908865.80348  -3045867.76545  22908589.695    22908590.827
  -6552178.07548  -5105588.63945  23849570.871    23849571.687
  -8713573.14448  -6789798.81845  23238685.640    23238687.389
 -12011485.39749  -9359595.55346  21482468.774    21482469.222
    610336.30348    475586.77245  23661134.521    23661135.435
 -23993146.24149 -18695955.64647  20528619.242    20528619.866
 -19390034.63549 -15109117.29746  21667125.826    21667126.338
 -12129271.98848  -9451385.37045  23030109.062    23030110.451
 02  1  6  0  1  0.0000000  0  8G14G 1G22G29G30G25G20G11
  -3833667.03549  -2987271.34845  22922900.620    22922900.239
  -6632753.53648  -5168374.63045  23834237.481    23834240.692
  -8825011.99848  -6876634.28445  23217479.868    23217483.001
 -11959484.09049  -9319075.06246  21492363.875    21492364.741
    664595.39148    517866.60445  23671460.428    23671460.462
 -23974570.86549 -18681481.31647  20532153.927    20532154.405
 -19462183.21049 -15165336.96846  21653396.635    21653397.038
 -12063661.98548  -9400260.71545  23042594.691    23042595.343
 02  1  6  0  1 30.0000000  0  8G14G 1G22G29G30G25G20G11
  -3758340.05649  -2928575.02445  22937234.558    22937234.106
  -6713262.68648  -5231108.93945  23818916.577    23818919.223
  -8936324.90748  -6963371.61645  23196297.561    23196300.619
 -11907282.05449  -9278398.16546  21502297.905    21502298.482
    719370.36048    560548.38445  23681882.346    23681884.724
 -23955575.72249 -18666679.89347  20535768.586    20535769.033
 -19533966.71049 -15221272.15546  21639736.767    21639737.018
 -11997710.92148  -9348870.31045  23055144.143    23055143.618
 02  1  6  0  2  0.0000000  0  8G14G 1G22G29G30G25G20G11
  -3682871.73949  -2869768.57045  22951595.486    22951596.080
  -6793691.50648  -5293780.65245  23803612.434    23803615.602
  -9047495.24648  -7049997.85945  23175142.726    23175144.356
 -11854865.68749  -9237554.25546  21512272.292    21512272.791
    774672.87448    603641.28545  23692407.024    23692408.109
 -23936148.67749 -18651541.92947  20539465.540    20539466.058
 -19605369.16149 -15276910.42146  21626149.387    21626149.848
 -11931408.15948  -9297205.83045  23067761.931    23067762.361
 02  1  6  0  2 30.0000000  0  8G14G 1G22G29G30G25G20G11
  -3607277.43449  -2810863.95645  22965981.041    22965981.431
  -6874054.31948  -5356400.97445  23788320.124    23788321.151
  -9158534.56848  -7136522.02544  23154012.322    23154015.179
 -11802249.97749  -9196555.01746  21522284.625    21522285.218
    830486.55948    647132.50745  23703027.819    23703026.911
 -23916305.73349 -18636079.88647  20543241.514    20543241.951
 -19676402.84749 -15332261.34846  21612631.724    21612632.076
 -11864771.01248  -9245280.81045  23080441.731    23080442.140
 02  1  6  0  3  0.0000000  0  8G14G 1G22G29G30G25G20G11
  -3531574.37449  -2751874.57545  22980386.940    22980387.015
  -6954367.95648  -5418982.93545  23773036.638    23773039.232
  -9269456.52048  -7222954.68245  23132905.103    23132908.248
 -11749452.21049  -9155413.91446  21532331.628    21532332.573
    886792.39448    691007.20545  23713742.249    23713744.973
 -23896065.31749 -18620308.13047  20547093.145    20547093.558
 -19747082.49549 -15387336.39346  21599182.263    21599182.578
 -11797819.36248  -9193110.71245  23093182.908    23093185.484
 02  1  6  0  3 30.0000000  0  8G14G 1G22G29G30G25G20G11
  -3455735.28849  -2692779.21145  22994818.604    22994819.195
  -7034604.16448  -5481504.55845  23757767.723    23757769.887
  -9380230.18848  -7309271.83145  23111825.745    23111829.006
 -11696444.77349  -9114109.43246  21542418.809    21542419.534
    943616.56148    735285.76645  23724555.456    23724557.270
 -23875400.70849 -18604205.83847  20551025.788    20551026.238
 -19817377.83949 -15442111.97846  21585805.432    21585805.773
 -11730528.13848  -9140676.02344  23105988.567    23105989.094
 02  1  6  0  4  0.0000000  0  8G14G 1G22G29G30G25G20G11
  -3379760.65049  -2633578.22045  23009276.098    23009275.632
  -7114762.73948  -5543965.73445  23742513.410    23742515.844
  -9490852.33648  -7395470.90445  23090774.618    23090775.521
 -11643227.79049  -9072641.66746  21552545.456    21552546.356
   1000957.00648    779966.64744  23735466.992    23735468.088
 -23854313.07449 -18587773.91447  20555038.681    20555039.102
 -19887286.50249 -15496586.25246  21572501.963    21572502.438
 -11662900.20348  -9087978.96944  23118856.310    23118856.376
 02  1  6  0  4 30.0000000  0  8G14G 1G22G29G30G25G20G11
  -3303653.70949  -2574274.12945  23023758.817    23023759.839
  -7194846.50248  -5606368.61845  23727275.805    23727276.592
  -9601322.91448  -7481551.87545  23069752.790    23069755.990
 -11589804.68649  -9031013.28946  21562711.718    21562712.374
   1058808.73548    825045.91545  23746475.911    23746475.586
 -23832806.97849 -18571015.91347  20559130.815    20559131.214
 -19956809.43549 -15550759.95946  21559272.594    21559272.938
 -11594941.42448  -9035024.12945  23131789.974    23131791.405
 02  1  6  0  5  0.0000000  0  8G14G 1G22G29G30G25G20G11
  -3227423.16049  -2514873.71645  23038264.940    23038265.460
  -7274863.21848  -5668719.25145  23712047.819    23712050.512
  -9711646.77748  -7567518.54445  23048758.472    23048761.501
 -11536183.83549  -8989230.82246  21572915.354    21572915.899
   1117161.61648    870515.69744  23757579.692    23757582.779
 -23810891.85649 -18553939.19747  20563300.847    20563301.360
 -20025952.30649 -15604637.52346  21546114.582    21546115.065
 -11526662.82548  -8981820.06844  23144782.275    23144781.941
 02  1  6  0  5 30.0000000  0  8G14G 1G22G29G30G25G20G11
  -3151082.98949  -2455387.88745  23052791.951    23052791.649
  -7354826.18748  -5731028.00845  23696830.813    23696832.422
  -9821834.28848  -7653378.92245  23027790.212    23027792.170
 -11482379.05949  -8947305.04246  21583154.143    21583154.613
   1176000.47548    916364.20844  23768776.306    23768776.728
 -23788582.68649 -18536555.42447  20567546.342    20567546.786
 -20094726.16449 -15658227.55146  21533027.587    21533027.846
 -11458080.59148  -8928379.39744  23157832.335    23157833.123
 02  1  6  0  6  0.0000000  0  8G14G 1G22G29G30G25G20G11
  -3074618.32849  -2395805.04745  23067342.899    23067343.145
  -7434719.56148  -5793282.54745  23681628.812    23681631.099
  -9931866.91148  -7739118.61445  23006852.570    23006853.987
 -11428375.15449  -8905224.08946  21593430.712    21593431.222
   1235338.52148    962601.64445  23780068.308    23780069.818
 -23765865.38649 -18518853.63247  20571869.337    20571869.654
 -20163113.42749 -15711516.32346  21520013.821    21520014.031
 -11389182.30048  -8874692.46244  23170943.941    23170945.511
 02  1  6  0  6 30.0000000  0  8G14G 1G22G29G30G25G20G11
  -2998030.67949  -2336126.39645  23081916.646    23081916.434
  -7514543.99348  -5855483.36645  23666437.000    23666440.207
 -10041742.40948  -7824735.87945  22985943.725    22985946.005
 -11374173.28749  -8862988.88646  21603745.151    21603745.767
   1295172.94548   1009225.88844  23791454.007    23791454.318
 -23742742.35249 -18500835.68547  20576269.371    20576269.687
 -20231112.67349 -15764502.74346  21507073.985    21507074.426
 -11319971.73848  -8820762.14844  23184114.593    23184113.960
 02  1  6  0  7  0.0000000  0  8G14G 1G22G29G30G25G20G11
  -2921323.39149  -2276354.49345  23096513.964    23096514.418
  -7594302.30048  -5917632.64145  23651261.295    23651261.637
 -10151460.65248  -7910230.61045  22965065.324    22965067.693
 -11319776.91049  -8820602.11346  21614096.375    21614097.024
   1355498.41348   1056232.73744  23802933.676    23802933.077
 -23719218.31849 -18482505.27147  20580745.830    20580746.245
 -20298724.73249 -15817187.46146  21494208.152    21494208.372
 -11250454.71648  -8766593.03844  23197342.773    23197344.642
 02  1  6  0  7 30.0000000  0  8G14G 1G22G29G30G25G20G11
  -2844490.65549  -2216484.85045  23111135.273    23111134.943
  -7673987.90948  -5979725.28645  23636095.896    23636098.616
 -10261011.99248  -7995595.32045  22944217.896    22944220.170
 -11265179.75649  -8778058.88446  21624485.793    21624486.634
   1416319.52548   1103625.84844  23814506.952    23814506.513
 -23695288.14049 -18463858.38047  20585299.708    20585299.962
 -20365940.89049 -15869563.68246  21481416.821    21481417.171
 -11180627.76948  -8712182.45444  23210630.419    23210631.143
 02  1  6  0  8  0.0000000  0  8G14G 1G22G29G30G25G20G11
  -2767527.03848  -2156513.21345  23125779.846    23125780.426
  -7753594.90348  -6041756.65645  23620946.828    23620948.329
 -10370387.57548  -8080823.06145  22923404.647    22923407.592
 -11210376.48449  -8735355.05346  21634914.558    21634915.119
   1477640.10448   1151408.12344  23826176.692    23826177.760
 -23670947.51949 -18444891.66047  20589931.810    20589932.090
 -20432752.98349 -15921625.04046  21468703.481    21468703.716
 -11110488.12148  -8657528.20144  23223977.906    23223977.636
 02  1  6  0  8 30.0000000  0  8G14G 1G22G29G30G25G20G11
  -2690425.87648  -2096434.41745  23140452.380    23140452.020
  -7833115.69148  -6103720.83445  23605814.505    23605817.992
 -10479577.11548  -8165905.83745  22902626.585    22902628.426
 -11155359.97049  -8692485.05646  21645383.837    21645384.151
   1539464.91148   1199583.34144  23837941.284    23837945.051
 -23646190.62749 -18425600.57247  20594642.719    20594643.069
 -20499151.75349 -15973364.31346  21456068.448    21456068.490
 -11040031.36648  -8602626.83544  23237385.364    23237386.380
 02  1  6  0  9  0.0000000  0  8G14G 1G22G29G30G25G20G11
  -2613210.61948  -2036266.70345  23155145.879    23155145.481
  -7912572.78548  -6165635.46445  23590694.748    23590699.709
 -10588600.13148  -8250858.84945  22881880.532    22881883.725
 -11100153.47249  -8649467.01846  21655889.464    21655889.833
   1601769.34848   1248132.23744  23849797.472    23849797.095
 -23621041.52249 -18406003.86447  20599428.435    20599428.513
 -20565157.69749 -16024797.50846  21443507.269    21443507.601
 -10969283.30748  -8547498.49544  23250847.580    23250848.837
 02  1  6  0  9 30.0000000  0  8G14G 1G22G29G30G25G20G11
  -2535861.54948  -1975994.71945  23169864.247    23169864.077
  -7991945.91448  -6227484.61745  23575591.659    23575594.793
 -10697433.39348  -8335663.98145  22861169.995    22861172.142
 -11044737.16949  -8606285.49646  21666434.742    21666435.332
   1664570.99648   1297068.64844  23861748.238    23861747.851
 -23595481.87549 -18386087.25247  20604292.394    20604292.578
 -20630748.54049 -16075907.25846  21431025.882    21431026.403
 -10898226.92148  -8492129.86744  23264369.754    23264370.161
 02  1  6  0 10  0.0000000  0  8G14G 1G22G29G30G25G20G11
  -2458389.13548  -1915626.64145  23184607.626    23184608.039
  -8071244.65748  -6289275.80345  23560499.349    23560501.217
 -10806083.68348  -8420326.55745  22840494.675    22840497.304
 -10989121.19949  -8562948.38246  21677018.133    21677018.675
   1727858.00448   1346383.23244  23873791.410    23873792.570
 -23569522.82749 -18365859.41947  20609232.077    20609232.367
 -20695931.98749 -16126699.55746  21418621.855    21418622.239
 -10826874.97548  -8436530.95744  23277947.731    23277949.647
 02  1  6  0 10 30.0000000  0  8G14G 1G22G29G30G25G20G11
  -2380801.58948  -1855168.84245  23199371.741    23199371.446
  -8150476.48548  -6351014.85645  23545422.740    23545427.104
 -10914555.64348  -8504850.17745  22819853.157    22819854.317
 -10933313.66249  -8519461.99946  21687637.840    21687638.665
   1791620.52848   1396068.33944  23885924.989    23885925.788
 -23543173.73849 -18345327.65847  20614246.256    20614246.554
 -20760713.20649 -16177178.42746  21406294.385    21406294.636
 -10755238.17048  -8380710.07144  23291579.199    23291581.507
 02  1  6  0 11  0.0000000  0  8G14G 1G22G29G30G25G20G11
  -2303094.10448  -1794617.58445  23214158.830    23214160.135
  -8229635.58748  -6412697.25145  23530360.993    23530363.322
 -11022840.33948  -8589227.87545  22799247.095    22799249.018
 -10877309.21249  -8475822.17346  21698295.306    21698295.766
   1855861.83248   1446126.48744  23898149.450    23898150.390
 -23516430.66949 -18324488.89747  20619335.291    20619335.333
 -20825084.68349 -16227338.01546  21394044.940    21394045.309
 -10683314.34948  -8324665.53545  23305265.962    23305265.391
 02  1  6  0 11 30.0000000  0  8G14G 1G22G29G30G25G20G11
  -2225278.23748  -1733981.87645  23228967.380    23228967.533
  -8308733.12048  -6474331.64245  23515307.906    23515311.333
 -11130946.25248  -8673466.24045  22778675.113    22778677.092
 -10821119.68349  -8432038.13546  21708988.014    21708988.144
   1920568.29048   1496547.14944  23910463.057    23910462.604
 -23489306.49849 -18303353.17547  20624496.942    20624496.916
 -20889055.63149 -16277185.49546  21381871.563    21381872.117
 -10611117.41548  -8268408.21844  23319005.557    23319007.082
 02  1  6  0 12  0.0000000  0  8G14G 1G22G29G30G25G20G11
  -2147336.53348  -1673248.10845  23243798.680    23243799.118
  -8387751.04948  -6535904.03945  23500272.281    23500274.190
 -11238852.27948  -8757548.86845  22758141.530    22758142.794
 -10764727.54249  -8388096.21846  21719718.743    21719719.131
   1985755.54348   1547342.43344  23922867.276    23922868.051
 -23461784.90849 -18281907.78247  20629733.977    20629734.130
 -20952605.94149 -16326705.20946  21369778.358    21369778.866
 -10538632.16148  -8211926.18644  23332798.161    23332799.258
 02  1  6  0 12 30.0000000  0  8G14G 1G22G29G30G25G20G11
  -2069257.20648  -1612407.11445  23258657.260    23258656.915
  -8466676.66548  -6597404.48845  23485252.635    23485254.546
 -11346542.79648  -8841463.57345  22737648.373    22737650.942
 -10708120.50249  -8343986.84346  21730490.700    21730491.742
   2051433.93248   1598520.43044  23935365.411    23935364.065
 -23433855.01549 -18260144.22947  20635048.746    20635048.993
 -21015720.85649 -16375885.64746  21357768.175    21357768.529
 -10465849.52848  -8155212.45844  23346648.788    23346649.128
 02  1  6  0 13  0.0000000  0  8G14G 1G22G29G30G25G20G11
  -1991059.61348  -1551473.95945  23273537.654    23273538.084
  -8545528.46848  -6658847.40745  23470247.670    23470249.717
 -11454033.48548  -8925222.56745  22717193.851    22717196.119
 -10651317.78949  -8299724.99546  21741300.073    21741300.667
   2117582.15048   1650064.48844  23947953.294    23947954.633
 -23405537.46449 -18238078.60747  20640437.731    20640437.806
 -21078417.23549 -16424739.95546  21345837.656    21345837.990
 -10392791.27048  -8098283.97644  23360551.666    23360550.738
 02  1  6  0 13 30.0000000  0  8G14G 1G22G29G30G25G20G11
  -1912759.35048  -1490460.80845  23288437.197    23288436.198
  -8624321.31148  -6720244.41245  23455254.446    23455255.607
 -11561336.13248  -9008835.01245  22696774.839    22696777.259
 -10594334.79349  -8255322.66546  21752143.361    21752143.955
   2184183.05848   1701961.35044  23960626.870    23960627.806
 -23376848.78649 -18215723.79447  20645896.920    20645896.842
 -21140708.00749 -16473278.21046  21333983.588    21333984.128
 -10319475.73848  -8041155.05444  23374502.625    23374503.470
 02  1  6  0 14  0.0000000  0  8G14G 1G22G29G30G25G20G11
  -1834335.60648  -1429351.43245  23303361.380    23303361.934
  -8703033.56148  -6781578.62145  23440275.598    23440277.634
 -11668426.59148  -9092282.11245  22676396.223    22676399.402
 -10537150.57249  -8210763.54146  21763025.323    21763026.078
   2251255.64848   1754225.69444  23973389.714    23973392.696
 -23347769.05649 -18193064.26347  20651430.681    20651430.805
 -21202569.45049 -16521481.92246  21322211.728    21322212.151
 -10245884.45948  -7983811.22644  23388506.350    23388507.027
 02  1  6  0 14 30.0000000  0  8G14G 1G22G29G30G25G20G11
  -1755787.82448  -1368145.40845  23318308.616    23318308.214
  -8781663.81348  -6842848.91945  23425312.439    23425313.755
 -11775300.42048  -9175560.40445  22656058.958    22656061.506
 -10479764.23349  -8166046.92046  21773945.496    21773946.441
   2318798.59548   1806856.62844  23986242.985    23986243.949
 -23318298.80549 -18170100.43247  20657038.825    20657038.981
 -21263998.25949 -16569348.52547  21310522.780    21310523.062
 -10172019.35348  -7926254.02244  23402562.981    23402563.618
 02  1  6  0 15  0.0000000  0  8G14G 1G22G29G30G25G20G11
  -1677112.19248  -1306839.74845  23333279.314    23333279.108
  -8860207.43848  -6904051.74245  23410366.955    23410369.098
 -11881950.15048  -9258664.09545  22635763.364    22635766.513
 -10422171.78949  -8121169.69846  21784905.005    21784905.635
   2386814.09748   1859855.71144  23999186.687    23999186.362
 -23288435.17549 -18146830.07047  20662721.617    20662721.756
 -21324988.21549 -16616873.16846  21298916.172    21298916.492
 -10097879.07348  -7868482.42944  23416671.419    23416670.849
 02  1  6  0 15 30.0000000  0  8G14G 1G22G29G30G25G20G11
  -1598315.80148  -1245439.99845  23348274.412    23348274.862
  -8938670.76848  -6965191.97045  23395435.559    23395438.210
 -11988379.17248  -9341595.78945  22615510.997    22615514.219
 -10364380.20049  -8076137.30246  21795902.300    21795902.756
   2455293.00448   1913215.92744  24012216.662    24012217.174
 -23258186.45449 -18123259.64147  20668477.595    20668477.708
 -21385543.68949 -16664059.25947  21287392.885    21287393.233
 -10023473.14648  -7810503.77444  23430829.689    23430828.443
 02  1  6  0 16  0.0000000  0  8G14G 1G22G29G30G25G20G11
  -1519396.22548  -1183944.25845  23363292.786    23363293.424
  -9017050.89548  -7026267.35345  23380520.471    23380521.787
 -12094581.56748  -9424350.90245  22595301.552    22595302.372
 -10306386.89549  -8030947.72546  21806938.281    21806938.717
   2524235.89548   1966937.69044  24025337.244    24025339.366
 -23227551.40449 -18099388.17247  20674307.431    20674307.543
 -21445659.77849 -16710902.96847  21275953.564    21275953.817
  -9948801.88948  -7752318.35244  23445039.373    23445042.411
 02  1  6  0 16 30.0000000  0  8G14G 1G22G29G30G25G20G11
  -1440369.31448  -1122364.90545  23378330.506    23378329.991
  -9095362.91248  -7087289.70345  23365617.855    23365618.333
 -12200569.61648  -9506938.97445  22575132.349    22575134.801
 -10248207.59649  -7985613.21846  21818009.247    21818010.093
   2593624.84648   2021007.02444  24038540.368    24038542.419
 -23196546.90349 -18075228.82247  20680207.307    20680207.452
 -21505349.69149 -16757414.59747  21264594.951    21264595.107
  -9873883.67048  -7693940.51944  23459295.815    23459297.652
 02  1  6  0 17  0.0000000  0  8G14G 1G22G29G30G25G20G11
  -1361244.92948  -1060709.54745  23393387.557    23393387.697
  -9173615.35448  -7148265.60745  23350726.693    23350728.643
 -12306349.09448  -9589364.54445  22555004.009    22555006.129
 -10189851.53749  -7940140.97546  21829114.213    21829114.689
   2663448.84348   2075415.36044  24051827.412    24051827.269
 -23165183.93249 -18050790.14547  20686175.419    20686175.596
 -21564620.17349 -16803599.38947  21253316.164    21253316.519
  -9798730.70248  -7635379.75744  23473596.894    23473598.943
 02  1  6  0 17 30.0000000  0  8G14G 1G22G29G30G25G20G11
  -1282007.40248   -998966.10445  23408466.000    23408466.303
  -9251791.92248  -7209182.39945  23335850.341    23335852.512
 -12411900.91648  -9671612.72545  22534917.924    22534921.133
 -10131303.22649  -7894518.92046  21840255.669    21840256.075
   2733721.22548   2130173.11644  24065200.974    24065202.935
 -23133448.07949 -18026060.90947  20692214.453    20692214.580
 -21623453.15249 -16849443.28447  21242120.229    21242120.478
  -9723330.07848  -7576626.04144  23487945.018    23487945.993
 02  1  6  0 18  0.0000000  0  8G14G 1G22G29G30G25G20G11
  -1202639.94148   -937121.37545  23423569.090    23423570.038
  -9329875.34248  -7270026.63345  23320991.736    23320993.191
 -12517204.83548  -9753667.71745  22514879.142    22514882.585
 -10072545.79949  -7848733.92946  21851436.881    21851437.348
   2804456.79248   2185291.72344  24078660.744    24078661.275
 -23101323.45649 -18001028.73347  20698327.557    20698327.746
 -21681829.67549 -16894931.49047  21231011.751    21231012.069
  -9647667.69148  -7517668.37444  23502344.135    23502343.412
 02  1  6  0 18 30.0000000  0  8G14G 1G22G29G30G25G20G11
  -1123157.61048   -875187.13545  23438694.114    23438695.214
  -9407879.58948  -7330809.15345  23306147.466    23306148.824
 -12622271.93649  -9835538.18345  22494885.906    22494887.276
 -10013593.83649  -7802797.33246  21862654.942    21862655.466
   2875638.77748   2240758.23944  24092206.776    24092208.144
 -23068826.48549 -17975706.41847  20704511.494    20704511.842
 -21739761.75649 -16940073.37547  21219987.802    21219988.257
  -9571760.75248  -7458520.11044  23516787.536    23516789.646
 02  1  6  0 19  0.0000000  0  8G14G 1G22G29G30G25G20G11
  -1043550.61548   -813155.76845  23453842.427    23453843.711
  -9485794.37748  -7391521.99745  23291320.982    23291323.297
 -12727088.98348  -9917213.79345  22474939.037    22474941.191
  -9954437.60349  -7756701.58346  21873912.112    21873912.541
   2947274.86248   2296578.58344  24105837.918    24105835.707
 -23035948.30149 -17950087.05347  20710768.015    20710768.425
 -21797237.14449 -16984859.38647  21209050.536    21209051.036
  -9495602.44948  -7399176.03044  23531280.444    23531282.782
 02  1  6  0 19 30.0000000  0  8G14G 1G22G29G30G25G20G11
   -963836.67448   -751041.06545  23469012.383    23469011.888
  -9563636.36248  -7452178.15845  23276508.556    23276510.104
 -12831669.79148  -9998705.32545  22455037.895    22455040.899
  -9895094.29649  -7710460.05346  21885204.815    21885205.710
   3019345.69348   2352737.70844  24119553.112    24119555.283
 -23002707.67749 -17924185.26647  20717093.653    20717094.023
 -21854270.76449 -17029301.15947  21198197.307    21198197.826
  -9419212.79448  -7339651.60044  23545816.384    23545817.299
 02  1  6  0 20  0.0000000  0  8G14G 1G22G29G30G25G20G11
   -884022.47148   -688848.23545  23484199.962    23484200.495
  -9641411.65548  -7512782.33545  23261708.622    23261709.932
 -12936017.71349 -10080015.37345  22435181.800    22435184.919
  -9835570.83549  -7664078.15546  21896531.766    21896532.080
   3091842.14648   2409228.57044  24133348.187    24133346.103
 -22969112.76449 -17898007.40647  20723486.309    20723486.738
 -21910867.01149 -17073402.12747  21187427.619    21187428.006
  -9342601.05248                  23560395.633
 02  1  6  0 20 30.0000000  0  8G14G 1G22G29G30G25G20G11
   -804087.20048   -626561.04945  23499411.386    23499411.803
  -9719098.35048  -7573317.42545  23246924.547    23246927.440
 -13040108.05749 -10161124.76645  22415373.592    22415376.164
  -9775846.00049  -7617539.34446  21907897.116    21907897.291
   3164783.37048   2466065.84444  24147227.779    24147229.488
 -22935143.69849 -17871538.00447  20729949.953    20729950.404
 -21967002.33949 -17117143.93247  21176745.195    21176745.667
  -9265749.05648                  23575020.010
 02  1  6  0 21  0.0000000  0  8G14G 1G22G29G30G25G20G11
   -724023.59848   -564173.88445  23514647.251    23514648.438
  -9796688.59148  -7633777.28445  23232159.618    23232162.157
 -13143930.04549 -10242025.01845  22395617.058    22395620.115
  -9715912.33149  -7570837.79346  21919301.785    21919302.510
   3238174.45748   2523253.75744  24161193.873    24161195.100
 -22900794.59649 -17844772.46247  20736486.759    20736487.182
 -22022667.20049 -17160519.13847  21166152.517    21166152.990
  -9188652.25048  -7159994.04644  23589689.448    23589691.279
 02  1  6  0 21 30.0000000  0  8G14G 1G22G29G30G25G20G11
   -643848.25948   -501699.65545  23529903.714    23529904.566
  -9874198.01348  -7694174.14445  23217410.591    23217412.192
 -13247496.65149 -10322726.27445  22375909.176    22375912.197
  -9655786.46849  -7523986.49046  21930743.471    21930744.275
   3311996.99948                  24175241.700
 -22866082.92649 -17817724.40247  20743092.306    20743092.751
 -22077875.50049 -17203538.59447  21155646.684    21155646.906
  -9111329.83948                  23604404.395
 02  1  6  0 22  0.0000000  0  8G14G 1G22G29G30G25G20G11
   -563574.88748   -439149.01145  23545179.884    23545180.219
  -9951639.37948  -7754518.05245  23202674.076    23202674.605
 -13350817.49349 -10403236.00245  22356247.656    22356249.581
  -9595481.34249  -7476995.49646  21942219.293    21942220.013
   3386235.39248   2638625.96844  24189369.943    24189370.981
 -22831023.36149 -17790405.25847  20749763.814    20749764.321
 -22132638.12849 -17246210.77047  21145225.801    21145226.225
  -9033797.54247                  23619156.679
 02  1  6  0 22 30.0000000  0  8G14G 1G22G29G30G25G20G11
   -483196.40748   -376516.46945  23560474.802    23560474.702
 -10029004.94848  -7814802.92545  23187951.743    23187954.260
 -13453882.31049 -10483546.25745  22336635.202    22336636.899
  -9534990.09149  -7429859.48046  21953730.494    21953731.013
   3460894.76548   2696802.09344  24203575.626    24203574.806
 -22795610.49149 -17762810.81047  20756502.769    20756503.240
 -22186945.81749 -17288528.45047  21134891.478    21134891.778
  -8956051.18548                  23633953.709
 02  1  6  0 23  0.0000000  0  8G14G 1G22G29G30G25G20G11
   -402696.24648   -313789.09945  23575794.056    23575795.197
 -10106277.36948  -7875015.21645  23173247.313    23173248.935
 -13556670.82749 -10563641.22045  22317075.068    22317076.945
  -9474296.06249  -7382565.45346  21965279.829    21965281.036
   3535989.41948   2755317.45444  24217866.072    24217866.063
 -22759828.63649 -17734928.83447  20763312.031    20763312.422
 -22240779.37349 -17330476.67147  21124647.182    21124647.747
  -8878077.11548                  23648791.214
 02  1  6  0 23 30.0000000  0  8G14G 1G22G29G30G25G20G11
   -322064.28948   -250959.05245  23591137.469    23591137.418
 -10183445.43248  -7935146.13145  23158562.952    23158564.049
 -13659169.14549 -10643510.03345  22297570.352    22297572.402
  -9413388.82649  -7335105.29646  21976870.623    21976871.053
   3611527.47248   2814178.30044  24232241.774    24232238.130
 -22723668.91149 -17706752.41747  20770192.797    20770193.255
 -22294126.25549 -17372045.66947  21114495.757    21114496.321
  -8799867.71348                  23663674.127
 02  1  6  0 24  0.0000000  0  8G14G 1G22G29G30G25G20G11
   -241310.73248   -188034.22145  23606504.113    23606504.329
 -10260518.85648  -7995203.29945  23143895.553    23143898.365
 -13761383.99549 -10723157.95845  22278119.121    22278121.497
  -9352278.59749  -7287486.94346  21988499.278    21988500.171
   3687496.61648   2873375.01544  24246697.667    24246699.030
 -22687142.91649 -17678290.59547  20777143.419    20777143.881
 -22346994.20949 -17413241.48147  21104435.411    21104435.825
  -8721435.56448                  23678599.285
 02  1  6  0 24 30.0000000  0  8G14G 1G22G29G30G25G20G11
   -160447.90648   -125024.27945  23621892.807    23621892.507
 -10337509.17748  -8055195.71845  23129245.413    23129248.000
 -13863323.86649 -10802591.60445  22258721.001    22258723.189
  -9290977.30749  -7239719.72746  22000164.384    22000164.757
   3763882.48848   2932896.50944  24261233.966    24261233.717
 -22650263.78549 -17649553.60247  20784161.505    20784161.813
 -22399392.95049 -17454071.66847  21094463.990    21094464.355
  -8642795.58348                  23693563.705
 02  1  6  0 25  0.0000000  0  8G14G 1G22G29G30G25G20G11
    -79477.00948    -61930.09445  23637300.010    23637301.467
 -10414416.49248  -8115123.48945  23114610.377    23114611.971
 -13964986.34849 -10881809.08146  22239374.982    22239377.987
  -9229485.95349  -7191804.40446  22011865.808    22011866.827
   3840682.04348   2992740.33644  24275847.242    24275848.223
 -22613034.14149 -17620543.48247  20791245.969    20791246.316
 -22451321.14549 -17494535.19047  21084582.250    21084582.588
  -8563951.56248                  23708568.553
 02  1  6  0 25 30.0000000  0  8G20G14G 1G22G29G30G25G11
 -22502778.14749 -17534631.54847  21074790.409    21074790.778
      1600.07248      1246.80545  23652728.859    23652729.443
 -10491241.79948  -8174987.35345  23099990.674    23099992.845
 -14066369.59349 -10960809.01246  22220082.888    22220085.068
  -9167806.03349  -7143742.14646  22023603.400    22023604.289
   3917891.33748   3052903.42644  24290541.187    24290544.348
 -22575456.83349 -17591262.45247  20798396.727    20798397.122
  -8484907.95648                  23723609.808
 02  1  6  0 26  0.0000000  0  8G20G14G 1G22G29G30G25G11
 -22553764.79349 -17574361.40047  21065088.115    21065088.537
     82780.17448     64503.98245  23668177.426    23668176.963
 -10567987.49749  -8234789.16545  23085387.077    23085389.172
 -14167473.49049 -11039591.26146  22200842.914    22200845.562
  -9105941.01049  -7095535.66846  22035375.838    22035376.675
   3995504.80548   3113381.53044  24305310.272    24305308.169
 -22537536.45349 -17561714.10047  20805612.841    20805613.219
  -8405670.68748  -6549878.74244  23738687.735    23738688.640
 02  1  6  0 26 30.0000000  0  8G20G14G 1G22G29G30G25G11
 -22604271.10549 -17613716.96847  21055476.888    21055477.388
    164071.05148    127847.50045  23683645.955    23683645.378
 -10644644.98148  -8294522.20345  23070798.532    23070800.353
 -14268286.39549 -11118146.78746  22181659.292    22181661.746
  -9043882.65149  -7047178.52346  22047184.824    22047185.784
   4073528.22848   3174178.97144  24320156.857    24320157.052
 -22499266.42549 -17531893.29647  20812894.980    20812895.381
  -8326234.45548                  23753803.455
 02  1  6  0 27  0.0000000  0  8G20G14G 1G22G29G30G25G11
 -22654286.59449 -17652690.07447  21045959.309    21045959.806
    245480.45448    191283.35545  23699137.535    23699137.727
 -10721205.60548  -8354179.76845  23056229.699    23056230.928
 -14368797.06249 -11196466.77746  22162532.916    22162535.218
  -8981623.28849  -6998664.75446  22059032.574    22059033.036
   4151967.17448   3235300.26744  24335084.051    24335084.481
 -22460640.24049 -17501794.96347  20820245.282    20820245.834
  -8246594.33048                  23768960.439
 02  1  6  0 27 30.0000000  0  8G20G14G 1G22G29G30G25G11
 -22703825.53449 -17691291.83847  21036532.550    21036532.864
    326991.70348    254798.54945  23714649.343    23714649.587
 -10797685.17449  -8413774.19646  23041676.578    23041678.518
 -14469018.36049 -11274561.28446  22143461.353    22143463.103
  -8919179.17749  -6950007.02846  22070915.199    22070915.684
   4230803.01648   3296730.78344  24350085.185    24350085.364
 -22421675.82349 -17471433.07547  20827659.847    20827660.406
  -8166769.39948                  23784148.901
 02  1  6  0 28  0.0000000  0  8G20G14G 1G22G29G30G25G11
 -22752886.99549 -17729521.54547  21027196.040    21027196.540
    408603.48148    318392.14745  23730179.688    23730178.648
 -10874084.27848  -8473305.96746  23027137.819    23027140.785
 -14568948.11949 -11352428.63446  22124444.990    22124447.077
  -8856551.58849  -6901206.33546  22082833.103    22082833.845
   4310032.31648   3358467.92344  24365162.226    24365159.916
 -22382375.46649 -17440809.41647  20835138.881    20835139.443
  -8086763.52248                  23799374.156
 02  1  6  0 28 30.0000000  0  8G20G14G 1G22G29G30G25G11
 -22801442.87249 -17767357.29147  21017956.299    21017956.824
    490341.46048    382084.01645  23745733.338    23745733.831
 -10950376.14849  -8532754.17146  23012621.246    23012622.027
 -14668556.67849 -11430045.66246  22105490.243    22105492.279
  -8793714.35649  -6852242.28046  22094790.610    22094791.224
   4389678.64348   3420530.03144  24380318.507    24380316.650
 -22342714.61449 -17409904.85147  20842685.626    20842686.071
  -8006553.62648                  23814638.307
 02  1  6  0 29  0.0000000  0  8G20G14G 1G22G29G30G25G11
 -22849503.16749 -17804806.86747  21008811.045    21008811.619
    572193.18048    445864.54845  23761309.827    23761310.790
 -11026572.62549  -8592128.05146  22998120.654    22998122.148
 -14767853.28349 -11507419.62046  22086594.679    22086597.250
  -8730680.25449  -6803124.82446  22106785.240    22106786.021
   4469727.23548   3482905.53444  24395551.557    24395552.437
 -22302707.27049 -17378730.29147  20850298.819    20850299.305
  -7926155.03748                  23829937.283
 02  1  6  0 29 30.0000000  0  8G20G14G 1G22G29G30G25G11
 -22897076.47649 -17841876.97647  20999758.125    20999758.564
    654147.77848    509725.23845  23776904.834    23776905.287
 -11102683.80848  -8651435.44146  22983636.850    22983638.954
 -14866845.22649 -11584556.16046  22067757.030    22067759.235
  -8667459.70249  -6753862.06846  22118816.114    22118816.881
   4550164.97548   3545584.35944  24410858.810    24410857.295
 -22262365.57549 -17347295.20247  20857975.655    20857976.074
  -7845581.23448                  23845268.882
 02  1  6  0 30  0.0000000  0  8G20G14G 1G22G29G30G25G11
 -22944144.78449 -17878553.57247  20990801.221    20990801.647
    736220.61448    573678.05345  23792522.845    23792523.019
 -11178692.94049  -8710663.31845  22969174.138    22969175.235
 -14965513.22149 -11661440.28646  22048981.394    22048983.576
  -8604037.01249  -6704441.82246  22130885.337    22130885.835
   4631005.47248   3608576.96244  24426241.080    24426241.454
 -22221675.02849 -17315588.28347  20865718.832    20865719.189
  -7764819.15948                  23860637.238
 02  1  6  0 30 30.0000000  0  8G14G 1G22G29G30G25G20G11
    818395.33248    637710.26445  23808160.791    23808161.011
 -11254615.57848  -8769823.78445  22954724.507    22954726.892
 -15063870.15149 -11738082.03046  22030264.763    22030266.702
  -8540428.47349  -6654876.75446  22142989.315    22142989.876
   4712229.97848   3671868.76244  24441698.265    24441698.360
 -22180653.73849 -17283623.64047  20873525.027    20873525.270
 -22990722.29449 -17914847.72747  20981937.819    20981938.266
  -7683888.06248                  23876039.390
 02  1  6  0 31  0.0000000  0  8G14G 1G22G29G30G25G20G11
    900669.02148    701819.59845  23823816.528    23823817.099
 -11330454.06549  -8828918.69246  22940293.921    22940295.707
 -15161915.49649 -11814480.99146  22011607.484    22011609.553
  -8476637.11349  -6605169.21846  22155128.250    22155129.675
   4793833.22548   3735455.73144  24457226.610    24457225.312
 -22139305.49249 -17251404.22847  20881393.442    20881393.830
 -23036809.74949 -17950760.01847  20973167.785    20973168.178
  -7602793.48947                  23891468.469
 02  1  6  0 31 30.0000000  0  8G14G 1G22G29G30G25G20G11
    983049.63448    766012.24945  23839492.879    23839492.518
 -11406199.31349  -8887940.94046  22925880.581    22925882.084
 -15259637.42549 -11890627.92646  21993010.867    21993014.032
  -8412654.59449  -6555312.73046  22167304.213    22167305.004
   4875821.20148   3799342.48644  24472828.400    24472828.990
 -22097623.38449 -17218924.66247  20889325.354    20889325.701
 -23082396.59849 -17986282.21747  20964492.719    20964493.242
  -7521529.96347                  23906934.122
 02  1  6  0 32  0.0000000  0  8G14G 1G22G29G30G25G20G11
   1065536.71548    830287.86645  23855189.641    23855189.162
 -11481850.80948  -8946890.12245  22911483.142    22911484.561
 -15357032.94149 -11966520.50346  21974477.738    21974479.275
  -8348481.10249  -6505307.43546  22179516.175    22179516.574
   4958191.26348                  24488503.513
 -22055609.42449 -17186186.51047  20897320.420    20897320.710
 -23127481.18349 -18021413.05047  20955913.538    20955914.017
  -7440100.48447                  23922429.066
 02  1  6  0 32 30.0000000  0  8G14G 1G22G29G30G25G20G11
   1148121.22048    894639.40345  23870905.573    23870906.129
 -11557416.78649  -9005772.68246  22897105.542    22897106.079
 -15454107.48249 -12042162.98546  21956004.454    21956006.494
  -8284125.56049  -6455160.28746  22191762.078    22191762.263
   5040932.18748   3928000.41044  24504248.197    24504248.097
 -22013273.72149 -17153197.64847  20905376.508    20905376.546
 -23172070.39649 -18056157.88247  20947428.366    20947428.683
  -7358516.78647                  23937953.623
 02  1  6  0 33  0.0000000  0  8G14G 1G22G29G30G25G20G11
   1230808.35348    959070.88545  23886639.433    23886639.753
 -11632891.23848  -9064583.95046  22882741.433    22882743.535
 -15550852.30849 -12117548.51446  21937594.611    21937596.801
  -8219582.69749  -6404867.17246  22204044.580    22204045.264
   5124046.72348   3992765.01644  24520064.456    24520065.018
 -21970612.39049 -17119955.04847  20913494.621    20913494.714
 -23216156.53649 -18090510.71347  20939038.816    20939039.438
  -7276776.48647                  23953507.404
 02  1  6  0 33 30.0000000  0  8G14G 1G22G29G30G25G20G11
   1313606.11648   1023588.60345  23902396.032    23902395.189
 -11708265.00448  -9123316.75546  22868398.359    22868400.459
 -15647255.47849 -12192667.83146  21919249.534    21919251.987
  -8154844.22349  -6354421.62846  22216364.125    22216364.304
   5207540.91148   4057825.39944  24535952.374    24535953.795
 -21927618.57149 -17086453.37047  20921676.100    20921676.406
 -23259729.05349 -18124463.30847  20930747.519    20930747.904
  -7194873.79947                  23969094.930
 02  1  6  0 34  0.0000000  0  8G14G 1G22G29G30G25G20G11
   1396519.60648   1088196.50545  23918173.906    23918173.859
 -11783531.88249  -9181966.28246  22854077.511    22854077.906
 -15743308.74349 -12267514.47746  21900971.394    21900973.369
  -8089904.84049  -6303819.53746  22228721.243    22228721.877
   5291417.67748   4123183.91144  24551913.455    24551913.874
 -21884288.56949 -17052689.73247  20929921.656    20929922.019
 -23302781.00349 -18158010.26447  20922554.949    20922555.410
  -7112806.40347                  23984710.071
 02  1  6  0 34 30.0000000  0  8G14G 1G22G29G30G25G20G11
   1479542.96348   1152889.99145  23933971.736    23933973.078
 -11858697.33648  -9240536.75145  22839771.736    22839774.236
 -15839014.09049 -12342090.00446  21882759.408    21882761.797
  -8024770.30549  -6253065.37646  22241116.320    22241116.706
   5375668.64248   4188834.03444  24567946.311    24567945.261
 -21840629.23149 -17018669.46947  20938229.826    20938230.227
 -23345315.84849 -18191154.28847  20914460.998    20914461.307
  -7030582.87648                  24000358.694
 02  1  6  0 35  0.0000000  0  8G14G 1G22G29G30G25G20G11
   1562667.39048   1217662.23145  23949791.600    23949793.184
 -11933768.97049  -9299034.10046  22825486.868    22825488.913
 -15934376.96049 -12416398.66746  21864612.022    21864615.305
  -7959449.28049  -6202165.90446  22253546.434    22253547.152
   5460282.98548   4254767.30744  24584047.315    24584048.909
 -21796650.65649 -16984400.44847  20946598.404    20946598.784
 -23387340.13549 -18223900.48347  20906464.118    20906464.413
  -6948214.57348                  24016032.037
 02  1  6  0 35 30.0000000  0  8G14G 1G22G29G30G25G20G11
   1645896.22848   1282515.83045  23965628.815    23965628.147
 -12008742.61349  -9357455.10946  22811220.645    22811221.617
 -16029390.61449 -12490435.26546  21846531.852    21846533.963
  -7893938.36849  -6151118.46046  22266012.614    22266013.260
   5545261.70148   4320984.43244  24600218.665    24600221.843
 -21752351.20749 -16949881.39847  20955028.170    20955028.544
 -23428848.43549 -18256244.60447  20898565.069    20898565.614
  -6865700.72248                  24031734.341
 02  1  6  0 36  0.0000000  0  8G14G 1G22G29G30G25G20G11
   1729230.10548   1347451.29445  23981486.699    23981487.227
 -12083616.59248  -9415798.46045  22796971.166    22796973.522
 -16124050.37949 -12564196.08946  21828518.411    21828521.030
  -7828236.51349  -6099922.22646  22278515.234    22278515.869
   5630603.35548   4387484.49044  24616459.103    24616459.516
 -21707730.94649 -16915112.36547  20963519.318    20963519.807
 -23469837.86749 -18288184.41647  20890765.028    20890765.202
  -6783043.28048                  24047463.765
 02  1  6  0 36 30.0000000  0  8G14G 1G22G29G30G25G20G11
   1812671.61748   1412470.63045  23997364.582    23997365.640
 -12158387.66949  -9474061.61646  22782743.559    22782744.180
 -16218350.45749 -12637676.66446  21810574.067    21810575.951
  -7762341.19149  -6048575.25146  22291054.858    22291055.058
   5716308.08748   4454267.40644  24632767.222    24632770.635
 -21662788.71549 -16880092.44547  20972071.489    20972071.856
 -23510303.69449 -18319716.22947  20883064.461    20883064.841
  -6700242.29848                  24063220.814
 02  1  6  0 37  0.0000000  0  8G14G 1G22G29G30G25G20G11
   1896215.49748   1477569.71045  24013263.268    24013263.622
 -12233059.86449  -9532247.73646  22768533.865    22768534.502
 -16312292.52249 -12710878.28446  21792697.123    21792699.311
  -7696257.46749  -5997081.46046  22303630.032    22303630.360
   5802368.38648   4521327.34244  24649144.388    24649143.136
 -21617531.05849 -16844826.73647  20980683.658    20980683.920
 -23550249.01649 -18350842.44947  20875463.249    20875463.634
  -6617305.79548                  24079002.844
 02  1  6  0 37 30.0000000  0  8G14G 1G22G29G30G25G20G11
   1979867.12248   1542752.74345  24029181.405    24029180.970
 -12307626.82048  -9590351.84946  22754342.121    22754344.793
 -16405867.57149 -12783793.91446  21774890.829    21774893.054
  -7629979.58649  -5945436.38146  22316242.366    22316243.046
   5888787.43148   4588666.88744  24665589.084    24665590.470
 -21571953.38949 -16809311.66747  20989356.691    20989357.071
 -23589666.10749 -18381557.06847  20867962.641    20867963.008
  -6534230.64948                  24094810.904
 02  1  6  0 38  0.0000000  0  8G14G 1G22G29G30G25G20G11
   2063624.59948   1608018.28345  24045119.429    24045119.194
 -12382089.73049  -9648374.91146  22740175.308    22740175.921
 -16499074.07349 -12856422.36046  21757154.108    21757156.241
  -7563509.51049  -5893641.53646  22328891.497    22328892.090
   5975560.99348   4656282.65044  24682101.877    24682100.528
 -21526059.66449 -16773550.32147  20998090.013    20998090.355
 -23628554.95349 -18411860.06647  20860562.284    20860562.733
  -6451021.65348                  24110644.984
 02  1  6  0 38 30.0000000  0  8G14G 1G22G29G30G25G20G11
   2147488.09648   1673366.43245  24061078.494    24061078.085
 -12456446.95349  -9706315.62246  22726024.066    22726025.563
 -16591907.89549 -12928760.39646  21739488.452    21739490.629
  -7496846.68449  -5841696.51946  22341576.630    22341577.429
   6062687.17548   4724173.14744  24698681.427    24698681.901
 -21479850.21249 -16737542.95647  21006883.397    21006883.644
 -23666912.91249 -18441749.38547  20853262.695    20853263.164
  -6367680.99048                  24126506.355
 02  1  6  0 39  0.0000000  0  8G14G 1G22G29G30G25G20G11
   2231441.38048   1738784.54045  24077054.451    24077055.562
 -12530713.77649  -9764185.85046  22711891.258    22711893.297
 -16684382.01649 -13000818.14746  21721891.085    21721892.773
  -7430007.14449  -5789613.76246  22354295.786    22354296.657
   6150147.52448   4792324.05144  24715324.050    24715322.184
 -21433342.71149 -16701303.34347  21015733.531    21015733.791
 -23704754.23249 -18471236.13047  20846061.907    20846062.254
  -6284227.53648                  24142385.095
 02  1  6  0 39 30.0000000  0  8G14G 1G22G29G30G25G20G11
   2315499.25048   1804284.15745  24093049.694    24093050.917
 -12604874.58649  -9821973.45746  22697780.599    22697781.565
 -16776478.19749 -13072581.39446  21704365.619    21704368.177
  -7362976.35949  -5737382.00046  22367051.688    22367052.126
   6237954.22348   4860744.87444  24732034.014    24732033.536
 -21386523.89649 -16664821.14947  21024643.202    21024643.175
 -23742062.13649 -18500307.22347  20838962.460    20838962.829
  -6200649.08948                  24158290.116
 02  1  6  0 40  0.0000000  0  8G14G 1G22G29G30G25G20G11
   2399659.03548   1869863.16445  24109065.186    24109064.763
 -12678931.28549  -9879679.95746  22683686.455    22683688.974
 -16868195.57449 -13144049.46346  21686912.796    21686914.787
  -7295756.56749  -5685002.95946  22379842.870    22379843.689
   6326102.42948   4929431.77644  24748806.847    24748808.512
 -21339397.88449 -16628099.57947  21033610.898    21033611.029
 -23778837.30649 -18528963.20147  20831964.347    20831964.660
  -6116951.07548                  24174216.915
 02  1  6  0 40 30.0000000  0  8G14G 1G22G29G30G25G20G11
   2483904.39748   1935508.88345  24125096.873    24125096.391
 -12752899.09749  -9937317.19346  22669611.642    22669612.890
 -16959546.83549 -13215232.25446  21669528.886    21669530.972
  -7228363.82549  -5632489.16846  22392667.005    22392668.183
   6414573.62848   4998370.35644  24765643.027    24765641.127
 -21291981.81249 -16591151.98747  21042633.773    21042633.808
 -23815093.92149 -18557215.10647  20825064.902    20825065.310
  -6033152.46248  -4701163.53544  24190164.096    24190166.656
 02  1  6  0 41  0.0000000  0  7G14G 1G22G29G25G20G11
   2568242.44548   2001226.80445  24141145.011    24141146.771
 -12826769.83049  -9994878.75846  22655554.677    22655555.627
 -17050521.78049 -13286121.80146  21652216.989    21652219.401
  -7160791.31149  -5579835.28446  22405525.817    22405526.889
 -21244270.05949 -16553973.99147  21051713.044    21051713.033
 -23850822.93049 -18585055.89247  20818265.706    20818266.081
  -5949248.67048                  24206129.306
 02  1  6  0 41 30.0000000  0  7G14G 1G22G29G25G20G11
   2652689.85548   2067029.97444  24157215.790    24157213.940
 -12900525.61049 -10052350.71446  22641518.623    22641520.345
 -17141099.86049 -13356702.11346  21634980.824    21634982.569
  -7093021.73449  -5527027.83346  22418422.163    22418423.362
 -21196247.17449 -16516553.55747  21060851.345    21060851.251
 -23886005.41449 -18612470.81347  20811570.860    20811571.357
  -5865225.32548  -4570311.31944  24222118.942    24222119.469
 02  1  6  0 42  0.0000000  0  8G14G 1G22G29G 4G25G20G11
   2737235.12048   2132909.36044  24173303.454    24173304.351
 -12974177.18949 -10109741.50646  22627503.788    22627505.205
 -17231289.27749 -13426979.56246  21617817.831    21617820.099
  -7025066.72249  -5474075.90646  22431353.753    22431354.325
         -.94358                  25321946.091
 -21147926.22349 -16478900.86447  21070046.550    21070046.558
 -23920651.08949 -18639467.44647  20804978.107    20804978.497
  -5781096.94148  -4504756.75444  24238128.976    24238130.267
 02  1  6  0 42 30.0000000  0  8G14G 1G22G29G 4G25G20G11
   2821885.66048   2198870.79244  24189412.043    24189411.970
 -13047716.02249 -10167044.48046  22613509.605    22613510.367
 -17321078.78249 -13496945.37446  21600731.393    21600733.470
  -6956918.34249  -5420973.28546  22444321.389    22444322.887
    -53114.15648                  25311839.441
 -21099300.18649 -16441010.43947  21079299.781    21079299.759
 -23954750.37549 -18666038.31647  20798489.275    20798489.679
  -5696858.27548                  24254157.483
 02  1  6  0 43  0.0000000  0  8G14G 1G22G29G 4G25G20G11
   2906647.00548   2264918.54844  24205542.117    24205541.730
 -13121135.42149 -10224254.37846  22599537.461    22599539.589
 -17410459.56849 -13566592.71546  21583722.858    21583724.539
  -6888571.25149  -5367715.82746  22457328.036    22457328.386
   -105760.35648                  25301822.044
 -21050365.23149 -16402879.30247  21088611.731    21088611.842
 -23988295.38349 -18692177.28047  20792105.685    20792106.193
  -5612506.48548  -4373387.65844  24270210.924    24270212.976
 02  1  6  0 43 30.0000000  0  8G14G 1G22G29G 4G25G20G11
   2991510.11448   2331045.64844  24221690.248    24221689.818
 -13194443.39149 -10281377.44446  22585588.406    22585590.211
 -17499437.43549 -13635926.09746  21566790.854    21566792.573
  -6820034.30049  -5314310.43346  22470369.763    22470370.542
   -157946.86748                  25291891.079
 -21001131.64949 -16364515.47047  21097980.591    21097980.634
 -24021293.64749 -18717890.20947  20785826.371    20785826.815
  -5528053.62248                  24286280.868
 02  1  6  0 44  0.0000000  0  8G14G 1G22G29G 4G25G20G11
   3076473.53948   2397250.87945  24237859.243    24237858.666
 -13267640.35949 -10338414.02446  22571659.204    22571660.652
 -17588010.06549 -13704943.72746  21549936.544    21549938.477
  -6751308.52649  -5260757.89246  22483448.114    22483449.857
   -209672.99548                  25282047.220
 -20951601.78249 -16325920.76647  21107405.908    21107405.984
 -24053744.60649 -18743176.66747  20779651.466    20779651.848
  -5443503.29048                  24302371.255
 02  1  6  0 44 30.0000000  0  8G14G 1G22G29G 4G25G20G11
   3161524.85848   2463524.60744  24254043.235    24254045.003
 -13340737.79049 -10395373.02246  22557748.720    22557750.842
 -17676186.39749 -13773652.54646  21533156.345    21533158.564
  -6682406.25749  -5207067.84546  22496559.989    22496560.449
   -260949.21048                  25272290.504
 -20901789.51949 -16287106.01747  21116884.722    21116884.934
 -24085658.47149 -18768044.61147  20773578.635    20773579.001
  -5358870.33448                  24318474.833
 02  1  6  0 45  0.0000000  0  8G14G 1G22G29G 4G25G20G11
   3246667.88848   2529869.78844  24270245.362    24270244.466
 -13413730.74449 -10452250.64546  22543859.410    22543861.062
 -17763959.41349 -13842047.09246  21516454.187    21516455.920
  -6613323.67649  -5153237.27546  22509705.827    22509706.206
   -311769.75948                  25262620.392
 -20851692.24549 -16248069.17947  21126417.719    21126417.996
 -24117029.68049 -18792489.70847  20767608.786    20767609.115
  -5274153.87348  -4109736.49444  24334597.309    24334597.929
 02  1  6  0 45 30.0000000  0  8G14G 1G22G29G 4G25G20G11
   3331910.11348   2596292.26244  24286466.829    24286468.592
 -13486610.82749 -10509040.30546  22529990.213    22529991.515
 -17851318.01149 -13910118.70846  21499830.103    21499832.226
  -6544053.16249  -5099260.27846  22522887.031    22522888.749
   -362125.11948                  25253037.838
 -20801303.87149 -16208805.51047  21136006.819    21136007.070
 -24147848.91249 -18816504.69247  20761743.771    20761744.215
  -5189348.64648                  24350733.828
 02  1  6  0 46  0.0000000  0  8G14G 1G22G29G 4G25G20G11
   3417254.51248   2662794.34744  24302707.422    24302707.709
 -13559374.15749 -10565738.98546  22516143.879    22516145.536
 -17938255.98749 -13977862.57146  21483286.676    21483289.037
  -6474591.50249  -5045134.33345  22536105.857    22536107.357
   -412010.53548                  25243544.177
 -20750622.59449 -16169313.60547  21145650.879    21145651.244
 -24178111.34149 -18840085.80947  20755985.032    20755985.255
  -5104454.32748                  24366888.966
 02  1  6  0 46 30.0000000  0  8G14G 1G22G29G 4G25G20G11
   3502691.76548   2729368.81444  24318965.505    24318965.971
 -13632028.82349 -10622353.02346  22502319.046    22502320.130
 -18024778.97249 -14045283.06346  21466821.666    21466824.269
  -6404948.01949  -4990866.70045  22549358.613    22549359.205
   -461433.34748                  25234139.858
 -20699659.23549 -16129601.89847  21155348.741    21155349.080
 -24207824.11749 -18863238.62247  20750330.814    20750331.216
  -5019482.75448                  24383059.307
 02  1  6  0 47  0.0000000  0  8G14G 1G22G29G 4G25G20G11
   3588226.46448   2796019.16644  24335241.870    24335242.619
 -13704569.11549 -10678877.93346  22488513.659    22488515.321
 -18110879.10649 -14112374.04746  21450437.706    21450438.983
  -6335117.70749  -4936453.50146  22562645.970    22562647.783
   -510387.09348                  25224824.595
 -20648409.96349 -16089667.39847  21165101.270    21165101.480
 -24236981.01049 -18885958.28147  20744782.633    20744782.985
  -4934432.02148                  24399243.262
 02  1  6  0 47 30.0000000  0  8G14G 1G22G29G 4G25G20G11
   3673860.97148   2862747.36844  24351538.093    24351537.700
 -13776991.41049 -10735310.88346  22474733.070    22474734.427
 -18196550.75549 -14179131.14746  21434134.888    21434136.914
  -6265098.25049  -4881892.90845  22575971.097    22575971.477
   -558867.45648                  25215598.149
 -20596873.77249 -16049509.32647  21174908.158    21174908.568
 -24265577.98249 -18908241.63847  20739340.866    20739341.143
  -4849302.20148                  24415442.865
 02  1  6  0 48  0.0000000  0  8G14G 1G22G29G 4G25G20G11
   3759603.61148   2929559.76344  24367854.607    24367855.055
 -13849286.37849 -10791644.62446  22460976.002    22460977.073
 -18281781.90349 -14245545.00046  21417915.620    21417917.404
  -6194881.05649  -4827178.22345  22589332.935    22589333.607
   -606864.32948                  25206464.152
 -20545043.96449 -16009122.46047  21184770.783    21184771.240
 -24293604.71649 -18930080.65847  20734007.448    20734007.648
  -4764087.72248                  24431658.966
 02  1  6  0 48 30.0000000  0  8G14G 1G22G29G 4G25G20G11
   3845432.29948   2996439.21444  24384186.027    24384186.241
 -13921474.81249 -10847895.31746  22447238.190    22447239.774
 -18366591.20949 -14311630.14046  21401776.985    21401778.893
  -6124488.06149  -4772326.55545  22602727.929    22602729.102
   -654397.75348                  25197420.308
 -20492943.33249 -15968524.55847  21194685.186    21194685.637
 -24321081.27749 -18951490.97247  20728778.859    20728779.201
  -4678812.77448                  24447886.314
 02  1  6  0 49  0.0000000  0  8G14G 1G22G29G 4G25G20G11
   3931362.76448   3063397.99644  24400539.360    24400541.122
 -13993540.09149 -10904050.07346  22433524.807    22433526.747
 -18450959.78549 -14377371.84846  21385722.398    21385724.055
  -6053903.39949  -4717325.55345  22616159.827    22616160.461
   -701450.37948                  25188465.855
 -20440557.45849 -15927704.39147  21204654.124    21204654.569
 -24347990.36049 -18972459.09447  20723658.253    20723658.631
  -4593464.33548                  24464128.073
 02  1  6  0 49 30.0000000  0  8G14G 1G22G29G 4G25G20G11
   4017380.28448   3130424.59744  24416907.664    24416909.373
 -14065495.81949 -10960119.46946  22419832.826    22419834.405
 -18534899.07249 -14442779.04546  21369749.144    21369750.716
  -5983141.69249  -4662186.57645  22629625.597    22629627.528
   -748035.05648                  25179601.358
 -20387901.99849 -15886674.15547  21214674.031    21214674.502
 -24374344.98049 -18992995.16447  20718642.918    20718643.286
  -4508059.93648                  24480378.872
 02  1  6  0 50  0.0000000  0  8G14G 1G22G29G 4G25G20G11
   4103484.76048   3197518.98744  24433292.529    24433296.460
 -14137341.12049 -11016102.82846  22406160.250    22406161.180
 -18618405.59549 -14507849.02246  21353857.989    21353859.954
  -5912202.81549  -4606909.56545  22643124.731    22643125.376
   -794150.04548   -618818.02144  25170825.939    25170827.158
 -20334978.69649 -15845435.20747  21224745.067    21224745.477
 -24400143.26749 -19013097.72647  20713733.523    20713734.034
  -4422601.72748                  24496642.193
 02  1  6  0 50 30.0000000  0  8G14G 1G22G29G 4G25G20G11
   4189679.77948   3264683.85444  24449694.875    24449695.717
 -14209071.34449 -11071996.48246  22392510.483    22392512.013
 -18701472.65049 -14572576.56546  21338051.241    21338053.398
  -5841083.34649  -4551491.80945  22656658.385    22656659.425
   -839790.13348                  25162140.756
 -20281785.33349 -15803985.82647  21234867.593    21234867.741
 -24425380.19049 -19032762.86347  20708931.042    20708931.536
  -4337089.11748                  24512914.501
 02  1  6  0 51  0.0000000  0  8G14G 1G22G29G 4G25G20G11
   4275965.03948   3331919.09644  24466115.018    24466114.240
 -14280685.22149 -11127799.46446  22378883.484    22378884.743
 -18784097.05249 -14636959.18246  21322328.109    21322330.013
  -5769783.03348  -4495933.16445  22670226.008    22670227.500
   -884953.60048                  25153546.711
 -20228323.46849 -15762327.21947  21245040.831    21245041.237
 -24450053.97749 -19051989.18947  20704235.967    20704236.546
  -4251524.57148                  24529196.623
 02  1  6  0 51 30.0000000  0  7G14G 1G22G29G25G20G11
   4362340.74448   3399224.80244  24482550.718    24482551.214
 -14352181.51649 -11183510.84346  22365277.105    22365278.726
 -18866275.19749 -14700994.07146  21306689.938    21306691.915
  -5698301.77549  -4440233.50145  22683828.998    22683830.056
 -20174593.64649 -15720459.81747  21255265.594    21255265.951
 -24474162.88849 -19070775.35047  20699648.146    20699648.661
  -4165910.44248                  24545489.202
 02  1  6  0 52  0.0000000  0  7G14G 1G22G29G25G20G11
   4448825.83848   3466615.73544  24499009.375    24499012.548
 -14423540.13649 -11239114.91546  22351698.506    22351699.749
