     2.11           OBSERVATION DATA    G (GPS)             RINEX VERSION / TYPE
teqc  2019Feb25     Salamtina Y.M.      20230920 03:20:33UTCPGM / RUN BY / DATE
OBSERVATION MODE: Permanent                                 COMMENT
CHUM Chumysh (CHUM)                                         MARKER NAME
25601M001                                                   MARKER NUMBER
4549261325          TRIMBLE NETRS        1.3-2              REC # / TYPE / VERS
237                 AOAD/M_T        NONE                    ANT # / TYPE
        0.0900        0.0000        0.0000                  ANTENNA: DELTA H/E/N
  1228950.3094  4508080.0136  4327868.5440                  APPROX POSITION XYZ
  74.75110458  42.99850160  716.3396  LonLatAlt  S/W        COMMENT
ANT ADDED FROM RCV_ANT.txt                                  COMMENT
Linux 2.6.32-573.12.1.x86_64|x86_64|gcc|Linux 64|=+         COMMENT
BIT 2 OF LLI FLAGS DATA COLLECTED UNDER A/S CONDITION       COMMENT
Konovalov S.M.      RS_RAS                                  OBSERVER / AGENCY
     1     1                                                WAVELENGTH FACT L1/2
     7    L1    L2    C1    P1    P2    S1    S2            # / TYPES OF OBSERV
    30.0000                                                 INTERVAL
    18                                                      LEAP SECONDS
TIME: 2023.01.06                                            COMMENT
TOUR: cont                                                  COMMENT
RSET: RAS02                                                 COMMENT
ASET: DS24                                                  COMMENT
OPER: skon (Konovalov S.M.)                                 COMMENT
SOUR: chum202301060000d.dat                                 COMMENT
SUPP: chum202301060000d.eph                                 COMMENT
SUPP: chum202301060000d.ion                                 COMMENT
SUPP: chum202301060000d.mes                                 COMMENT
Forced Modulo Decimation to 30 seconds                      COMMENT
 SNR is mapped to RINEX snr flag value [0-9]                COMMENT
  L1 & L2: min(max(int(snr_dBHz/6), 0), 9)                  COMMENT
  2023     1     6     0     0    0.0000000     GPS         TIME OF FIRST OBS
  2023     1     6    23    59   30.0000000     GPS         TIME OF LAST OBS
                                                            END OF HEADER
 23  1  6  0  0  0.0000000  0  9G23G24G08G22G27G10G21G18G32
 -13351430.55647 -12225600.04046  21494530.6174                   21494519.7304
        46.2504         39.0004
 -13808343.63246 -11418027.81947  22434990.1564                   22434982.1994
        39.7504         43.0004
 -10250527.37046  -7961711.92346  23451617.7424                   23451608.6134
        40.2504         38.7504
  -7055303.77747  -5956261.46444  22453095.5084                   22453084.9734
        42.2504         27.2504
 -10603924.82746  -8233145.50046  23419802.2274                   23419793.3914
        38.7504         37.7504
 -28078602.15448 -21775239.10149  20510785.7734                   20510776.6454
        53.0004         54.7504
  -8579266.57346  -5072088.01943  24106928.6884                   24106916.6294
        41.2504         22.5004
 -13336064.26646 -10134515.89944  23578209.5394                   23578200.8794
        37.0004         26.5004
 -16532813.62748 -19260690.96649  20846313.9844                   20846304.7384
        52.0004         55.0004
 23  1  6  0  0 30.0000000  0  9G23G24G08G22G27G10G21G18G32
 -13296080.26747 -12182469.95046  21505063.4454                   21505052.7344
        45.7504         39.2504
 -13759785.61146 -11380190.41147  22444231.4694                   22444222.5744
        40.5004         43.0004
 -10219847.94946  -7937805.88646  23457454.9224                   23457447.1994
        38.7504         38.5004
  -7135147.75947  -6018477.51444  22437902.1954                   22437891.3094
        43.0004         28.0004
 -10524341.28346  -8171132.35646  23434946.8284                   23434938.1684
        39.0004         37.7504
 -28079964.00048 -21776300.27849  20510526.7194                   20510517.4734
        53.0004         55.2504
  -8661065.79746  -5135827.69343  24091363.1334                   24091350.1374
        40.2504         22.0004
 -13227413.84846 -10049853.26644  23598886.5004                   23598876.3754
        38.0004         27.7504
 -16571506.35648 -19290841.11949  20838950.6334                   20838941.4454
        50.7504         54.7504
 23  1  6  0  1  0.0000000  0  9G23G24G08G22G27G10G21G18G32
 -13240484.59647 -12139148.65546  21515643.0944                   21515632.1484
        46.0004         39.0004
 -13710641.67846 -11341896.41347  22453583.3834                   22453574.4884
        40.5004         43.0004
 -10188666.32746  -7913508.53246  23463388.6804                   23463380.4884
        40.0004         38.7504
  -7214706.69647  -6080471.46544  22422762.3914                   22422751.7384
        43.0004         28.5004
 -10444468.17946  -8108893.60346  23450144.6094                   23450137.7664
        38.2504         37.5004
 -28081045.33248 -21777142.87649  20510320.9384                   20510311.6914
        53.0004         54.7504
  -8742670.99046  -5199416.12343  24075834.2584                   24075821.3794
        39.7504         22.5004
 -13118573.68646  -9965042.73844  23619597.0394                   23619588.0864
        37.2504         26.0004
 -16609781.65048 -19320666.00649  20831667.5164                   20831657.7424
        52.0004         54.7504
 23  1  6  0  1 30.0000000  0  9G23G24G08G22G27G10G21G18G32
 -13184644.39147 -12095636.81046  21526269.2584                   21526258.2544
        46.2504         39.0004
 -13660914.19146 -11303147.75147  22463046.0004                   22463037.5164
        39.7504         42.7504
 -10156984.92046  -7888821.72046  23469417.6414                   23469409.6844
        39.7504         38.7504
  -7293979.89247  -6142242.75144  22407677.3364                   22407666.6254
        43.0004         27.7504
 -10364309.25946  -8046432.13846  23465399.7664                   23465390.8134
        39.0004         37.0004
 -28081846.15748 -21777766.89749  20510168.6024                   20510159.1214
        53.0004         55.0004
  -8824081.17346  -5262852.63243  24060342.4534                   24060329.3404
        40.2504         22.7504
 -13009546.42346  -9880086.46844  23640345.5004                   23640334.9064
        39.0004         26.0004
 -16647640.06148 -19350166.04949  20824463.3834                   20824453.8444
        51.7504         55.0004
 23  1  6  0  2  0.0000000  0  9G23G24G08G22G27G10G21G18G32
 -13128560.72647 -12051935.25146  21536941.5004                   21536930.4384
        46.5004         39.0004
 -13610605.84946 -11263946.42247  22472618.9454                   22472610.9304
        39.7504         42.5004
 -10124806.12346  -7863747.36046  23475541.2894                   23475533.1564
        39.7504         38.7504
  -7372967.49847  -6203791.51644  22392646.8834                   22392635.1174
        43.0004         27.7504
 -10283868.51146  -7983751.03846  23480707.1024                   23480698.7934
        39.5004         38.0004
 -28082366.61548 -21778172.44549  20510069.5704                   20510060.0314
        53.5004         55.0004
  -8905294.68846  -5326135.86843  24044887.0164                   24044875.2504
        39.5004         23.0004
 -12900334.93746  -9794986.61644  23661128.7734                   23661117.8874
        39.5004         25.7504
 -16685082.34148 -19379341.83949  20817337.9454                   20817328.4654
        52.2504         55.0004
 23  1  6  0  2 30.0000000  0  9G23G24G08G22G27G10G21G18G32
 -13072233.50447 -12008043.90646  21547660.8444                   21547649.5474
        46.2504         38.7504
 -13559717.97446 -11224293.53747  22482303.7584                   22482294.3954
        40.7504         42.7504
 -10092131.34046  -7838286.51446  23481758.9844                   23481750.7934
        39.5004         38.5004
  -7451667.93847  -6265116.51044  22377669.8594                   22377659.1484
        42.2504         28.0004
 -10203148.58546  -7920852.42646  23496067.4614                   23496059.0944
        39.5004         37.7504
 -28082606.20848 -21778359.13849  20510023.8834                   20510014.4614
        53.5004         54.7504
  -8986309.08546  -5389263.94044  24029471.0944                   24029459.2704
        40.0004         24.5004
 -12790941.01646  -9709744.64744  23681944.5084                   23681934.6174
        37.7504         26.5004
 -16722108.13448 -19408193.09049  20810292.3054                   20810282.8244
        51.2504         55.0004
 23  1  6  0  3  0.0000000  0  9G23G24G08G22G27G10G21G18G32
 -13015663.52347 -11963963.40846  21558425.5004                   21558414.1454
        46.0004         39.0004
 -13508253.04846 -11184190.97747  22492096.2344                   22492087.8094
        41.0004         42.5004
 -10058962.86946  -7812440.96446  23488070.4454                   23488062.2544
        39.2504         38.7504
  -7530080.77147  -6326217.41044  22362748.6254                   22362737.6804
        42.7504         28.2504
 -10122153.27246  -7857739.21146  23511480.2034                   23511471.5434
        39.2504         37.7504
 -28082564.43248 -21778326.58849  20510031.8524                   20510022.3714
        53.5004         54.7504
  -9067123.22146  -5452235.99944  24014092.3754                   24014079.8484
        41.5004         24.0004
 -12681367.42246  -9624362.62344  23702796.4694                   23702785.6414
        39.0004         25.5004
 -16758717.89548 -19436720.16449  20803325.6804                   20803316.4344
        51.7504         54.7504
 23  1  6  0  3 30.0000000  0  9G23G24G08G22G27G10G21G18G32
 -12958849.63047 -11919692.84946  21569236.5704                   21569225.5084
        45.7504         39.0004
 -13456211.37446 -11143639.03147  22501999.2504                   22501991.1174
        40.0004         42.2504
 -10025301.41546  -7786211.28346  23494476.7734                   23494468.0554
        41.2504         38.7504
  -7608203.69747  -6387092.37844  22347882.0634                   22347871.2344
        42.5004         28.2504
 -10040884.21546  -7794412.67446  23526945.5234                   23526936.9804
        39.2504         37.5004
 -28082239.85048 -21778073.66049  20510093.3364                   20510083.9144
        53.2504         55.0004
  -9147733.87646  -5515049.46644  23998752.8594                   23998740.8594
        40.5004         24.2504
 -12571614.63946  -9538841.00544  23723679.3364                   23723670.5004
        37.0004         24.5004
 -16794910.14248 -19464921.89649  20796438.3674                   20796429.2384
        51.5004         55.0004
 23  1  6  0  4  0.0000000  0  9G23G24G08G22G27G10G21G18G32
 -12901793.12047 -11875233.23746  21580093.9694                   21580083.3164
        45.7504         38.5004
 -13403596.04746 -11102640.07547  22512012.0234                   22512003.2464
        39.7504         42.2504
  -9991149.61046  -7759599.52246  23500975.4454                   23500966.6094
        40.2504         38.5004
  -7686037.20547  -6447741.85144  22333070.7894                   22333060.0204
        43.0004         28.7504
  -9959345.57646  -7730876.11846  23542461.8364                   23542453.0594
        39.0004         37.0004
 -28081632.99548 -21777600.78849  20510209.1484                   20510199.7274
        53.2504         54.7504
  -9228140.24246  -5577703.75144  23983452.6254                   23983439.9804
        40.7504         24.5004
 -12461686.10546  -9453182.44844  23744600.2734                   23744588.7424
        39.0004         24.0004
 -16830686.03448 -19492799.19249  20789630.4844                   20789621.1804
        51.5004         54.7504
 23  1  6  0  4 30.0000000  0  9G23G24G08G22G27G10G21G18G32
 -12844493.72947 -11830584.35646  21590997.9774                   21590986.9734
        46.2504         38.7504
 -13350408.29046 -11061195.05447  22522133.9304                   22522124.8014
        40.7504         42.2504
  -9956508.94846  -7732606.80946  23507566.7034                   23507559.0394
        40.7504         38.5004
  -7763579.53147  -6508164.41544  22318314.7114                   22318304.2344
        42.5004         28.7504
  -9877539.98946  -7667131.50946  23558029.1174                   23558019.6374
        39.5004         37.5004
 -28080742.79848 -21776907.12549  20510378.5394                   20510369.0594
        52.0004         55.0004
  -9308339.78246  -5640196.89244  23968190.9454                   23968178.1254
        41.0004         25.5004
 -12351583.16746  -9367387.94744  23765551.7504                   23765540.9804
        37.7504         24.2504
 -16866044.90948 -19520351.54449  20782902.1414                   20782892.6024
        52.5004         54.7504
 23  1  6  0  5  0.0000000  0  9G23G24G08G22G27G10G21G18G32
 -12786951.93747 -11785746.60346  21601947.4694                   21601936.5234
        45.7504         38.5004
 -13296650.21746 -11019305.65347  22532362.8834                   22532354.6334
        39.5004         42.0004
  -9921381.65046  -7705234.90746  23514251.8134                   23514243.3284
        41.5004         38.2504
  -7840830.00247  -6568359.55944  22303615.0004                   22303603.9964
        43.5004         28.2504
  -9795470.75546  -7603181.47646  23573646.0554                   23573637.8634
        38.5004         37.0004
 -28079568.99748 -21775992.47149  20510601.7584                   20510592.4534
        53.5004         54.7504
  -9388330.33046  -5702527.16444  23952969.0474                   23952956.5784
        41.5004         25.2504
 -12241308.23146  -9281459.46044  23786536.6804                   23786526.6134
        39.0004         25.2504
 -16900987.07448 -19547579.19149  20776252.6804                   20776243.1994
        51.7504         55.0004
 23  1  6  0  5 30.0000000  0  9G23G24G08G22G27G10G21G18G32
 -12729167.23147 -11740719.56046  21612943.2504                   21612932.5984
        45.7504         38.2504
 -13242323.06746 -10976972.82247  22542700.5004                   22542692.8954
        39.0004         42.0004
  -9885768.40846  -7677484.35246  23521028.3444                   23521020.2704
        41.5004         38.5004
  -7917786.76047  -6628325.84044  22288969.9614                   22288959.4844
        42.5004         28.7504
  -9713140.33446  -7539027.90446  23589312.7344                   23589304.5434
        38.7504         37.2504
 -28078110.73548 -21774856.16249  20510879.0944                   20510869.6134
        52.0004         55.0004
  -9468109.54047  -5764692.74544  23937787.7734                   23937775.2464
        42.0004         24.7504
 -12130862.72046  -9195398.03943  23807554.1564                   23807542.6254
        39.2504         22.5004
 -16935511.76348 -19574481.53049  20769682.7194                   20769673.5314
        51.5004         55.0004
 23  1  6  0  6  0.0000000  0  9G23G24G08G22G27G10G21G18G32
 -12671140.55247 -11695503.98046  21623985.4844                   21623974.8914
        45.5004         38.0004
 -13187429.39346 -10934198.52846  22553147.7114                   22553138.2304
        40.2504         41.7504
  -9849672.20846  -7649357.46446  23527897.4924                   23527889.1844
        41.2504         38.5004
  -7994449.64147  -6688063.13144  22274382.6254                   22274371.0944
        43.7504         29.7504
  -9630552.50746  -7474673.76146  23605029.1094                   23605020.2734
        38.7504         37.0004
 -28076367.80148 -21773498.03049  20511210.7974                   20511201.4344
        52.2504         54.7504
  -9547676.83846  -5826693.22644  23922646.4144                   23922634.0634
        41.2504         25.2504
 -12020249.29146  -9109205.79243  23828601.6884                   23828592.3244
        38.0004         22.7504
 -16969619.68648 -19601059.12549  20763192.6094                   20763183.0124
        52.5004         54.7504
 23  1  6  0  6 30.0000000  0  9G23G24G08G22G27G10G21G18G32
 -12612872.88247 -11650100.60146  21635073.7274                   21635062.8404
        45.7504         38.5004
 -13131971.93946 -10890984.90847  22563700.7814                   22563691.5944
        40.0004         42.0004
  -9813095.56147  -7620856.19046  23534858.2114                   23534849.3754
        42.5004         38.5004
  -8070818.45147  -6747571.26345  22259849.6254                   22259838.3874
        44.2504         30.2504
  -9547711.03246  -7410121.98146  23620793.4304                   23620784.9454
        38.5004         36.7504
 -28074340.36848 -21771918.21649  20511596.6334                   20511587.0354
        53.0004         54.7504
  -9627029.99747  -5888526.84244  23907546.3834                   23907533.6214
        42.0004         25.7504
 -11909470.94246  -9022885.01443  23849681.9384                   23849672.5164
        37.5004         22.7504
 -17003311.61848 -19627312.56449  20756781.0164                   20756771.8874
        51.7504         55.0004
 23  1  6  0  7  0.0000000  0 10G23G24G08G22G27G10G21G18G31G32
 -12554363.15947 -11604508.62546  21646207.7664                   21646196.6454
        46.0004         38.7504
 -13075951.28846 -10847332.45646  22574360.2584                   22574352.5354
        39.0004         41.7504
  -9776038.83747  -7591980.83146  23541909.0394                   23541901.5514
        42.0004         38.5004
  -8146891.18747  -6806848.70545  22245373.3134                   22245362.7774
        44.5004         30.0004
  -9464617.87546  -7345374.05746  23636605.1484                   23636596.5474
        38.0004         36.5004
 -28072026.96148 -21770115.55449  20512036.8524                   20512027.6054
        53.5004         55.0004
  -9706166.09647  -5950191.30544  23892487.0234                   23892473.9104
        42.0004         25.0004
 -11798528.40246  -8936436.28843  23870793.9304                   23870784.6254
        37.2504         22.2504
    198103.86255    183704.68854  25304866.7274                   25304855.8404
        35.5004         29.7504
 -17036586.29148 -19653240.86849  20750448.6564                   20750439.3524
        52.0004         55.0004
 23  1  6  0  7 30.0000000  0 10G23G24G08G22G27G10G21G18G31G32
 -12495613.98647 -11558730.05246  21657387.6484                   21657376.5274
        45.7504         38.5004
 -13019371.90646 -10803244.63546  22585126.8754                   22585119.2114
        39.7504         41.7504
  -9738506.46046  -7562734.85646  23549051.5634                   23549043.4304
        41.5004         38.2504
  -8222669.27847  -6865896.54644  22230953.5864                   22230942.4064
        44.2504         29.7504
  -9381278.50746  -7280434.32345  23652464.2504                   23652455.5904
        38.0004         35.7504
 -28069429.31848 -21768091.41849  20512531.3524                   20512522.1054
        53.2504         55.0004
  -9785085.63846  -6011687.04444  23877468.5944                   23877455.8914
        40.7504         25.5004
 -11687426.25746  -8849863.20443  23891936.3834                   23891926.6094
        37.5004         23.0004
     80260.39245     91878.64044  25282442.7274                   25282431.4304
        33.2504         28.5004
 -17069446.12648 -19678845.91549  20744195.9924                   20744186.6294
        52.0004         54.7504
 23  1  6  0  8  0.0000000  0 10G23G24G08G22G27G10G21G18G31G32
 -12436622.16847 -11512762.41146  21668613.3444                   21668602.2814
        45.5004         38.2504
 -12962232.31646 -10758720.26846  22596000.8754                   22595991.9804
        40.2504         41.7504
  -9700497.39547  -7533117.42246  23556285.1804                   23556275.9344
        42.0004         38.2504
  -8298148.34247  -6924711.39645  22216589.8134                   22216578.9844
        43.7504         30.2504
  -9297692.61846  -7215302.45346  23668370.3754                   23668362.0084
        38.0004         36.0004
 -28066543.10449 -21765842.42049  20513080.3444                   20513071.0394
        54.0004         54.7504
  -9863783.11046  -6073009.73344  23862493.5314                   23862480.8284
        41.5004         26.7504
 -11576163.10646  -8763164.65743  23913108.2424                   23913099.0554
        36.7504         22.7504
    -37673.06145       -17.55844  25260001.4694                   25259989.3524
        34.7504         29.0004
 -17101887.71548 -19704125.07049  20738022.5474                   20738013.2424
        52.0004         55.0004
 23  1  6  0  8 30.0000000  0 10G23G24G08G22G27G10G21G18G31G32
 -12377388.81347 -11466606.55546  21679884.9774                   21679873.7974
        45.7504         38.0004
 -12904535.34646 -10713761.59046  22606980.2274                   22606971.2154
        39.2504         41.5004
  -9662014.38747  -7503130.68446  23563607.4304                   23563599.3554
        42.0004         38.2504
  -8373328.18847  -6983293.06045  22202283.9534                   22202272.3634
        44.2504         31.0004
  -9213864.07546  -7149981.54145  23684322.0234                   23684313.2464
        37.5004         34.7504
 -28063369.10348 -21763369.17249  20513684.6024                   20513674.8874
        52.2504         54.7504
  -9942257.73346  -6134158.77444  23847560.0554                   23847547.5864
        40.0004         25.2504
 -11464741.91146  -8676342.95044  23934312.6334                   23934302.0984
        37.7504         25.2504
   -155694.69755    -91982.47555  25237540.7274                   25237530.9534
        34.2504         31.0004
 -17133912.03348 -19729079.06449  20731928.0554                   20731919.1604
        51.2504         54.7504
 23  1  6  0  9  0.0000000  0 10G23G24G08G22G27G10G21G18G31G32
 -12317914.83847 -11420263.20646  21691202.7504                   21691191.1024
        45.7504         38.0004
 -12846283.77146 -10668370.74646  22618065.6564                   22618056.5864
        40.0004         41.5004
  -9623059.66946  -7472776.37046  23571020.5084                   23571012.1994
        41.7504         38.5004
  -8448208.74347  -7041641.53045  22188034.1804                   22188023.6454
        44.7504         30.5004
  -9129796.81846  -7084474.57245  23700319.1884                   23700311.5234
        38.2504         34.7504
 -28059907.47049 -21760671.79849  20514343.0944                   20514333.6134
        54.0004         54.7504
 -10020507.61346  -6195132.70444  23832669.3984                   23832657.2814
        40.2504         26.7504
 -11353165.48646  -8589400.30043  23955543.3204                   23955534.2504
        37.5004         22.0004
   -273802.68046   -184014.51844  25215068.8594                   25215055.5704
        37.0004         29.2504
 -17165519.75748 -19753708.44449  20725913.5314                   20725904.6374
        52.0004         55.0004
 23  1  6  0  9 30.0000000  0 10G23G24G08G22G27G10G21G18G31G32
 -12258201.10347 -11373733.02446  21702565.6024                   21702554.3054
        45.5004         38.5004
 -12787480.22246 -10622549.79746  22629254.7584                   22629246.3324
        40.0004         41.7504
  -9583635.76647  -7442056.46646  23578523.0784                   23578514.7114
        42.7504         38.5004
  -8522789.87047  -7099756.66145  22173842.0634                   22173831.1764
        44.5004         31.0004
  -9045494.50546  -7018784.49445  23716361.5234                   23716353.3324
        37.2504         34.0004
 -28056158.34448 -21757750.40449  20515056.3054                   20515047.1764
        53.5004         55.0004
 -10098531.83746  -6255930.79144  23817822.3914                   23817809.9804
        40.5004         26.0004
 -11241436.56346  -8502338.84543  23976804.8674                   23976795.5044
        36.5004         22.5004
   -391995.03355   -276112.57455  25192576.0944                   25192563.9774
        34.0004         30.5004
 -17196711.68048 -19778013.82449  20719978.0704                   20719968.8834
        51.7504         54.7504
 23  1  6  0 10  0.0000000  0 10G23G24G08G22G27G10G21G18G31G32
 -12198247.11047 -11327015.63546  21713974.5634                   21713963.2074
        46.0004         38.0004
 -12728126.10246 -10576299.82746  22640549.3524                   22640540.8674
        39.7504         41.0004
  -9543744.38947  -7410972.29246  23586113.8834                   23586105.5744
        42.2504         38.0004
  -8597069.77747  -7157637.09645  22159706.5634                   22159696.3794
        44.2504         30.2504
  -8960959.61346  -6952913.12245  23732448.2734                   23732439.8484
        37.5004         34.5004
 -28052120.47548 -21754604.00649  20515824.9224                   20515815.5594
        53.7504         55.0004
 -10176327.45746  -6316550.73644  23803017.7734                   23803005.4804
        39.2504         25.5004
 -11129556.58946  -8415159.63943  23998096.8134                   23998085.5744
        38.0004         22.0004
   -510268.08046   -368273.33945  25170070.2664                   25170056.0984
        36.7504         31.0004
 -17227487.10248 -19801994.66449  20714121.7974                   20714112.1994
        52.5004         54.7504
 23  1  6  0 10 30.0000000  0 10G23G24G08G22G27G10G21G18G31G32
 -12138052.99147 -11280111.13246  21725429.4454                   21725418.2074
        46.0004         38.0004
 -12668223.27546 -10529622.29946  22651949.2664                   22651939.8444
        39.2504         41.0004
  -9503387.54747  -7379525.42046  23593792.7034                   23593785.0394
        42.5004         37.7504
  -8671047.78647  -7215282.28045  22145629.5474                   22145618.7194
        45.0004         31.0004
  -8876195.11846  -6886862.88345  23748578.3984                   23748570.0314
        37.5004         33.7504
 -28047793.23448 -21751232.13149  20516648.3204                   20516639.2504
        52.2504         55.0004
 -10253892.44546  -6376990.98644  23788257.2734                   23788245.0984
        40.7504         26.0004
 -11017527.53546  -8327864.28143  24019413.0784                   24019404.1254
        37.2504         22.5004
   -628619.44346   -460495.06945  25147552.6644                   25147538.9654
        39.2504         32.0004
 -17257846.05948 -19825650.97849  20708344.5474                   20708335.0664
        52.5004         54.7504
 23  1  6  0 11  0.0000000  0 11G23G24G08G22G27G10G21G18G31G01G32
 -12077619.98847 -11233020.47346  21736928.8754                   21736917.9304
        46.0004         38.2504
 -12607774.93146 -10482519.68946  22663452.1884                   22663442.8244
        39.7504         41.5004
  -9462567.98347  -7347717.98346  23601561.2274                   23601552.8594
        42.5004         38.0004
  -8744723.81047  -7272692.14845  22131609.2344                   22131598.3484
        44.0004         30.2504
  -8791205.14346  -6820636.92445  23764751.6724                   23764742.6604
        38.0004         33.7504
 -28043177.03148 -21747635.09549  20517526.6484                   20517517.6954
        52.0004         54.7504
 -10331225.91646  -6437250.80944  23773540.8984                   23773529.8364
        40.5004         24.2504
 -10905352.44746  -8240455.16044  24040761.0474                   24040750.5124
        39.0004         24.5004
   -747048.17356   -552777.32255  25125011.2424                   25125001.0594
        37.2504         31.5004
    365442.35415                  25361120.578
        30.750
 -17287789.65548 -19848983.64249  20702646.3444                   20702637.1564
        51.7504         55.0004
 23  1  6  0 11 30.0000000  0 11G23G24G08G22G27G10G21G18G31G01G32
 -12016945.58347 -11185741.73046  21748475.5164                   21748464.1604
        46.2504         37.5004
 -12546780.42746 -10434991.47946  22675058.4534                   22675050.0274
        39.0004         41.0004
  -9421285.21847  -7315549.61246  23609417.4224                   23609408.2934
        42.0004         37.7504
  -8818094.34147  -7329863.97545  22117647.4384                   22117636.4344
        45.0004         31.2504
  -8705990.04546  -6754235.54245  23780967.2664                   23780958.8404
        36.5004         32.2504
 -28038268.51148 -21743810.27349  20518460.9224                   20518451.5594
        53.2504         54.7504
 -10408323.11346  -6497326.55244  23758871.5944                   23758858.3054
        41.5004         25.0004
 -10793030.77546  -8152931.80043  24062135.3054                   24062124.0084
        38.0004         22.7504
   -865548.11256   -645114.97955  25102461.9844                   25102450.2194
        37.5004         30.5004
    252524.697 5                  25339633.172
        32.250
 -17317315.25548 -19871990.58549  20697027.7734                   20697018.2344
        51.5004         54.7504
 23  1  6  0 12  0.0000000  0 11G23G24G08G22G27G10G21G18G31G01G32
 -11956034.46547 -11138278.52146  21760065.9224                   21760054.9774
        45.5004         37.5004
 -12485246.27846 -10387042.80846  22686768.2114                   22686759.4344
        39.2504         40.7504
  -9379545.88247  -7283025.47946  23617359.7034                   23617351.9224
        42.5004         38.0004
  -8891162.98447  -7386800.57145  22103742.7194                   22103731.9494
        44.5004         31.2504
  -8620557.39646  -6687664.67945  23797225.7664                   23797216.4614
        37.7504         33.5004
 -28033071.76848 -21739760.86449  20519449.6484                   20519440.6954
        52.7504         54.7504
 -10485186.52046  -6557220.09244  23744243.5554                   23744231.4964
        40.7504         25.5004
 -10680569.09046  -8065299.33343  24083535.7034                   24083524.9924
        38.0004         23.0004
   -984122.17155   -737510.59355  25079896.7664                   25079885.7624
        34.0004         30.2504
    139674.62355    295275.49952  25318158.0784                   25318152.9964
        30.0004         15.5004
 -17346427.41748 -19894675.38449  20691487.8674                   20691478.7974
        52.0004         54.7504
 23  1  6  0 12 30.0000000  0 11G23G24G08G22G27G10G21G18G31G01G32
 -11894883.94047 -11090628.76646  21771702.4064                   21771691.4024
        46.0004         37.2504
 -12423171.81146 -10338673.08045  22698580.7894                   22698571.8364
        39.0004         34.2504
  -9337348.68947  -7250144.56146  23625389.6564                   23625381.1724
        43.0004         38.2504
  -8963926.16147  -7443499.12145  22089896.2814                   22089885.3954
        44.0004         30.5004
  -8534907.46446  -6620924.43445  23813522.9384                   23813514.8634
        36.5004         32.7504
 -28027583.37948 -21735484.19449  20520494.2114                   20520484.7894
        53.0004         55.0004
 -10561811.30046  -6616927.68844  23729662.7814                   23729651.1914
        41.0004         25.2504
 -10567966.62246  -7977557.14543  24104962.9304                   24104952.2194
        38.0004         22.7504
  -1102762.92856   -829957.93455  25057321.4224                   25057309.4224
        36.5004         31.5004
     26897.16445    207396.92942  25296697.5394                   25296692.6914
        30.5004         16.2504
 -17375123.40948 -19917035.88349  20686027.3914                   20686017.8524
        52.0004         54.7504
 23  1  6  0 13  0.0000000  0 11G23G24G08G22G27G10G21G18G31G01G32
 -11833494.43047 -11042792.79546  21783385.1724                   21783373.4654
        45.5004         37.5004
 -12360559.28446 -10289884.09744  22710495.5554                   22710486.6024
        39.2504         29.2504
  -9294696.33147  -7216908.97846  23633506.2344                   23633497.6334
        42.5004         37.7504
  -9036383.05947  -7499959.01345  22076108.8984                   22076097.6024
        45.5004         31.7504
  -8449043.42245  -6554017.41845  23829862.1024                   23829854.2034
        35.0004         32.5004
 -28021802.78648 -21730979.83949  20521594.1414                   20521585.0704
        52.5004         54.7504
 -10638195.33046  -6676447.69944  23715127.6724                   23715114.7344
        41.2504         25.0004
 -10455225.57246  -7889707.01344  24126418.2664                   24126406.5594
        40.0004         25.2504
  -1221468.50446   -922455.79645  25034733.1804                   25034721.1804
        36.5004         33.0004
                                  25275250.6024                   25275245.0474
        29.0004         14.7504
 -17403403.49448 -19939072.29849  20680646.0234                   20680636.4264
        52.7504         54.7504
 23  1  6  0 13 30.0000000  0 11G23G24G08G22G27G10G21G18G31G01G32
 -11771866.65847 -10994771.15946  21795111.8984                   21795100.8954
        45.5004         37.2504
 -12297411.37646 -10240677.93145  22722512.0084                   22722503.4654
        39.2504         30.0004
  -9251591.35747  -7183320.69946  23641708.3834                   23641700.1914
        42.5004         37.5004
  -9108533.15847  -7556179.84645  22062378.2114                   22062367.7934
        45.0004         30.7504
  -8362968.96646  -6486946.41645  23846242.0704                   23846233.6454
        37.2504         32.5004
 -28015730.08448 -21726247.85849  20522749.8054                   20522740.4414
        52.7504         55.0004
 -10714337.53247  -6735779.28044  23700638.2974                   23700624.8324
        42.0004         26.0004
 -10342348.52246  -7801750.90444  24147897.2814                   24147886.3364
        38.7504         24.5004
  -1340237.16245  -1015002.85745  25012130.2504                   25012119.6564
        34.7504         31.5004
                                  25253818.9844                   25253812.3164
        31.5004         15.5004
 -17431268.36548 -19960785.17349  20675343.2894                   20675334.0434
        52.0004         54.7504
 23  1  6  0 14  0.0000000  0 10G23G24G08G22G27G10G21G18G31G32
 -11710000.74647 -10946563.96746  21806884.4694                   21806873.4654
        45.0004         37.7504
 -12233730.21746 -10191056.24244  22734629.7344                   22734621.4264
        38.2504         29.5004
  -9208035.52447  -7149381.10946  23649997.6954                   23649988.5664
        43.0004         37.0004
  -9180375.67447  -7612161.01345  22048708.2114                   22048696.5044
        45.0004         31.0004
  -8276687.15546  -6419713.84345  23862661.3594                   23862652.1724
        37.2504         32.2504
 -28009364.42548 -21721287.61049  20523960.9384                   20523951.6334
        51.7504         54.7504
 -10790235.75847  -6794920.73544  23686195.4694                   23686183.1764
        42.2504         27.0004
 -10229337.70346  -7713690.52844  24169402.5084                   24169391.9734
        39.0004         24.2504
  -1459066.05145  -1107596.81445  24989517.5474                   24989507.9494
        35.2504         31.7504
 -17458718.10748 -19982174.56749  20670119.8204                   20670110.5744
        51.5004         55.0004
 23  1  6  0 14 30.0000000  0 11G23G24G08G22G27G10G21G18G31G01G32
 -11647898.24447 -10898172.41446  21818702.2664                   21818691.6134
        45.0004         37.2504
 -12169519.32546 -10141021.78644  22746847.6484                   22746840.1604
        37.7504         29.2504
  -9164033.01147  -7115093.45346  23658370.2734                   23658362.1414
        42.2504         37.2504
  -9251911.00747  -7667902.79645  22035094.7274                   22035083.8404
        44.2504         30.5004
  -8190202.33646  -6352323.08845  23879118.5944                   23879110.0514
        37.0004         32.7504
 -28002706.78948 -21716099.84149  20525227.8914                   20525218.8794
        51.5004         54.7504
 -10865888.92147  -6853871.22444  23671799.2274                   23671786.1724
        42.5004         26.0004
 -10116196.33646  -7625528.47544  24190933.0944                   24190921.7384
        39.7504         25.0004
  -1577953.76845  -1200236.63045  24966893.2664                   24966883.9024
        33.5004         31.0004
   -423453.13955    -95389.27453  25211000.4224                   25210987.6024
        33.0004         18.5004
 -17485754.18148 -20003241.63549  20664974.8364                   20664965.4144
        51.2504         54.7504
 23  1  6  0 15  0.0000000  0 11G23G24G08G22G27G10G21G18G31G01G32
 -11585555.89447 -10849593.96446  21830565.6804                   21830554.9104
        44.7504         37.0004
 -12104777.39646 -10090573.51544  22759169.3134                   22759159.8914
        39.0004         29.0004
  -9119581.41147  -7080455.86046  23666828.9304                   23666821.7344
        42.2504         37.5004
  -9323135.01547  -7723401.99845  22021541.3674                   22021530.2464
        44.2504         31.5004
  -8103514.10946  -6284773.84345  23895614.5704                   23895606.3794
        37.0004         33.5004
 -27995753.44648 -21710681.65649  20526551.0394                   20526541.8524
        51.2504         54.7504
 -10941291.99347  -6912626.85844  23657451.8134                   23657437.9384
        42.0004         27.0004
 -10002923.17646  -7537263.65743  24212486.8914                   24212476.8244
        38.0004         22.7504
  -1696894.02245  -1292917.38445  24944261.5944                   24944250.3554
        35.5004         31.7504
                                  25189614.1414                   25189606.4184
        30.0004         13.7504
 -17512373.27848 -20023983.78349  20659909.5234                   20659900.2194
        51.2504         54.7504
 23  1  6  0 15 30.0000000  0 11G23G24G08G22G27G10G21G18G31G01G32
 -11522976.98047 -10800831.18946  21842473.3674                   21842463.1844
        44.5004         36.7504
 -12039509.73746 -10039715.59944  22771588.2034                   22771580.4224
        37.5004         28.2504
  -9074686.60047  -7045472.92646  23675372.9224                   23675364.2624
        42.5004         36.7504
  -9394050.49547  -7778660.78645  22008046.3204                   22008035.4924
        44.5004         31.0004
  -8016628.68346  -6217070.89845  23912149.2344                   23912140.3404
        37.2504         33.5004
 -27988506.23548 -21705034.47849  20527930.0704                   20527920.6484
        52.0004         54.7504
 -11016445.80746  -6971188.23044  23643148.9774                   23643136.8014
        41.5004         25.7504
  -9889523.34346  -7448900.19843  24234066.2894                   24234057.0434
        39.2504         23.7504
  -1815887.36245  -1385639.46545  24921614.7424                   24921606.3754
        32.7504         31.7504
                                  25168245.5864                   25168238.8594
        30.5004         17.2504
 -17538578.66448 -20044403.54749  20654923.1334                   20654913.5944
        51.5004         55.0004
 23  1  6  0 16  0.0000000  0 11G23G24G08G22G27G10G21G18G31G01G32
 -11460162.96847 -10751885.22246  21854426.8134                   21854416.5124
        44.7504         36.7504
 -11973719.79646  -9988450.69344  22784108.3364                   22784100.1454
        38.5004         28.0004
  -9029352.12147  -7010147.37546  23683999.8444                   23683991.1254
        42.7504         36.5004
  -9464657.13947  -7833678.92445  21994610.5944                   21994599.5904
        44.5004         30.5004
  -7929550.41346  -6149217.73345  23928717.7274                   23928710.4734
        36.5004         33.2504
 -27980966.38348 -21699159.27149  20529364.9384                   20529355.7504
        53.0004         55.0004
 -11091349.37446  -7029554.63744  23628894.5084                   23628882.4494
        41.5004         27.0004
  -9776000.18146  -7360440.61643  24255669.5164                   24255658.7464
        39.5004         23.2504
  -1934931.96745  -1478401.57745  24898965.6644                   24898952.9024
        35.2504         30.5004
   -760338.27155   -357897.33552  25146893.4924                   25146887.0594
        32.0004         16.2504
 -17564371.72148 -20064502.02149  20650014.6024                   20650005.1804
        51.5004         54.7504
 23  1  6  0 16 30.0000000  0 11G23G24G08G22G27G10G21G18G31G01G32
 -11397109.00347 -10702752.27246  21866426.6414                   21866415.5784
        45.0004         36.7504
 -11907404.76146  -9936776.65344  22796727.6884                   22796719.0274
        38.2504         28.2504
  -8983575.00447  -6974476.92346  23692711.0554                   23692701.8674
        42.5004         36.5004
  -9534949.52447  -7888452.18245  21981233.9774                   21981223.3834
        44.5004         31.0004
  -7842277.23546  -6081212.66745  23945327.7974                   23945318.0234
        36.7504         33.0004
 -27973128.21348 -21693051.60249  20530856.5474                   20530847.5354
        52.2504         55.0004
 -11165995.67147  -7087720.56144  23614690.7194                   23614678.1914
        42.2504         26.2504
  -9662350.72146  -7271882.61943  24277296.6954                   24277285.6334
        38.7504         23.0004
  -2054020.45846  -1571197.80045  24876303.6094                   24876290.8484
        36.5004         31.5004
                                  25125557.320
        32.250
 -17589747.62948 -20084275.45449  20645185.7814                   20645176.2424
        51.7504         55.0004
 23  1  6  0 17  0.0000000  0 11G23G24G08G22G27G10G21G18G31G01G32
 -11333820.54947 -10653436.59246  21878469.4224                   21878458.4184
        44.5004         36.5004
 -11840572.20546  -9884699.32844  22809444.7424                   22809436.5514
        38.0004         28.2504
  -8937362.52046  -6938467.19845  23701505.4384                   23701495.7814
        41.5004         35.5004
  -9604931.98747  -7942983.94745  21967916.8984                   21967905.8954
        44.5004         31.0004
  -7754817.62445  -6013062.31345  23961969.8284                   23961961.0514
        35.7504         32.5004
 -27964996.42748 -21686715.15249  20532404.0394                   20532394.8524
        51.5004         54.7504
 -11240388.10146  -7145688.65344  23600533.3204                   23600521.9654
        41.5004         25.5004
  -9548582.38346  -7183231.99343  24298945.9694                   24298935.4344
        39.2504         23.7504
  -2173155.10945  -1664029.99145  24853630.9534                   24853620.4774
        34.0004         32.2504
                                  25104242.6254                   25104234.0824
        30.5004         16.7504
 -17614711.84648 -20103728.07949  20640435.2504                   20640425.4774
        51.5004         55.0004
 23  1  6  0 17 30.0000000  0 11G23G24G08G22G27G10G21G18G31G01G32
 -11270298.65447 -10603939.03446  21890556.8444                   21890546.4844
        44.2504         36.5004
 -11773225.14846  -9832221.10244  22822261.5554                   22822252.6024
        38.5004         28.7504
  -8890717.55646  -6902120.49746  23710381.0944                   23710372.8444
        41.5004         36.2504
  -9674604.56547  -7997274.23745  21954658.9694                   21954648.0824
        45.0004         31.5004
  -7667175.34245  -5944769.65145  23978646.2734                   23978639.1374
        35.2504         32.0004
 -27956571.02048 -21680149.89349  20534007.3834                   20533998.4304
        52.5004         54.7504
 -11314525.51346  -7203458.03444  23586425.5784                   23586413.4024
        41.5004         26.7504
  -9434698.06546  -7094490.97343  24320616.8914                   24320606.8834
        38.2504         22.7504
  -2292333.98345  -1756896.68445  24830952.9144                   24830941.6764
        35.0004         31.7504
  -1096401.82255   -572440.77552  25082942.8444                   25082935.2974
        32.5004         17.7504
 -17639265.38048 -20122860.70149  20635762.9614                   20635753.1294
        51.7504         55.0004
 23  1  6  0 18  0.0000000  0 10G23G24G08G22G27G10G21G18G31G32
 -11206534.20747 -10554252.46146  21902691.7664                   21902680.4104
        45.0004         36.2504
 -11705356.58646  -9779336.47944  22835176.0314                   22835167.9574
        38.0004         28.0004
  -8843633.31046  -6865431.50446  23719340.4924                   23719333.7074
        41.0004         36.0004
  -9743957.10647  -8051315.16145  21941460.8364                   21941450.6524
        45.0004         32.0004
  -7579344.29646  -5876329.90345  23995361.0634                   23995352.3444
        36.5004         32.0004
 -27947842.06948 -21673348.11749  20535668.2584                   20535659.2464
        53.0004         54.7504
 -11388396.61446  -7261019.93744  23572368.0784                   23572356.1374
        40.7504         27.0004
  -9320690.50746  -7005653.97344  24342313.0474                   24342301.9844
        39.7504         24.2504
  -2411544.83645  -1849788.26845  24808267.3754                   24808257.0164
        35.0004         32.0004
 -17663399.13948 -20141666.21549  20631170.4534                   20631160.8554
        52.5004         54.7504
 23  1  6  0 18 30.0000000  0 11G23G24G08G22G27G10G21G18G31G01G32
 -11142537.09547 -10504384.58945  21914869.8754                   21914858.7544
        44.5004         35.7504
 -11636978.52746  -9726054.91644  22848188.7734                   22848179.4694
        38.7504         26.2504
  -8796121.74646  -6828409.54145  23728381.4534                   23728373.7894
        41.2504         35.7504
  -9812998.50847  -8105113.61845  21928322.6414                   21928312.3984
        43.7504         32.2504
  -7491337.14745  -5807752.92345  24012107.7584                   24012099.7424
        34.7504         32.7504
 -27938819.23848 -21666317.33449  20537385.3984                   20537376.2704
        52.2504         55.0004
 -11462009.19046  -7318380.34144  23558359.7894                   23558348.4924
        40.5004         26.5004
  -9206571.51846  -6916730.06944  24364027.5784                   24364018.0984
        37.7504         24.5004
  -2530794.84345  -1942710.34545  24785575.3524                   24785564.3484
        35.7504         32.7504
                                  25040400.1094                   25040393.0904
        31.5004         14.7504
 -17687123.06148 -20160152.38249  20626655.7504                   20626646.2704
        52.0004         54.7504
 23  1  6  0 19  0.0000000  0 11G23G24G08G22G27G10G21G18G31G01G32
 -11078305.12647 -10454333.72046  21927092.2734                   21927081.4454
        44.2504         36.0004
 -11568090.78046  -9672376.13244  22861297.5784                   22861288.0394
        39.2504         27.5004
  -8748182.21646  -6791054.07945  23737504.8914                   23737495.5864
        41.7504         35.2504
  -9881725.80447  -8158667.33445  21915244.5164                   21915233.8634
        45.0004         31.2504
  -7403154.58345  -5739039.22745  24028888.2274                   24028880.6214
        35.0004         32.2504
 -27929499.10448 -21659054.89349  20539158.6094                   20539149.4224
        50.7504         55.0004
 -11535358.48846  -7375535.62744  23544402.0944                   23544390.1524
        40.7504         26.5004
  -9092340.79246  -6827719.14744  24385765.4224                   24385755.4144
        38.5004         24.5004
  -2650078.74446  -2035658.86345  24762876.3364                   24762865.1564
        36.5004         32.5004
                                  25019158.3284                   25019152.1294
        28.7504         15.5004
 -17710434.95448 -20178317.48249  20622219.8134                   20622209.9224
        51.7504         54.7504
 23  1  6  0 19 30.0000000  0 11G23G24G08G22G27G10G21G18G31G01G32
 -11013838.24147 -10404099.80145  21939360.4614                   21939348.6374
        44.7504         35.7504
 -11498695.56046  -9618301.92144  22874501.6724                   22874493.9494
        37.5004         27.0004
  -8699816.95046  -6753366.85445  23746708.8984                   23746698.8914
        41.2504         35.2504
  -9950138.18847  -8211975.67045  21902226.2194                   21902215.5664
        44.7504         32.2504
  -7314799.50545  -5670191.11445  24045702.5164                   24045694.0314
        35.2504         32.2504
 -27919880.79348 -21651560.10349  20540988.8674                   20540979.9734
        52.0004         55.0004
 -11608442.05046  -7432483.84444  23530494.8054                   23530482.9224
        41.5004         26.7504
  -8978000.27246  -6738622.64643  24407524.4144                   24407514.1724
        39.0004         22.5004
  -2769393.40046  -2128631.33545  24740171.4064                   24740160.2274
        36.2504         32.2504
                                  24997936.4694                   24997930.5044
        30.5004         14.7504
 -17733334.79448 -20196161.51349  20617862.1644                   20617851.9804
        52.7504         55.0004
 23  1  6  0 20  0.0000000  0 11G23G24G08G22G27G10G21G18G31G01G32
 -10949136.07147 -10353682.53945  21951672.2504                   21951661.3634
        44.2504         35.7504
 -11428794.36546  -9563833.48044  22887803.9924                   22887795.5084
        38.0004         27.2504
  -8651028.12546  -6715349.59945  23755991.5474                   23755984.4694
        39.5004         35.0004
 -10018233.91247  -8265037.24845  21889267.7814                   21889257.2464
        45.0004         32.7504
  -7226274.20445  -5601210.38445  24062547.7974                   24062539.5474
        35.2504         30.7504
 -27909963.31048 -21643832.18849  20542876.4224                   20542866.7664
        50.7504         55.2504
 -11681257.59647  -7489223.21344  23516639.1644                   23516626.7544
        42.0004         27.5004
  -8863551.25246  -6649441.65644  24429302.3594                   24429292.9384
        37.7504         24.5004
  -2888735.52146  -2221625.18245  24717462.0474                   24717450.8094
        36.5004         33.2504
                                  24976734.2424                   24976726.0514
        26.2504         16.2504
 -17755822.22548 -20213684.17449  20613582.4534                   20613572.8554
        51.2504         54.7504
 23  1  6  0 20 30.0000000  0 11G23G24G08G22G27G10G21G18G31G01G32
 -10884201.51547 -10303084.20346  21964029.1564                   21964018.3874
        44.5004         36.2504
 -11358392.51846  -9508974.91444  22901202.1094                   22901192.3364
        38.7504         28.2504
  -8601820.57646  -6677006.10545  23765356.2664                   23765349.2464
        40.5004         35.0004
 -10086015.05247  -8317853.69845  21876370.3284                   21876358.8554
        45.5004         32.7504
  -7137584.62045  -5532101.61245  24079425.5704                   24079416.9694
        35.5004         31.7504
 -27899749.04848 -21635873.02449  20544820.2584                   20544811.0124
        51.0004         54.7504
 -11753805.88246  -7545754.32544  23502833.4224                   23502820.5434
        41.5004         26.0004
  -8748998.72646  -6560179.94344  24451101.9924                   24451091.1054
        39.2504         25.2504
  -3008104.89446  -2314640.28445  24694746.8204                   24694734.9964
        37.0004         32.5004
    653175.70955   -954062.41553  24955554.6254                   24955547.8984
        31.7504         19.0004
 -17777900.25248 -20230887.82349  20609381.4454                   20609371.7894
        52.0004         55.0004
 23  1  6  0 21  0.0000000  0 11G23G24G08G22G27G10G21G18G31G01G32
 -10819028.60047 -10252300.12045  21976431.0784                   21976420.1334
        44.5004         35.5004
 -11287485.95646  -9453723.03444  22914694.0864                   22914685.7774
        38.0004         26.0004
  -8552190.00646  -6638332.95445  23774801.6724                   23774793.2464
        41.5004         35.5004
 -10153474.73747  -8370419.66245  21863532.3754                   21863521.7234
        45.5004         33.0004
  -7048727.49245  -5462862.29145  24096334.0164                   24096326.0594
        34.5004         31.7504
 -27889230.75348 -21627676.95149  20546821.7584                   20546812.1604
        52.5004         55.0004
 -11826078.47147  -7602070.63544  23489081.0394                   23489068.5124
        42.5004         26.0004
  -8634338.39746  -6470834.24543  24472920.0864                   24472910.6054
        38.0004         23.0004
  -3127492.58246  -2407669.65745  24672027.5944                   24672016.7074
        37.0004         32.2504
                                  24934397.6954                   24934390.3244
        30.7504         14.7504
 -17799562.90648 -20247767.80749  20605259.1024                   20605249.3284
        52.7504         54.7504
 23  1  6  0 21 30.0000000  0 11G23G24G08G22G27G10G21G18G31G01G32
 -10753623.39847 -10201335.03146  21988877.0784                   21988866.1914
        44.2504         36.0004
 -11216082.99546  -9398084.36844  22928280.8674                   22928272.8524
        37.7504         26.5004
  -8502144.86546  -6599336.75445  23784323.3984                   23784315.2664
        39.5004         34.5004
 -10220618.09847  -8422739.14445  21850756.0784                   21850744.8984
        45.5004         33.2504
  -6959711.89845  -5393499.50045  24113271.6884                   24113265.5474
        34.5004         31.7504
 -27878413.77848 -21619248.13949  20548880.2664                   20548870.6094
        50.7504         54.7504
 -11898079.17046  -7658175.06544  23475378.5084                   23475366.9184
        41.5004         26.2504
  -8519578.35746  -6381410.87043  24494757.8754                   24494748.9224
        37.2504         22.7504
  -3246901.44946  -2500715.54445  24649305.6564                   24649293.6564
        37.2504         33.0004
                                  24913259.9844                   24913253.7274
        30.5004         15.5004
 -17820816.35248 -20264328.93049  20601214.9454                   20601205.1134
        51.5004         54.7504
 23  1  6  0 22  0.0000000  0 11G23G24G08G22G27G10G21G18G31G01G32
 -10687984.52047 -10150187.87446  22001367.9144                   22001357.4964
        44.5004         36.2504
 -11144184.48746  -9342059.56744  22941964.2584                   22941955.0704
        38.2504         26.5004
  -8451685.72046  -6560017.95545  23793926.3364                   23793916.7384
        40.2504         34.7504
 -10287442.81847  -8474810.34845  21838039.2894                   21838028.4024
        45.7504         32.7504
  -6870539.12845  -5324014.22345  24130241.3754                   24130233.6524
        35.0004         30.2504
 -27867296.31848 -21610585.17849  20550995.9384                   20550986.5744
        50.5004         54.7504
 -11969804.63747  -7714065.01344  23461729.9224                   23461717.6884
        42.0004         26.5004
  -8404719.10646  -6291910.17644  24516616.1414                   24516605.7234
        38.7504         24.5004
  -3366326.90546  -2593774.36445  24626579.4534                   24626568.3324
        37.2504         33.5004
                                  24892145.0474                   24892139.7274
        30.7504         16.7504
 -17841659.25648 -20280570.14249  20597248.2664                   20597238.5514
        51.2504         54.7504
 23  1  6  0 22 30.0000000  0 11G23G24G08G22G27G10G21G18G31G01G32
 -10622114.88247 -10098860.89246  22013902.6564                   22013892.0044
        44.5004         36.0004
 -11071795.36646  -9285652.44944  22955738.7584                   22955730.2154
        38.2504         27.0004
  -8400817.60046  -6520380.48745  23803606.2194                   23803597.9694
        40.2504         35.0004
 -10353951.26647  -8526635.07745  21825383.0004                   21825372.3484
        46.2504         33.5004
  -6781215.05845  -5254411.04945  24147239.3284                   24147231.8404
        35.0004         30.5004
 -27855880.16148 -21601689.47249  20553168.1884                   20553158.8244
        50.5004         54.7504
 -12041255.44647  -7769740.97144  23448134.0704                   23448121.0164
        42.2504         28.0004
  -8289765.31646  -6202335.82943  24538490.3204                   24538480.7234
        37.0004         22.5004
  -3485769.21846  -2686846.31945  24603849.1644                   24603838.8054
        36.7504         34.2504
    209120.45355  -1300079.76152  24871053.2424                   24871047.5704
        32.2504         16.2504
 -17862094.62948 -20296493.80149  20593359.6564                   20593350.1764
        51.2504         55.0004
 23  1  6  0 23  0.0000000  0 11G23G24G08G22G27G10G21G18G31G01G32
 -10556007.21547 -10047348.44445  22026482.4304                   22026471.6024
        46.0004         35.5004
 -10998910.70946  -9228859.21744  22969607.0554                   22969598.9224
        36.5004         27.5004
  -8349535.60246  -6480420.50245  23813364.4224                   23813357.6374
        39.2504         35.5004
 -10420134.90747  -8578206.73545  21812789.0634                   21812777.9414
        46.0004         33.5004
  -6691735.12745  -5184686.45345  24164266.1254                   24164259.6914
        34.2504         31.2504
 -27844157.52148 -21592554.94949  20555398.7344                   20555389.7234
        50.5004         54.7504
 -12112422.00346  -7825195.41344  23434591.2034                   23434579.1454
        41.7504         28.5004
  -8174711.78746  -6112683.72343  24560384.9384                   24560374.1094
        38.2504         22.5004
  -3605217.88046  -2779923.20645  24581120.5704                   24581108.8054
        38.5004         34.7504
                                  24849987.5164                   24849979.9104
        32.2504         15.5004
 -17882115.30148 -20312094.31549  20589549.8054                   20589540.4414
        51.2504         55.0004
 23  1  6  0 23 30.0000000  0 11G23G24G08G22G27G10G21G18G31G01G32
