     2.10           OBSERVATION DATA    G (GPS)             RINEX VERSION / TYPE
teqc  2004Apr5                          20041208 15:58:03UTCPGM / RUN BY / DATE
OBSERVATION MODE: Permanent                                 COMMENT
CHUM Chumysh (CHUM)                                         MARKER NAME
25601M001                                                   MARKER NUMBER
T136                ROGUE SNR-8000       3.20               REC # / TYPE / VERS
113                 AOAD/M_T        NONE                    ANT # / TYPE
        0.0900        0.0000        0.0000                  ANTENNA: DELTA H/E/N
  1228950.8688  4508079.8916  4327868.4910                  APPROX POSITION XYZ
  74.75109757  42.99850107  716.3249  LonLatAlt  S/W        COMMENT
Linux 2.0.36|Pentium II|gcc -static|Linux|486/DX+           COMMENT
BIT 2 OF LLI FLAGS DATA COLLECTED UNDER A/S CONDITION       COMMENT
Konovalov           IVTAN                                   OBSERVER / AGENCY
     1     1                                                WAVELENGTH FACT L1/2
     5    L1    L2    C1    P2    P1                        # / TYPES OF OBSERV
    30.0000                                                 INTERVAL
    P1 =    P1  TurboRogue; =    Y1  Benchmark              COMMENT
    L1 = L1(P1) TurboRogue; = L1(Y1) Benchmark              COMMENT
    P2 =    P2  TurboRogue; =    Y2  Benchmark              COMMENT
    L2 = L2(P2) TurboRogue; = L2(Y2) Benchmark              COMMENT
 SNR is mapped to RINEX snr flag value [1,4-9]              COMMENT
    SNR:  >=316 >=100 >=31.6 >=10 >=3.2    >0 bad=0         COMMENT
L1 & L2:      9     8     7     6     5     4     1         COMMENT
  2002     1     1     0     0    0.0000000     GPS         TIME OF FIRST OBS
  2002     1     1    23    59   30.0000000     GPS         TIME OF LAST OBS
                                                            END OF HEADER
 02  1  1  0  0  0.0000000  0  8G22G25G21G20G29G 1G11G14
  -3960394.21548  -3086021.78144  24148520.351    24148523.553
 -24367416.44849 -18987591.60147  20454029.924    20454030.191
  -6503193.28548                  24082127.278
 -15553197.66449 -12119372.17346  22295367.483    22295368.834
 -14899564.35549 -11610045.92747  20903134.626    20903135.052
  -3281447.58748  -2556973.01844  24495071.261    24495072.630
 -14522337.59449 -11316109.00746  22570513.682    22570513.112
  -6428797.39949  -5009448.31346  22338326.857    22338326.834
 02  1  1  0  0 30.0000000  0  8G22G25G21G20G29G 1G11G14
  -4074273.99348  -3174759.31944  24126848.239    24126850.653
 -24367923.49949 -18987986.69947  20453933.274    20453933.627
  -6397871.93448  -4985353.61544  24102169.451    24102172.909
 -15638448.72649 -12185801.56046  22279145.928    22279146.005
 -14862434.84249 -11581113.85047  20910200.421    20910200.730
  -3364545.84048  -2621724.93844  24479257.092    24479260.245
 -14473295.47049 -11277894.39846  22579845.751    22579846.388
  -6359295.55149  -4955291.05246  22351552.630    22351552.999
 02  1  1  0  1  0.0000000  0  8G22G25G21G20G29G 1G11G14
  -4188159.25848  -3263501.12544  24105177.229    24105177.984
 -24367968.21049 -18988021.52847  20453924.809    20453924.904
  -6292359.35748                  24122247.936
 -15723436.11249 -12252025.50246  22262972.207    22262972.687
 -14825082.97049 -11552008.50747  20917308.236    20917308.628
  -3447589.57748  -2686434.37144  24463455.454    24463456.876
 -14423808.67949 -11239333.30946  22589261.624    22589262.738
  -6289647.35449  -4901019.75146  22364806.816    22364806.329
 02  1  1  0  1 30.0000000  0  8G22G25G21G20G29G 1G11G14
  -4302047.99748  -3352245.61644  24083503.743    24083507.314
 -24367552.24449 -18987697.38547  20454003.958    20454004.093
  -6186657.92848  -4820771.36544  24142362.317    24142365.409
 -15808158.49149 -12318042.93146  22246850.723    22246851.317
 -14787509.85949 -11522730.76646  20924457.982    20924458.485
  -3530579.36748  -2751101.73544  24447662.379    24447668.673
 -14373880.54449 -11200428.29946  22598764.145    22598764.409
  -6219854.05249  -4846635.38646  22378087.558    22378087.869
 02  1  1  0  2  0.0000000  0  8G22G25G21G20G29G 1G11G14
  -4415933.21048  -3440987.39944  24061833.783    24061835.389
 -24366672.33649 -18987011.73147  20454171.523    20454171.771
  -6080765.36548                  24162512.481
 -15892609.56749 -12383848.95946  22230780.226    22230780.771
 -14749711.89149 -11493277.81046  20931650.716    20931651.101
  -3613511.34348  -2815724.07844  24431881.538    24431883.074
 -14323509.32049 -11161178.03246  22608350.144    22608350.173
  -6149912.41149  -4792135.42246  22391397.186    22391397.605
 02  1  1  0  2 30.0000000  0  8G22G25G21G20G29G 1G11G14
  -4529798.95948  -3529713.97144  24040164.483    24040166.353
 -24365316.10149 -18985954.91847  20454429.302    20454429.603
  -5974670.34448  -4655586.32144  24182702.200    24182705.266
 -15976773.81449 -12449431.49046  22214763.568    22214764.241
 -14711676.18249 -11463639.60346  20938888.914    20938889.308
  -3696371.89548  -2880290.77444  24416114.294    24416115.298
 -14272684.02049 -11121573.93846  22618020.350    22618021.010
  -6079809.77749  -4737510.01146  22404737.165    22404737.165
 02  1  1  0  3  0.0000000  0  8G22G25G21G20G29G 1G11G14
  -4643658.40748  -3618435.62744  24018499.013    24018503.592
 -24363500.89149 -18984540.45747  20454774.512    20454774.560
  -5868390.57648                  24202926.905
 -16060664.87549 -12514801.14146  22198800.403    22198800.733
 -14673419.08949 -11433828.88946  20946168.955    20946169.314
  -3779177.10648  -2944814.29444  24400355.763    24400358.446
 -14221423.10849 -11081630.40546  22627774.728    22627775.076
  -6009563.02649  -4682772.30546  22418104.704    22418105.047
 02  1  1  0  3 30.0000000  0  8G22G25G21G20G29G 1G11G14
  -4757516.99048  -3707156.66544  23996832.247    23996835.224
 -24361235.90649 -18982775.52647  20455205.677    20455205.875
  -5761936.36248  -4489819.65944  24223184.049    24223181.871
 -16144288.92549 -12579962.72246  22182886.965    22182887.503
 -14634949.30249 -11403852.43446  20953489.335    20953489.801
  -3861935.19948  -3009301.11245  24384608.546    24384612.293
 -14169737.47749 -11041355.91846  22637611.758    22637611.821
  -5939181.01249  -4627929.20046  22431498.369    22431498.314
 02  1  1  0  4  0.0000000  0  8G22G25G21G20G29G 1G11G14
  -4871363.50248  -3795868.24544  23975168.459    23975170.845
 -24358513.50549 -18980654.16047  20455723.942    20455723.963
  -5655301.68248                  24243476.581
 -16227635.39549 -12644908.01146  22167025.952    22167027.091
 -14596258.81949 -11373704.01046  20960851.605    20960852.108
  -3944637.61348  -3073744.56544  24368870.629    24368872.839
 -14117621.12749 -11000745.81846  22647528.529    22647529.108
  -5868655.76349  -4572974.47346  22444918.787    22444918.394
 02  1  1  0  4 30.0000000  0  8G22G25G21G20G29G 1G11G14
  -4985196.02748  -3884568.92644  23953505.908    23953509.353
 -24355336.06049 -18978178.22247  20456328.733    20456328.753
  -5548489.36448                  24263801.614
 -16310703.06449 -12709636.05246  22151219.542    22151219.973
 -14557349.16549 -11343384.80946  20968255.783    20968256.392
  -4027285.29648  -3138145.33344  24353143.188    24353146.377
 -14065077.35149 -10959802.65646  22657526.148    22657527.110
  -5797989.20149  -4517909.64046  22458365.557    22458365.903
 02  1  1  0  5  0.0000000  0  8G22G25G21G20G29G 1G11G14
  -5099011.67748  -3973256.47544  23931848.436    23931849.365
 -24351704.44549 -18975348.37947  20457019.697    20457019.845
  -5441500.81248  -4240129.77244  24284161.626    24284160.777
 -16393489.57449 -12774145.00646  22135465.234    22135466.054
 -14518220.56449 -11312894.99446  20975701.829    20975702.786
  -4109878.06448  -3202503.05145  24337426.152    24337427.963
 -14012108.69849 -10918528.39746  22667607.005    22667606.864
  -5727181.83049  -4462735.08546  22471840.099    22471840.276
 02  1  1  0  5 30.0000000  0  8G29G22G25G21G20G 1G11G14
 -14478872.97449 -11282234.53946  20983189.399    20983190.063
  -5212807.07248  -4061928.23144  23910192.615    23910194.635
 -24347619.33349 -18972165.16847  20457796.920    20457797.032
  -5334337.80948                  24304553.898
 -16475992.26849 -12838432.81846  22119765.949    22119766.224
  -4192415.31548  -3266818.31144  24321719.170    24321719.588
 -13958717.53449 -10876924.93246  22677766.901    22677767.490
  -5656234.10149  -4407451.14446  22485341.302    22485341.863
 02  1  1  0  6  0.0000000  0  8G29G22G25G21G20G 1G11G14
 -14439303.22549 -11251400.97146  20990719.469    20990720.035
  -5326575.93548  -4150579.27444  23888544.373    23888545.917
 -24343077.82249 -18968626.31647  20458661.065    20458661.134
  -5226999.22948                  24324979.362
 -16558205.19349 -12902494.82246  22104121.152    22104121.609
  -4274893.22748  -3331086.62445  24306024.784    24306029.049
 -13904902.07349 -10834990.87446  22688007.485    22688007.877
  -5585142.75049  -4352055.30846  22498869.350    22498869.972
 02  1  1  0  6 30.0000000  0  8G29G22G25G21G20G 1G11G14
 -14399512.59949 -11220395.29346  20998291.405    20998292.098
  -5440316.06548  -4239207.94944  23866899.607    23866902.569
 -24338081.99249 -18964733.46047  20459611.682    20459611.805
  -5119487.33348                  24345438.169
 -16640126.99849 -12966329.98146  22088532.306    22088531.998
  -4357312.57348  -3395309.48144  24290340.654    24290343.849
 -13850665.88549 -10792728.99045  22698328.537    22698328.920
  -5513909.17849  -4296548.63646  22512424.534    22512424.816
 02  1  1  0  7  0.0000000  0  8G22G25G21G20G29G 1G11G14
  -5554024.02348  -4327811.52545  23845262.233    23845263.796
 -24332632.20949 -18960486.86547  20460648.676    20460648.862
  -5011803.58648                  24365929.395
 -16721754.81049 -13029936.04146  22072998.256    22072998.721
 -14359500.61849 -11189217.13346  21005905.163    21005906.198
  -4439672.72148  -3459486.21345  24274668.301    24274672.387
 -13796011.16949 -10750140.97146  22708728.871    22708729.835
  -5442533.74749  -4240931.43746  22526007.030    22526007.334
 02  1  1  0  7 30.0000000  0  8G29G22G25G21G20G 1G11G14
 -14319259.38649 -11157860.33347  21013563.057    21013563.914
  -5667688.09348  -4416380.94644  23823632.370    23823634.637
 -24326721.01249 -18955880.72847  20461773.628    20461773.822
  -4903941.44848                  24386455.157
 -16803077.72649 -13093304.50846  22057523.943    22057524.356
  -4521964.97748  -3523610.03445  24259007.789    24259011.230
 -13740931.86149 -10707222.12145  22719210.093    22719211.035
  -5371008.18649  -4185197.26346  22539617.783    22539617.662
 02  1  1  0  8  0.0000000  0  8G29G22G25G21G20G 1G11G14
 -14278799.31449 -11126333.00546  21021262.296    21021262.943
  -5781315.87548  -4504922.03944  23802009.989    23802009.578
 -24320359.71249 -18950923.86547  20462984.288    20462984.350
  -4795912.98848                  24407012.727
 -16884103.57849 -13156441.50146  22042104.964    22042105.393
  -4604199.49548  -3587688.90345  24243360.810    24243360.357
 -13685440.65749 -10663982.30545  22729770.307    22729770.625
  -5299343.61949  -4129354.75646  22553255.066    22553255.507
 02  1  1  0  8 30.0000000  0  8G29G22G25G21G20G 1G11G14
 -14238114.22149 -11094630.34547  21029004.271    21029004.773
  -5894897.92848  -4593427.50944  23780395.484    23780398.640
 -24313542.61449 -18945611.83147  20464281.457    20464281.464
  -4687713.48548                  24427601.675
 -16964823.90849 -13219340.42546  22026744.128    22026744.697
  -4686369.67948  -3651717.66045  24227723.198    24227726.249
 -13629533.67749 -10620418.51345  22740408.301    22740408.770
  -5227534.04849  -4073399.26146  22566920.463    22566920.661
 02  1  1  0  9  0.0000000  0  8G29G22G25G21G20G 1G11G14
 -14197209.87149 -11062756.82847  21036788.312    21036788.873
  -6008436.57848  -4681899.14144  23758790.033    23758792.297
 -24306276.41649 -18939949.85447  20465664.061    20465664.124
  -4579350.38948                  24448223.452
 -17045241.35049 -13282003.33346  22011441.502    22011441.504
  -4768480.57848  -3715700.18145  24212097.657    24212101.766
 -13573218.72149 -10576536.84445  22751125.158    22751126.183
  -5155585.33849  -4017335.35046  22580611.318    22580611.993
 02  1  1  0  9 30.0000000  0  8G22G25G21G20G29G 1G11G14
  -6121927.89348  -4770333.89144  23737192.834    23737193.459
 -24298561.40749 -18933938.14847  20467132.097    20467132.083
  -4470825.19348                  24468873.733
 -17125353.18549 -13344428.10746  21996196.406    21996196.857
 -14156085.65649 -11030711.98847  21044613.914    21044614.645
  -4850531.24848  -3779635.80245  24196484.575    24196485.344
 -13516497.55549 -10532338.65345  22761919.203    22761919.872
  -5083497.33749  -3961162.89846  22594329.271    22594330.200
 02  1  1  0 10  0.0000000  0  8G22G25G21G20G29G 1G11G14
  -6235379.16948  -4858737.46444  23715604.834    23715607.076
 -24290408.89349 -18927585.53147  20468683.601    20468683.553
  -4362149.86948                  24489554.757
 -17205167.11549 -13406620.75846  21981008.570    21981009.025
 -14114752.10949 -10998504.02847  21052479.427    21052480.038
  -4932531.53448  -3843532.15045  24180880.283    24180882.855
 -13459382.72549 -10487833.68845  22772787.154    22772787.787
  -5011280.63949  -3904890.17146  22608071.871    22608072.608
 02  1  1  0 10 30.0000000  0  8G22G25G21G20G29G 1G11G14
  -6348773.53048  -4947096.66844  23694026.181    23694027.503
 -24281806.09349 -18920882.04447  20470320.655    20470320.685
  -4253312.47748                  24510266.173
 -17284666.95349 -13468568.65846  21965879.819    21965880.394
 -14073195.75649 -10966122.45747  21060387.821    21060388.354
  -5014467.60848  -3907378.44645  24165288.429    24165291.872
 -13401863.25049 -10443013.38645  22783732.541    22783732.772
  -4938922.09049  -3848506.90946  22621841.007    22621840.823
 02  1  1  0 11  0.0000000  0  8G22G25G21G20G29G 1G11G14
  -6462110.82648  -5035411.40644  23672458.234    23672460.587
 -24272756.60949 -18913830.49147  20472042.649    20472042.731
  -4144317.61448                  24531006.953
 -17363853.03549 -13530272.07846  21950811.739    21950811.590
 -14031419.53449 -10933569.56347  21068337.486    21068338.074
  -5096342.02348  -3971176.74145  24149708.518    24149708.881
 -13343944.26949 -10397881.78645  22794755.005    22794755.283
  -4866425.15949  -3792015.79446  22635636.639    22635636.924
 02  1  1  0 11 30.0000000  0  8G22G25G21G20G29G 1G11G14
  -6575384.69048  -5123676.70044  23650903.511    23650905.063
 -24263258.36449 -18906429.25447  20473850.162    20473850.335
  -4035163.83248                  24551778.335
 -17442719.77449 -13591726.65446  21935803.155    21935803.972
 -13989420.54949 -10900843.08647  21076329.166    21076329.778
  -5178151.23648  -4034924.23145  24134140.575    24134142.594
 -13285625.09049 -10352438.33145  22805852.898    22805854.189
  -4793786.84049  -3735414.52046  22649459.958    22649460.195
 02  1  1  0 12  0.0000000  0  8G22G25G21G20G29G 1G11G14
  -6688601.67448  -5211897.70344  23629358.567    23629361.200
 -24253321.95149 -18898686.58947  20475741.119    20475741.152
  -3925862.58048                  24572577.774
 -17521274.55049 -13652938.15146  21920855.066    21920855.423
 -13947208.59649 -10867950.66347  21084361.927    21084362.356
  -5259904.66948  -4098628.25645  24118582.674    24118587.601
 -13226918.19849 -10306692.73445  22817023.784    22817024.501
  -4721017.44749  -3678711.11545  22663306.886    22663307.229
 02  1  1  0 12 30.0000000  0  8G22G25G21G20G29G 1G11G14
  -6801766.35248  -5300077.92745  23607824.416    23607827.500
 -24242956.27449 -18890609.43447  20477713.549    20477713.505
  -3816423.66048                  24593402.296
 -17599522.31549 -13713910.41646  21905964.982    21905965.405
 -13904791.59049 -10834898.45647  21092434.114    21092434.648
  -5341609.67348  -4162294.48145  24103035.638    24103035.794
 -13167833.46549 -10260652.75145  22828267.350    22828269.599
  -4648124.99449  -3621911.83946  22677177.703    22677177.807
 02  1  1  0 13  0.0000000  0  8G22G25G21G20G29G 1G11G14
  -6914859.96048  -5388202.77244  23586303.223    23586306.777
 -24232146.69749 -18882186.38247  20479770.414    20479770.476
  -3706833.37048                  24614257.731
 -17677445.18749 -13774629.51146  21891136.145    21891136.517
 -13862154.09049 -10801674.44147  21100547.632    21100548.132
  -5423250.33248  -4225910.60245  24087499.966    24087503.411
 -13108357.72549 -10214308.06545  22839585.971    22839586.906
  -4575094.31249  -3565004.82446  22691075.525    22691075.067
 02  1  1  0 13 30.0000000  0  8G22G25G21G20G29G 1G11G14
  -7027876.83448  -5476267.82045  23564796.051    23564799.377
 -24220891.47349 -18873416.07347  20481912.271    20481912.373
  -3597090.78448                  24635140.626
 -17755038.04149 -13835091.46046  21876371.706    21876372.243
 -13819293.72149 -10768276.75347  21108703.780    21108704.373
  -5504823.89548  -4289474.42145  24071975.880    24071978.872
 -13048490.99549 -10167658.68045  22850977.556    22850978.732
  -4501923.20049  -3507988.38445  22704999.277    22704999.823
 02  1  1  0 14  0.0000000  0  8G22G25G21G20G29G 1G11G14
  -7140810.28548  -5564267.89244  23543306.224    23543308.694
 -24209188.38849 -18864296.78447  20484139.457    20484139.591
  -3487194.46848                  24656053.050
 -17832295.16449 -13895291.79646  21861669.613    21861670.082
 -13776207.27849 -10734702.91247  21116902.137    21116902.797
  -5586326.61748  -4352983.07945  24056467.544    24056470.081
 -12988232.57449 -10120704.09945  22862443.976    22862445.299
  -4428608.72349  -3450860.24945  22718950.787    22718950.302
 02  1  1  0 14 30.0000000  0  8G22G25G21G20G29G 1G11G14
  -7253665.68648  -5652207.12344  23521830.562    23521831.352
 -24197046.70949 -18854835.73247  20486449.913    20486449.971
  -3377154.55948                  24676993.114
 -17909222.30949 -13955235.00546  21847031.049    21847031.020
 -13732903.05849 -10700959.37147  21125142.958    21125143.597
  -5667766.36848  -4416442.67345  24040968.392    24040974.462
 -12927593.10049 -10073452.57845  22873984.783    22873986.255
  -4355159.53749  -3393627.14345  22732927.617    22732928.936
 02  1  1  0 15  0.0000000  0  8G22G25G21G20G29G 1G11G14
  -7366433.19848  -5740077.89744  23500371.053    23500374.461
 -24184461.44449 -18845029.02747  20488844.623    20488844.946
  -3266966.51848                  24697961.800
 -17985810.91749 -14014914.41846  21832456.613    21832457.099
 -13689375.06649 -10667041.45947  21133426.449    21133426.897
  -5749136.50648  -4479847.96445  24025486.675    24025488.952
 -12866568.93949 -10025901.30045  22885596.221    22885596.853
  -4281569.70949  -3336284.44946  22746931.744    22746930.976
 02  1  1  0 15 30.0000000  0  8G22G25G21G20G29G 1G11G14
  -7479124.61248  -5827889.34944  23478927.010    23478930.977
 -24171448.51349 -18834889.07847  20491320.727    20491321.012
  -3156647.33248                  24718954.849
 -18062073.04549 -14074339.43646  21817944.158    21817944.267
 -13645638.17349 -10632960.77647  21141749.123    21141749.667
  -5830451.52248  -4543210.37045  24010011.573    24010014.080
 -12805177.32448  -9978063.70345  22897278.391    22897279.541
  -4207854.63349  -3278844.13246  22760958.900    22760959.329
 02  1  1  0 16  0.0000000  0  8G22G25G21G20G29G 1G11G14
  -7591727.83848  -5915632.08544  23457498.431    23457500.501
 -24158000.14049 -18824409.81847  20493879.944    20493880.225
  -3046189.71048                  24739974.657
 -18137997.39049 -14133501.24746  21803496.784    21803497.329
 -13601683.64749 -10598710.50347  21150113.256    21150113.775
  -5911702.29348  -4606522.71245  23994549.985    23994553.104
 -12743411.92749  -9929934.83245  22909033.041    22909034.057
  -4134005.65149  -3221299.48345  22775012.043    22775012.684
 02  1  1  0 16 30.0000000  0  8G22G25G21G20G29G 1G11G14
  -7704244.16948  -6003307.10345  23436087.457    23436090.666
 -24144121.90349 -18813595.60747  20496521.046    20496521.260
  -2935599.73148                  24761019.000
 -18213586.20849 -14192401.61346  21789112.281    21789112.889
 -13557516.29449 -10564294.38947  21158517.995    21158518.493
  -5992892.86848  -4669788.16245  23979100.041    23979102.813
 -12681279.88048  -9881520.28045  22920855.358    22920856.187
  -4060027.79949  -3163654.42345  22789089.315    22789089.917
 02  1  1  0 17  0.0000000  0  8G22G25G21G20G29G 1G11G14
  -7816668.62048  -6090910.53944  23414694.645    23414694.432
 -24129812.61049 -18802445.50247  20499243.970    20499244.332
  -2824878.03048                  24782089.179
 -18288835.11949 -14251037.11746  21774793.216    21774792.944
 -13513134.13549 -10529710.89447  21166963.838    21166964.313
  -6074021.11648  -4733005.06045  23963662.348    23963663.462
 -12618782.09348  -9832820.73445  22932748.756    22932748.368
  -3985919.76349  -3105907.93845  22803192.132    22803191.700
 02  1  1  0 17 30.0000000  0  8G22G25G21G20G29G 1G11G14
  -7928998.06548  -6178439.96644  23393318.627    23393320.135
 -24115073.58049 -18790960.53847  20502048.819    20502049.156
  -2714026.51148                  24803183.355
 -18363741.53549 -14309405.74246  21760539.319    21760539.526
 -13468537.59249 -10494960.34447  21175450.317    21175450.670
  -6155086.61648  -4796173.04745  23948236.613    23948239.838
 -12555920.95849  -9783838.04245  22944711.734    22944711.327
  -3911681.58149  -3048060.03345  22817319.026    22817318.689
 02  1  1  0 18  0.0000000  0  8G22G25G21G20G29G 1G11G14
  -8041230.08848  -6265893.46245  23371961.827    23371964.224
 -24099906.69349 -18779142.17747  20504934.978    20504935.409
  -2603047.46148  -2028349.91144  24824302.279    24824308.450
 -18438303.83049 -14367506.21746  21746349.462    21746350.522
 -13423727.53649 -10460043.42447  21183977.336    21183977.837
  -6236089.80748  -4859292.43745  23932820.855    23932824.710
 -12492699.61548  -9734574.69845  22956740.492    22956742.529
  -3837314.24549  -2990111.45145  22831469.935    22831470.483
 02  1  1  0 18 30.0000000  0  8G22G25G21G20G29G 1G11G14
  -8153364.75448  -6353271.08844  23350622.497    23350624.505
 -24084316.70249 -18766994.13047  20507901.337    20507901.764
  -2491946.36748                  24845444.130
 -18512522.89149 -14425339.23446  21732226.815    21732227.240
 -13378707.64949 -10424962.99347  21192544.283    21192544.755
  -6317034.01648  -4922365.88245  23917418.675    23917421.709
 -12429124.33849  -9685035.56745  22968840.402    22968840.738
  -3762821.91449  -2932065.50545  22845646.437    22845646.882
 02  1  1  0 19  0.0000000  0  8G22G25G21G20G29G 1G11G14
  -8265389.95248  -6440563.44845  23329305.875    23329307.487
 -24068295.80049 -18754510.30547  20510949.772    20510950.212
  -2380715.80848                  24866611.173
 -18586387.55049 -14482896.10046  21718170.821    21718170.980
 -13333469.16849 -10389712.24047  21201153.082    21201153.331
  -6397909.89448  -4985386.10845  23902027.717    23902032.385
 -12365189.06948  -9635215.85745  22981006.485    22981005.688
  -3688196.28549  -2873915.69045  22859846.779    22859846.545
 02  1  1  0 19 30.0000000  0  8G22G25G21G20G29G 1G11G14
  -8377297.54648  -6527764.12445  23308009.969    23308012.491
 -24051839.83349 -18741687.46647  20514081.391    20514081.834
  -2269352.96148                  24887802.262
 -18659890.37349 -14540171.01446  21704183.080    21704184.112
 -13288006.90649 -10354287.10147  21209804.084    21209804.597
  -6478712.14448  -5048348.96545  23886651.950    23886654.856
 -12300891.36348  -9585113.77445  22993240.578    22993242.271
  -3613432.43349  -2815658.17545  22874073.766    22874074.450
 02  1  1  0 20  0.0000000  0  8G22G25G21G20G29G 1G11G14
  -8489092.33748  -6614876.95245  23286736.388    23286737.702
 -24034958.37849 -18728533.07847  20517294.014    20517294.445
  -2157867.62848                  24909017.887
 -18733036.81749 -14597168.22846  21690264.327    21690264.686
 -13242329.32149 -10318694.18947  21218496.375    21218496.857
  -6559448.41748  -5111260.42645  23871289.652    23871291.902
 -12236241.89848  -9534737.57645  23005544.525    23005545.757
  -3538539.17349  -2757299.79745  22888326.185    22888326.628
 02  1  1  0 20 30.0000000  0  8G22G25G21G20G29G 1G11G14
  -8600764.80848  -6701894.43745  23265485.534    23265485.840
 -24017646.34049 -18715043.16847  20520588.368    20520588.750
  -2046255.97248                  24930256.415
 -18805818.17149 -14653880.95746  21676414.494    21676414.946
 -13196430.37649 -10282928.78547  21227230.819    21227231.185
  -6640112.34648  -5174115.49145  23855938.526    23855943.679
 -12171237.09848  -9484084.52745  23017913.183    23017914.424
  -3463510.44549  -2698835.86745  22902602.809    22902603.382
 02  1  1  0 21  0.0000000  0  8G22G25G21G20G29G 1G11G14
  -8712317.68548  -6788818.75645  23244257.274    23244259.404
 -23999910.54549 -18701223.06547  20523963.396    20523963.717
  -1934525.27048                  24951518.735
 -18878238.02649 -14710312.00646  21662632.962    21662633.329
 -13150315.96849 -10246995.49047  21236005.697    21236006.263
  -6720709.21748  -5236918.29845  23840602.260    23840605.440
 -12105885.47248  -9433161.18945  23030349.845    23030350.640
  -3388352.41349  -2640271.20045  22916904.921    22916905.165
 02  1  1  0 21 30.0000000  0  8G22G25G21G20G29G 1G11G14
  -8823747.38148  -6875647.05645  23223053.612    23223053.825
 -23981752.32249 -18687073.79347  20527418.888    20527419.349
  -1822677.09448                  24972802.915
 -18950293.67249 -14766459.25346  21648921.585    21648922.557
 -13103985.98549 -10210894.20547  21244822.149    21244822.751
  -6801238.37148  -5299668.27745  23825276.974    23825280.162
 -12040189.56448  -9381969.59245  23042851.532    23042852.797
  -3313065.24149  -2581605.88345  22931232.721    22931232.746
 02  1  1  0 22  0.0000000  0  8G22G25G21G20G29G 1G11G14
  -8935054.08148  -6962379.56945  23201872.187    23201875.375
 -23963176.01349 -18672598.73847  20530953.655    20530954.103
  -1710716.91948                  24994108.660
 -19021985.92749 -14822323.33846  21635278.824    21635279.287
 -13057443.93649 -10174627.67847  21253679.080    21253679.443
  -6881702.93948  -5362367.91545  23809965.684    23809970.071
 -11974155.34448  -9330514.38945  23055416.812    23055417.384
  -3237652.69449  -2522842.88645  22945581.863    22945582.278
 02  1  1  0 22 30.0000000  0  8G22G25G21G20G29G 1G11G14
  -9046229.10648  -7049009.46845  23180716.852    23180719.514
 -23944177.37749 -18657794.59847  20534568.831    20534569.205
  -1598641.10748                  25015434.679
 -19093307.03949 -14877898.21846  21621707.217    21621707.333
 -13010684.54649 -10138191.79847  21262576.931    21262577.328
  -6962097.17748  -5425012.76645  23794667.655    23794669.490
 -11907780.01548  -9278793.38345  23068048.445    23068050.116
  -3162109.77249  -2463978.28545  22959958.070    22959958.184
 02  1  1  0 23  0.0000000  0  7G22G25G20G29G 1G11G14
  -9157278.11648  -7135541.14744  23159584.634    23159586.850
 -23924766.60749 -18642669.31147  20538262.641    20538262.927
 -19164263.48049 -14933188.94546  21608203.991    21608204.399
 -12963716.85649 -10101593.60747  21271514.661    21271514.960
  -7042429.38248  -5487609.27345  23779380.958    23779384.138
 -11841075.34848  -9226815.74345  23080741.113    23080742.062
  -3086445.59349  -2405019.20045  22974356.591    22974356.987
 02  1  1  0 23 30.0000000  0  7G22G25G20G29G 1G11G14
  -9268182.99948  -7221960.54645  23138480.361    23138482.324
 -23904929.81849 -18627212.06447  20542037.591    20542037.871
 -19234837.72249 -14988181.84746  21594774.759    21594775.282
 -12916525.95849 -10064821.48247  21280494.609    21280495.341
  -7122684.33948  -5550145.57345  23764108.139    23764112.376
 -11774028.70148  -9174571.63145  23093500.676    23093501.713
  -3010645.85849  -2345954.49745  22988780.279    22988780.900
 02  1  1  0 24  0.0000000  0  8G22G25G30G20G29G 1G11G14
  -9378958.87248  -7308279.44445  23117400.184    23117402.454
 -23884686.96849 -18611438.40847  20545889.776    20545890.075
        -1.07658         -.92255  23721761.482    23721763.098
 -19305045.97149 -15042889.56346  21581414.167    21581414.491
 -12869130.54849 -10027890.01447  21289513.848    21289514.382
  -7202880.23948  -5612635.86845  23748847.339    23748850.988
 -11706661.79348  -9122077.97144  23106320.207    23106322.559
  -2934729.53449  -2286798.94045  23003227.526    23003227.946
 02  1  1  0 24 30.0000000  0  8G22G25G30G20G29G 1G11G14
  -9489580.32948  -7394478.01745  23096349.824    23096351.666
 -23864017.17849 -18595332.07747  20549823.402    20549823.573
     57093.33548     44488.21644  23732625.763    23732626.801
 -19374863.66149 -15097292.94946  21568128.237    21568128.651
 -12821508.81149  -9990782.16647  21298575.968    21298576.346
  -7282994.57148  -5675062.58345  23733602.398    23733605.597
 -11638955.03948  -9069319.50645  23119203.212    23119205.895
  -2858674.51449  -2227535.30045  23017699.940    23017700.753
 02  1  1  0 25  0.0000000  0  8G22G25G30G20G29G 1G11G14
  -9600056.45248  -7480563.31245  23075326.523    23075328.358
 -23842933.51249 -18578903.23947  20553835.636    20553835.900
    114694.20748     89372.01344  23743587.011    23743588.036
 -19444300.57649 -15151399.62746  21554915.053    21554915.269
 -12773673.04749  -9953507.54747  21307678.767    21307679.270
  -7363039.29948  -5737435.07345  23718371.243    23718373.910
 -11570923.41148  -9016307.85444  23132150.774    23132150.781
  -2782493.43749  -2168173.43645  23032196.673    23032196.350
 02  1  1  0 25 30.0000000  0  8G22G25G30G20G29G 1G11G14
  -9710381.93948  -7566531.23045  23054332.672    23054335.864
 -23821436.05649 -18562151.96247  20557926.149    20557926.533
    172801.78348    134650.66245  23754644.741    23754645.819
 -19513352.20149 -15205206.07546  21541774.567    21541774.926
 -12725621.46949  -9916064.77447  21316822.444    21316823.256
  -7443012.13348  -5799751.53745  23703150.963    23703154.985
 -11502567.44048  -8963043.48245  23145157.621    23145159.404
  -2706184.56249  -2108711.98645  23046717.835    23046718.189
 02  1  1  0 26  0.0000000  0  8G22G25G30G20G29G 1G11G14
  -9820565.70648  -7652388.71545  23033364.648    23033367.082
 -23799538.12649 -18545088.62547  20562092.751    20562093.125
    231401.81548    180313.04845  23765795.347    23765796.538
 -19582028.57549 -15258720.12146  21528706.168    21528706.597
 -12677366.42749  -9878463.44747  21326005.267    21326005.844
  -7522924.89148  -5862021.18445  23687945.836    23687948.400
 -11433902.29748  -8909538.20044  23158223.725    23158224.485
  -2629760.80649  -2049161.00845  23061260.932    23061260.828
 02  1  1  0 26 30.0000000  0  8G22G25G30G20G29G 1G11G14
  -9930610.03648  -7738137.56445  23012425.081    23012427.992
 -23777246.15649 -18527718.25547  20566334.869    20566335.057
    290487.18048    226353.61044  23777038.683    23777039.848
 -19650332.60949 -15311944.03146  21515708.038    21515708.400
 -12628913.28549  -9840707.75847  21335225.609    21335226.122
  -7602782.30148  -5924247.70245  23672747.684    23672751.104
 -11364936.12348  -8855798.36944  23171348.163    23171348.656
  -2553228.00949  -1989525.08345  23075824.335    23075824.222
 02  1  1  0 27  0.0000000  0  8G22G25G30G20G29G 1G11G14
 -10040489.39848  -7823757.85245  22991515.420    22991517.253
 -23754539.16049 -18510024.48447  20570655.769    20570656.049
    350078.19848    272788.17245  23788379.511    23788379.999
 -19718239.68249 -15364858.62146  21502786.195    21502786.323
 -12580240.02249  -9802780.54847  21344487.637    21344488.052
  -7682562.17748  -5986413.82545  23657567.137    23657570.732
 -11295649.66448  -8801808.95144  23184532.706    23184531.750
  -2476564.09248  -1929786.98545  23090412.739    23090413.720
 02  1  1  0 27 30.0000000  0  8G22G25G30G20G29G 1G11G14
 -10150194.68848  -7909242.51145  22970638.938    22970641.816
 -23731412.84049 -18492003.96947  20575056.592    20575056.921
    410178.66148    319619.69744  23799815.302    23799816.125
 -19785741.57449 -15417457.48546  21489940.818    21489941.065
 -12531341.16749  -9764677.55447  21353792.950    21353793.548
  -7762258.22648  -6048514.61445  23642401.175    23642404.717
 -11226039.80748  -8747567.51544  23197778.857    23197780.792
  -2399763.91449  -1869942.71545  23105027.936    23105028.453
 02  1  1  0 28  0.0000000  0  8G22G25G30G20G29G 1G11G14
 -10259729.98448  -7994594.68745  22949794.800    22949796.708
 -23707876.26149 -18473663.77247  20579535.368    20579535.604
    470779.31748    366840.99144  23811347.460    23811350.835
 -19852843.48749 -15469744.67846  21477171.404    21477171.606
 -12482223.98549  -9726404.43047  21363139.669    21363140.255
  -7841877.46048  -6110555.54345  23627248.868    23627251.909
 -11156116.79848  -8693082.05944  23211084.838    23211086.867
  -2322834.79849  -1809997.97145  23119667.115    23119665.958
 02  1  1  0 28 30.0000000  0  8G22G25G30G20G29G 1G11G14
 -10369098.92448  -8079817.24445  22928982.846    22928984.867
 -23683937.38649 -18455010.09547  20584090.908    20584090.985
    531871.38148    414445.20244  23822972.595    23822972.658
 -19919549.80549 -15521723.61346  21464478.561    21464478.538
 -12432895.70749  -9687966.81747  21372526.619    21372527.389
  -7921426.25648  -6172541.57445  23612111.387    23612116.046
 -11085890.11848  -8638359.99244  23224448.989    23224450.183
  -2245784.34448  -1749958.67445  23134328.482    23134328.594
 02  1  1  0 29  0.0000000  0  8G22G25G30G20G29G 1G11G14
 -10478296.89848  -8164906.57245  22908202.600    22908206.554
 -23659595.82049 -18436042.63647  20588723.284    20588723.549
    593454.05448    462431.69544  23834692.079    23834691.181
 -19985856.77649 -15573391.36846  21451860.362    21451860.146
 -12383355.26049  -9649363.87846  21381953.912    21381954.474
  -8000903.05648  -6234471.48945  23596987.678    23596992.903
 -11015361.42048  -8583402.59644  23237870.490    23237870.880
  -2168611.66049  -1689824.12945  23149014.885    23149014.313
 02  1  1  0 29 30.0000000  0  8G22G25G30G20G29G 1G11G14
 -10587325.54848  -8249863.96945  22887456.073    22887457.034
 -23634858.05949 -18416766.45247  20593430.624    20593430.673
    655520.46248    510795.14844  23846502.536    23846503.699
 -20051767.04049 -15624750.00546  21439317.645    21439317.760
 -12333607.37049  -9610599.29046  21391420.312    21391421.122
  -8080312.31448  -6296348.80245  23581877.703    23581880.652
 -10944538.37648  -8528215.86544  23251346.524    23251347.232
  -2091321.87648  -1629598.32745  23163722.102    23163722.877
 02  1  1  0 30  0.0000000  0  8G22G25G30G20G29G 1G11G14
 -10696179.23948  -8334685.00645  22866741.786    22866743.684
 -23609722.91249 -18397180.61547  20598213.462    20598213.506
    718071.17848    559535.96044  23858405.447    23858404.714
 -20117275.77349 -15675795.75546  21426851.847    21426852.271
 -12283649.93749  -9571671.42546  21400927.191    21400927.736
  -8159651.22048  -6358171.25545  23566779.774    23566781.768
 -10873421.28148  -8472799.96644  23264880.844    23264880.263
  -2013912.78548  -1569279.57445  23178452.435    23178452.448
 02  1  1  0 30 30.0000000  0  8G22G25G30G20G29G 1G11G14
 -10804857.93548  -8419369.70045  22846060.910    22846063.716
 -23584195.26349 -18377288.93547  20603071.413    20603071.434
    781100.81248    608649.98144  23870399.816    23870399.414
 -20182383.97149 -15726529.39646  21414462.375    21414462.735
 -12233486.37949  -9532582.95046  21410472.813    21410473.213
  -8238922.87448  -6419941.30445  23551692.604    23551699.532
 -10802016.41548  -8417159.84644  23278468.605    23278466.389
  -1936388.23648  -1508870.84645  23193205.611    23193205.836
 02  1  1  0 31  0.0000000  0  8G22G25G30G20G29G 1G11G14
 -10913345.17548  -8503905.22445  22825416.310    22825419.525
 -23558263.20149 -18357082.13247  20608005.871    20608006.095
    844620.38348    658145.74344  23882487.415    23882490.544
 -20247075.87449 -15776938.65846  21402151.614    21402152.003
 -12183103.60749  -9493323.65146  21420060.689    21420061.189
  -8318113.53448  -6481648.27845  23536625.911    23536627.467
 -10730313.35648  -8361287.37444  23292112.566    23292113.164
  -1858735.43948  -1448362.18545  23207981.742    23207981.881
 02  1  1  0 31 30.0000000  0  8G22G25G30G20G29G 1G11G14
 -11021640.74448  -8588291.38945  22804808.491    22804811.524
 -23531931.22149 -18336563.70247  20613016.759    20613016.883
    908624.97548    708019.43844  23894666.724    23894668.910
 -20311352.32749 -15827024.18946  21389920.210    21389920.603
 -12132504.77049  -9453895.98946  21429689.107    21429689.907
  -8397225.82448  -6543294.18245  23521570.235    23521573.511
 -10658318.07748  -8305187.16344  23305813.254    23305814.260
  -1780957.84148  -1387756.28845  23222782.780    23222782.714
 02  1  1  0 32  0.0000000  0  8G22G25G30G20G29G 1G11G14
 -11129735.13648  -8672520.76645  22784238.440    22784240.252
 -23505194.46549 -18315729.86147  20618104.728    20618104.875
    973118.62448    758274.23344  23906939.205    23906942.038
 -20375204.90049 -15876779.42646  21377769.502    21377769.887
 -12081683.95649  -9414295.35646  21439359.789    21439360.350
  -8476253.14848  -6604873.85345  23506532.446    23506536.267
 -10586027.34748  -8248856.77344  23319570.646    23319570.678
  -1703049.72648  -1327048.69545  23237608.393    23237609.277
 02  1  1  0 32 30.0000000  0  8G22G25G30G20G29G 1G11G14
 -11237644.01648  -8756605.62245  22763704.133    22763706.059
 -23478073.06049 -18294596.29047  20623265.809    20623265.869
   1038080.34648    808893.75944  23919301.784    23919302.192
 -20438650.08649 -15926217.22046  21365696.153    21365696.509
 -12030660.16349  -9374536.56046  21449069.428    21449069.943
  -8555214.19748  -6666401.87045  23491506.480    23491508.545
 -10513462.68148  -8192312.88344  23333378.138    23333379.940
  -1625030.17548  -1266254.24845  23252454.363    23252453.322
 02  1  1  0 33  0.0000000  0  8G22G25G30G20G29G 1G11G14
 -11345365.07148  -8840544.10345  22743205.423    22743207.391
 -23450569.55549 -18273164.97847  20628499.460    20628499.416
   1103506.97648    859875.55144  23931751.237    23931752.037
 -20501686.64749 -15975336.60746  21353701.179    21353701.479
 -11979434.58149  -9334620.52546  21458817.411    21458817.921
  -8634109.61348  -6727878.75345  23476493.130    23476496.347
 -10440628.30848  -8135558.87944  23347238.563    23347241.938
  -1546900.80248  -1205374.21845  23267322.880    23267322.403
 02  1  1  0 33 30.0000000  0  8G22G25G30G20G29G 1G11G14
 -11452889.98948  -8924329.74145  22722744.043    22722746.884
 -23422680.36249 -18251433.13247  20633806.407    20633806.353
   1169401.40148    911221.86644  23944290.682    23944293.778
 -20564306.96349 -16024131.64446  21341784.867    21341785.238
 -11928002.26149  -9294543.39946  21468604.552    21468605.020
  -8712933.93648  -6789300.20945  23461493.538    23461496.010
 -10367521.74248  -8078592.75444  23361150.655    23361151.340
  -1468656.75448  -1144404.85645  23282211.401    23282211.450
 02  1  1  0 34  0.0000000  0  8G22G25G30G20G29G 1G11G14
 -11560203.78448  -9007950.86445  22702323.133    22702323.455
 -23394395.50849 -18229392.98147  20639189.272    20639189.161
   1235773.33648    962940.23144  23956920.971    23956922.177
 -20626497.17149 -16072591.53546  21329949.676    21329950.132
 -11876351.63749  -9254296.15946  21478433.426    21478433.998
  -8791674.99648  -6850656.80545  23446509.823    23446512.773
 -10294133.94748  -8021407.50944  23375114.787    23375116.405
  -1390286.49648  -1083337.13845  23297124.940    23297125.318
 02  1  1  0 34 30.0000000  0  8G22G25G30G20G29G 1G11G14
 -11667298.69748  -9091401.44245  22681943.490    22681945.799
 -23365711.59849 -18207041.87747  20644647.529    20644647.457
   1302625.15748   1015032.56644  23969642.392    23969643.399
 -20688250.50849 -16120711.00646  21318198.945    21318199.191
 -11824478.35649  -9213875.41746  21488304.404    21488305.020
  -8870327.84948  -6911944.65245  23431541.769    23431545.446
 -10220463.58848  -7964002.04944  23389134.430    23389134.669
  -1311785.90248  -1022167.85845  23312063.969    23312063.538
 02  1  1  0 35  0.0000000  0  8G22G25G30G20G29G 1G11G14
 -11774186.88948  -9174690.93345  22661604.005    22661605.930
 -23336645.67149 -18184393.10247  20650178.571    20650178.390
   1369939.02648   1067484.92344  23982451.343    23982451.337
 -20749580.34249 -16168500.47046  21306528.420    21306528.741
 -11772398.20149  -9173293.48246  21498215.234    21498215.968
  -8948907.79148  -6973175.68645  23416589.262    23416591.845
 -10146529.27948  -7906390.90044  23403204.132    23403204.648
  -1233171.09648   -960909.58445  23327023.167    23327023.599
 02  1  1  0 35 30.0000000  0  8G22G25G30G20G29G 1G11G14
 -11880857.98348  -9257811.27045  22641304.221    22641307.413
 -23307192.04149 -18161442.21847  20655783.618    20655783.447
   1437719.97248   1120301.25344  23995350.067    23995352.603
 -20810477.21049 -16215952.56147  21294939.426    21294939.942
 -11720104.11649  -9132544.85246  21508166.480    21508166.947
  -9027407.20948  -7034343.96945  23401650.784    23401653.929
 -10072326.55348  -7848570.70344  23417324.778    23417325.322
  -1154435.36048   -899557.07645  23342005.622    23342007.544
 02  1  1  0 36  0.0000000  0  8G22G25G30G20G29G 1G11G14
 -11987307.41648  -9340758.86145  22621047.582    22621050.677
 -23277350.93749 -18138189.40747  20661462.155    20661462.080
   1505966.78348   1173480.59844  24008337.218    24008337.344
 -20870937.55549 -16263064.51047  21283434.544    21283434.912
 -11667594.99049  -9091628.65546  21518158.370    21518158.851
  -9105824.44548  -7095448.22645  23386728.930    23386731.721
  -9997857.30048  -7790542.71544  23431494.757    23431493.847
  -1075577.73548   -838109.59445  23357012.894    23357012.702
 02  1  1  0 36 30.0000000  0  8G22G25G30G20G29G 1G11G14
 -12093536.95448  -9423535.12545  22600833.261    22600834.822
 -23247128.82549 -18114639.70747  20667213.017    20667212.914
   1574672.59548   1227017.57744  24021410.729    24021413.650
 -20930963.95549 -16309838.31347  21272012.098    21272012.426
 -11614875.88349  -9050548.83846  21528190.686    21528191.259
  -9184163.98948  -7156491.93845  23371821.123    23371822.516
  -9923128.93948  -7732312.86044  23445715.165    23445715.445
   -996603.64948   -776571.33745  23372040.409    23372040.917
 02  1  1  0 37  0.0000000  0  8G22G25G30G20G29G 1G11G14
 -12199556.47748  -9506147.72345  22580657.869    22580660.270
 -23216540.17149 -18090804.38647  20673033.914    20673033.895
   1643822.05348   1280900.29144  24034570.792    24034572.350
 -20990567.14349 -16356282.33747  21260670.118    21260670.262
 -11561960.17449  -9009315.82346  21538260.326    21538260.649
  -9262438.45048  -7217484.93945  23356925.685    23356928.119
  -9848157.85148  -7673893.89844  23459981.646    23459982.115
   -917526.50448   -714952.78445  23387088.043    23387088.041
 02  1  1  0 37 30.0000000  0  8G22G25G30G20G29G 1G11G14
 -12305352.01548  -9588585.81445  22560526.471    22560527.626
 -23185575.85649 -18066676.34447  20678926.308    20678926.424
   1713423.36748   1335135.01344  24047813.974    24047818.939
 -21049734.47349 -16402386.73047  21249410.682    21249410.923
 -11508837.30849  -8967921.38446  21548369.014    21548369.575
  -9340636.93548  -7278418.74045  23342044.249    23342047.656
  -9772936.37048  -7615279.73244  23474296.608    23474296.324
   -838336.18248   -653246.04445  23402157.994    23402157.580
 02  1  1  0 38  0.0000000  0  8G22G25G30G20G29G 1G11G14
 -12410914.82748  -9670842.52945  22540438.236    22540439.588
 -23154232.08749 -18042252.61847  20684890.802    20684890.748
   1783479.88148   1389724.51244  24061145.330    24061147.436
 -21108458.23749 -16448145.49347  21238235.791    21238236.137
 -11455502.09949  -8926361.49246  21558518.425    21558519.112
  -9418753.53248  -7339288.73145  23327180.007    23327182.349
  -9697461.76248  -7556468.40244  23488658.121    23488660.124
   -759027.50548   -591447.08945  23417249.586    23417250.402
 02  1  1  0 38 30.0000000  0  8G22G25G30G20G29G 1G11G14
 -12516227.83548  -9752904.59445  22520397.755    22520401.148
 -23122496.25949 -18017523.39447  20690929.615    20690929.615
   1854003.07148   1444677.63544  24074566.168    24074566.161
 -21166722.47649 -16493546.17747  21227148.733    21227149.124
 -11401940.77149  -8884625.39646  21568710.836    21568711.348
  -9496773.87748  -7400083.73145  23312332.718    23312334.166
  -9621723.26848  -7497451.39344  23503071.684    23503072.188
   -679587.02948   -529545.42245  23432366.488    23432367.006
 02  1  1  0 39  0.0000000  0  8G22G25G30G20G29G 1G11G14
 -12621303.86749  -9834782.00445  22500402.808    22500405.446
 -23090386.06249 -17992502.45547  20697040.069    20697040.120
   1924974.58048   1499980.10244  24088071.820    24088073.373
 -21224541.02849 -16538599.57747  21216146.378    21216146.879
 -11348169.52849  -8842725.72446  21578943.515    21578943.480
  -9574713.85948  -7460816.08545  23297501.001    23297503.745
  -9545739.86548                  23517529.523
   -600031.23048   -467553.92945  23447505.631    23447505.310
 02  1  1  0 39 30.0000000  0  8G22G25G30G20G29G 1G11G14
 -12726139.42048  -9916472.02145  22480452.544    22480454.761
 -23057903.11949 -17967191.06347  20703221.267    20703221.391
   1996392.22448   1555630.21844  24101662.635    24101662.335
 -21281911.52749 -16583303.84547  21205228.761    21205229.125
 -11294188.59949  -8800662.65846  21589215.286    21589215.827
  -9652572.81248  -7521485.29045  23282685.249    23282687.670
  -9469514.39848  -7378847.12844  23532035.571    23532035.688
   -520360.32548   -405472.73145  23462666.833    23462666.918
 02  1  1  0 40  0.0000000  0  8G22G25G30G20G29G 1G11G14
 -12830749.48348  -9997986.32245  22460545.833    22460548.155
 -23025066.81149 -17941604.32147  20709469.855    20709469.970
   2068235.40848   1611611.91144  24115332.666    24115332.234
 -21338849.89549 -16627671.38447  21194393.913    21194394.349
 -11240016.24649  -8758450.43546  21599524.113    21599524.619
  -9730368.48748  -7582105.20845  23267881.515    23267884.379
  -9393067.96648                  23546582.443
   -440593.04548   -343316.45145  23477845.668    23477846.302
 02  1  1  0 40 30.0000000  0  8G22G25G30G20G29G 1G11G14
 -12935110.30649 -10079306.40945  22440687.120    22440690.212
 -22991858.29149 -17915727.54247  20715789.319    20715789.474
   2140522.47148   1667939.44644  24129089.209    24129091.215
 -21395333.53449 -16671684.59147  21183645.586    21183646.115
 -11185632.11949  -8716073.19446  21609873.174    21609873.754
  -9808080.18748  -7642659.68245  23253092.855    23253095.822
  -9316383.02648  -7259524.02244  23561174.852    23561178.136
   -360709.11748   -281069.25345  23493047.393    23493047.242
 02  1  1  0 41  0.0000000  0  8G22G25G30G20G29G 1G11G14
 -13039221.05949 -10160431.62745  22420875.400    22420877.678
 -22958281.53549 -17889563.82547  20722178.724    20722178.953
   2213248.60048   1724609.17744  24142928.166    24142929.078
 -21451362.74949 -16715343.70347  21172983.244    21172983.578
 -11131038.89849  -8673533.03546  21620261.709    21620262.296
  -9885709.81648  -7703150.20345  23238319.980    23238323.684
  -9239465.12148  -7199588.02144  23575811.329    23575813.195
   -280711.54148   -218733.49845  23508270.488    23508270.659
 02  1  1  0 41 30.0000000  0  8G22G25G30G20G29G 1G11G14
 -13143075.70649 -10241357.26445  22401112.309    22401114.713
 -22924335.23249 -17863112.15147  20728637.861    20728638.343
   2286413.92348   1781621.13444  24156850.551    24156852.345
 -21506932.50149 -16758644.79347  21162408.618    21162408.883
 -11076233.94949  -8630827.88946  21630691.081    21630691.422
  -9963254.28748  -7763574.37545  23223564.225    23223566.284
  -9162314.19048                  23590492.287
   -200597.80648   -156307.24445  23523515.582    23523516.133
 02  1  1  0 42  0.0000000  0  8G22G25G30G20G29G 1G11G14
 -13246674.02249 -10322083.18345  22381398.212    22381401.281
 -22890024.08949 -17836376.18747  20735167.224    20735167.546
   2360013.29848   1838971.26044  24170856.343    24170858.536
 -21562043.70049 -16801588.56947  21151921.274    21151921.554
 -11021220.49349  -8587960.26446  21641159.447    21641159.850
 -10040716.07348  -7823934.12545  23208823.635    23208825.896
  -9084936.57248                  23605217.486
   -120371.38448    -93793.19445  23538782.268    23538783.596
 02  1  1  0 42 30.0000000  0  8G22G25G30G20G29G 1G11G14
 -13350009.28149 -10402604.11245  22361734.013    22361736.707
 -22855346.30749 -17809354.52847  20741766.602    20741766.753
   2434047.79148   1896660.44144  24184944.751    24184940.320
 -21616690.76349 -16844170.67647  21141522.395    21141522.681
 -10965994.96449  -8544927.39746  21651668.270    21651668.690
 -10118091.17948  -7884226.32245  23194099.956    23194101.759
  -9007331.55447                  23619983.884
    -40029.26648    -31188.96745  23554070.453    23554070.609
 02  1  1  0 43  0.0000000  0  8G22G25G30G20G29G 1G11G14
 -13453068.81549 -10482910.19645  22342122.298    22342124.971
 -22820293.88549 -17782040.93947  20748436.759    20748437.006
   2508524.41348   1954694.19444  24199118.177    24199120.130
 -21670862.12149 -16886382.10847  21131214.097    21131214.342
 -10910548.51749  -8501722.38046  21662219.637    21662220.066
 -10195369.92148  -7944443.42445  23179393.956    23179397.638
  -8929492.91748                  23634798.556
     40437.66648     31512.49945  23569383.092    23569383.551
 02  1  1  0 43 30.0000000  0  8G22G25G30G20G29G 1G11G14
 -13555865.83449 -10563011.72245  22322560.811    22322563.473
 -22784884.78549 -17754449.42047  20755174.946    20755175.338
   2583424.27448   2013057.72944  24213369.590    24213368.028
 -21724571.98949 -16928233.93447  21120993.236    21120993.566
 -10854897.63449  -8458358.05946  21672809.950    21672810.119
 -10272568.16248  -8004597.81045  23164704.187    23164705.300
  -8851439.57448                  23649650.303
    121012.73548     94298.21945  23584716.437    23584716.307
 02  1  1  0 44  0.0000000  0  8G22G25G30G20G29G 1G11G14
 -13658393.48449 -10642903.34645  22303050.617    22303052.684
 -22749117.01149 -17726578.41447  20761981.454    20761981.575
   2658748.62948   2071752.01544  24227704.150    24227704.825
 -21777814.88549 -16969721.88447  21110861.909    21110862.213
 -10799038.85549  -8414831.74746  21683439.080    21683439.636
 -10349681.91148  -8064686.36945  23150028.836    23150031.802
  -8773171.36248                  23664545.689
    201698.91048    157170.53645  23600069.867    23600071.009
 02  1  1  0 44 30.0000000  0  8G22G25G30G20G29G 1G11G14
 -13760646.12349 -10722580.67045  22283592.008    22283594.060
 -22712989.53949 -17698427.12247  20768856.271    20768856.550
   2734497.08148   2130776.80344  24242119.109    24242118.425
 -21830586.13749 -17010842.32447  21100819.735    21100819.781
 -10742970.17049  -8371141.86746  21694108.624    21694109.119
 -10426708.52248  -8124707.00945  23135371.503    23135374.756
  -8694688.99248                  23679479.297
    282498.20448    220130.99345  23615445.780    23615445.113
 02  1  1  0 45  0.0000000  0  8G22G25G30G20G29G 1G11G14
 -13862622.99049 -10802043.10145  22264186.578    22264188.425
 -22676506.49049 -17669998.75547  20775798.601    20775798.937
   2810665.15948   2190128.52444  24256613.448    24256618.981
 -21882886.46449 -17051595.80947  21090866.897    21090867.347
 -10686693.85849  -8327290.20646  21704817.901    21704818.238
 -10503649.74048  -8184661.09845  23120730.309    23120732.409
  -8615997.62448                  23694454.368
    363407.82448    283177.43945  23630843.018    23630843.207
 02  1  1  0 45 30.0000000  0  8G22G25G30G20G29G 1G11G14
 -13964325.22249 -10881291.55846  22244833.168    22244835.132
 -22639674.21449 -17641298.26747  20782807.807    20782807.976
   2887245.94148   2249801.85944  24271186.904    24271187.069
 -21934717.83249 -17091983.87047  21081003.732    21081003.935
 -10630214.75049  -8283280.52146  21715565.938    21715566.050
 -10580509.68148  -8244551.89345  23106103.822    23106105.842
  -8537104.78348                  23709467.698
    444423.06248    346306.14545  23646258.485    23646258.617
 02  1  1  0 46  0.0000000  0  8G22G25G30G20G29G 1G11G14
 -14065741.60049 -10960317.24546  22225534.918    22225536.069
 -22602485.97249 -17612320.40347  20789884.134    20789884.201
   2964244.74448                  24285837.758
 -21986070.24949 -17131998.72147  21071231.848    21071232.165
 -10573524.92249  -8239106.64946  21726353.264    21726353.766
 -10657279.81049  -8304372.68145  23091495.885    23091498.114
  -8458005.45148                  23724519.527
    525551.46948    409523.04145  23661697.535    23661696.990
 02  1  1  0 46 30.0000000  0  8G22G25G30G20G29G 1G11G14
 -14166871.20949 -11039119.49846  22206289.910    22206293.072
 -22564945.76649 -17583068.27847  20797027.988    20797028.181
   3041656.77948   2370121.97744  24300570.558    24300572.201
 -22036944.17849 -17171640.72847  21061550.849    21061550.932
 -10516627.01049  -8194770.62046  21737180.237    21737180.825
 -10733962.16548  -8364125.09445  23076902.492    23076904.715
  -8378705.11148                  23739609.802
    606789.92948    472825.71945  23677157.398    23677155.572
 02  1  1  0 47  0.0000000  0  8G22G25G30G20G29G 1G11G14
 -14267709.09649 -11117694.42646  22187101.565    22187103.069
 -22527053.62749 -17553541.92447  20804238.754    20804238.910
   3119481.42348   2430764.57044  24315379.342    24315379.708
 -22087335.54949 -17210906.71547  21051961.536    21051961.882
 -10459519.41149  -8150271.18946  21748047.661    21748048.042
 -10810554.39448  -8423807.25345  23062327.236    23062329.612
  -8299204.94448                  23754737.819
    688140.18548    536215.49345  23692636.534    23692638.024
 02  1  1  0 47 30.0000000  0  8G22G25G30G20G29G 1G11G14
 -14368255.63349 -11196042.32946  22167968.187    22167969.795
 -22488814.82249 -17523745.44047  20811514.983    20811515.241
   3197712.48048   2491723.78944  24330266.184    24330268.098
 -22137246.25549 -17249798.15747  21042463.944    21042464.357
 -10402205.92349  -8105611.33646  21758954.080    21758954.446
 -10887059.82149  -8483421.77145  23047769.296    23047771.123
  -8219511.56248                  23769904.431
    769597.97548    599689.04745  23708138.262    23708137.470
 02  1  1  0 48  0.0000000  0  8G22G25G30G20G29G 1G11G14
 -14468508.51149 -11274161.39446  22148890.563    22148892.760
 -22450231.32949 -17493680.36647  20818857.195    20818857.382
   3276346.44648   2552997.07844  24345229.791    24345229.313
 -22186674.93449 -17288313.99447  21033057.942    21033058.182
 -10344687.61449  -8060791.88446  21769899.614    21769900.389
 -10963478.75549  -8542968.88446  23033227.096    23033228.737
  -8139628.67648                  23785103.800
    851162.26948    663245.59045  23723659.722    23723658.049
 02  1  1  0 48 30.0000000  0  8G22G25G30G20G29G 1G11G14
 -14568464.16049 -11352048.87546  22129869.437    22129870.587
 -22411304.66649 -17463347.88747  20826264.627    20826264.971
   3355381.32548   2614582.67844  24360268.728    24360271.921
 -22235619.34149 -17326452.47247  21023743.840    21023744.222
 -10286964.52249  -8015812.86246  21780883.582    21780884.097
 -11039810.35249  -8602447.94045  23018702.103    23018704.263
  -8059559.10548                  23800342.357
    932832.96948    726885.06245  23739200.489    23739200.968
 02  1  1  0 49  0.0000000  0  8G22G25G30G20G29G 1G11G14
 -14668103.47049 -11429689.83746  22110908.692    22110910.704
 -22372020.61949 -17432736.93247  20833740.520    20833740.890
   3434830.39548   2676491.02944  24375388.394    24375388.771
 -22284061.64049 -17364199.70047  21014525.901    21014526.309
 -10229020.66449  -7970661.81846  21791910.002    21791910.555
 -11116038.14349  -8661846.13245  23004196.781    23004196.994
  -7979290.05548                  23815616.874
   1014625.35248    790619.34245  23754765.291    23754767.150
 02  1  1  0 49 30.0000000  0  8G22G25G30G20G29G 1G11G14
 -14767428.41149 -11507085.83846  22092007.938    22092009.945
 -22332386.15349 -17401852.92747  20841282.261    20841282.456
   3514685.89748   2738716.10044  24390584.243    24390585.625
 -22332004.96849 -17401558.12547  21005402.681    21005402.837
 -10170861.42649  -7925342.92446  21802977.557    21802977.864
 -11192166.93148  -8721167.16746  22989708.193    22989711.805
  -7898829.61848                  23830928.463
   1096533.96848    854444.18645  23770352.558    23770352.600
 02  1  1  0 50  0.0000000  0  8G22G25G30G20G29G 1G11G14
 -14866451.40349 -11584246.55646  22073164.068    22073165.974
 -22292418.12449 -17370708.99947  20848887.850    20848888.123
   3594929.66748   2801243.64144  24405854.437    24405854.272
 -22379463.17349 -17438538.52847  20996371.570    20996371.678
 -10112502.72749  -7879868.61746  21814082.781    21814083.243
 -11268211.97849  -8780422.94646  22975238.790    22975239.337
  -7818196.39748                  23846270.947
   1178542.80748    918347.14645  23785957.295    23785957.783
 02  1  1  0 50 30.0000000  0  8G22G25G30G20G29G 1G11G14
 -14965161.01649 -11661163.08846  22054380.358    22054383.205
 -22252110.05249 -17339300.10247  20856558.416    20856558.608
   3675567.33748   2864078.23944  24421199.181    24421197.564
 -22426425.91349 -17475132.85547  20987434.833    20987434.927
 -10053936.68649  -7834232.74646  21825227.505    21825227.934
 -11344164.42549  -8839606.59746  22960784.933    22960786.298
  -7737385.12448                  23861648.770
   1260659.67148    982334.27345  23801584.827    23801584.620
 02  1  1  0 51  0.0000000  0  8G22G25G30G20G29G 1G11G14
 -15063552.67449 -11737831.84946  22035656.868    22035658.975
 -22211462.44549 -17307626.63447  20864293.420    20864293.480
   3756597.88448   2927218.88544  24436618.427    24436620.621
 -22472889.82549 -17511338.48647  20978593.013    20978593.174
  -9995161.97949  -7788434.26946  21836411.950    21836412.222
 -11420022.48948  -8898716.67445  22946348.479    22946351.234
  -7656397.70148  -5966029.40744  23877060.554    23877065.627
   1342885.50948   1046406.29045  23817231.296    23817232.530
 02  1  1  0 51 30.0000000  0  7G22G30G25G20G29G 1G14
 -15161624.83249 -11814251.65446  22016995.022    22016996.743
   3838016.80248   2990662.19344  24452112.466    24452113.446
 -22170478.79249 -17275691.31747  20872092.250    20872092.420
 -22518854.89149 -17547155.40647  20969846.278    20969846.494
  -9936180.62049  -7742474.77446  21847636.202    21847636.769
 -11495787.38849  -8957754.16846  22931932.792    22931934.276
