     2.11           OBSERVATION DATA    G (GPS)             RINEX VERSION / TYPE
teqc  2019Feb25     Salamtina Y.M.      20230920 03:20:32UTCPGM / RUN BY / DATE
OBSERVATION MODE: Permanent                                 COMMENT
CHUM Chumysh (CHUM)                                         MARKER NAME
25601M001                                                   MARKER NUMBER
4549261325          TRIMBLE NETRS        1.3-2              REC # / TYPE / VERS
237                 AOAD/M_T        NONE                    ANT # / TYPE
        0.0900        0.0000        0.0000                  ANTENNA: DELTA H/E/N
  1228950.3073  4508080.0085  4327868.5400                  APPROX POSITION XYZ
  74.75110459  42.99850161  716.3328  LonLatAlt  S/W        COMMENT
ANT ADDED FROM RCV_ANT.txt                                  COMMENT
Linux 2.6.32-573.12.1.x86_64|x86_64|gcc|Linux 64|=+         COMMENT
BIT 2 OF LLI FLAGS DATA COLLECTED UNDER A/S CONDITION       COMMENT
Konovalov S.M.      RS_RAS                                  OBSERVER / AGENCY
     1     1                                                WAVELENGTH FACT L1/2
     7    L1    L2    C1    P1    P2    S1    S2            # / TYPES OF OBSERV
    30.0000                                                 INTERVAL
    18                                                      LEAP SECONDS
TIME: 2023.01.02                                            COMMENT
TOUR: cont                                                  COMMENT
RSET: RAS02                                                 COMMENT
ASET: DS24                                                  COMMENT
OPER: skon (Konovalov S.M.)                                 COMMENT
SOUR: chum202301020000d.dat                                 COMMENT
SUPP: chum202301020000d.eph                                 COMMENT
SUPP: chum202301020000d.ion                                 COMMENT
SUPP: chum202301020000d.mes                                 COMMENT
Forced Modulo Decimation to 30 seconds                      COMMENT
 SNR is mapped to RINEX snr flag value [0-9]                COMMENT
  L1 & L2: min(max(int(snr_dBHz/6), 0), 9)                  COMMENT
  2023     1     2     0     0    0.0000000     GPS         TIME OF FIRST OBS
  2023     1     2    23    59   30.0000000     GPS         TIME OF LAST OBS
                                                            END OF HEADER
 23  1  2  0  0  0.0000000  0 10G23G24G27G08G22G10G21G18G15G32
 -15047984.01147 -13717584.69946  21173053.2274                   21173042.8094
        46.0004         40.0004
 -15122919.68547 -12460190.60447  22191888.1724                   22191881.0944
        42.5004         44.2504
 -13156316.47347 -10059586.67447  22956773.5864                   22956765.3954
        42.5004         42.5004
  -9984845.71446  -7713732.96046  23316311.7034                   23316303.3364
        39.7504         40.0004
  -5303636.44746  -4333444.96643  22966866.7344                   22966855.4964
        38.2504         21.7504
 -28010275.66448 -21651506.74149  20546554.3914                   20546545.3204
        51.7504         55.0004
  -6627870.34145  -3723771.84842  24636490.7274                   24636480.6604
        35.0004         16.7504
 -15967050.30246 -12463772.31045  22927716.0634                   22927705.4694
        40.7504         30.7504
  -7007901.452 4                  25495145.273
        29.750
 -15786357.10948 -18489101.71449  21128611.2584                   21128602.3634
        51.5004         54.7504
 23  1  2  0  0 30.0000000  0  9G23G24G27G08G22G10G21G18G32
 -15000800.35547 -13680818.22646  21182032.2194                   21182021.4494
        46.7504         40.2504
 -15094406.75247 -12437972.73847  22197314.5394                   22197306.5234
        42.5004         44.5004
 -13087880.43647 -10006259.90147  22969797.0394                   22969788.4964
        43.5004         42.5004
  -9971510.42646  -7703341.84446  23318849.3594                   23318840.9924
        40.0004         39.5004
  -5392027.96746  -4402321.45543  22950044.8984                   22950035.1844
        38.5004         22.5004
 -28020471.85348 -21659451.82849  20544613.9144                   20544604.7854
        52.0004         55.2504
  -6714955.07346  -3791630.07542  24619920.2814                   24619909.3364
        36.0004         16.7504
 -15865624.40246 -12384739.14845  22947016.3914                   22947007.3204
        40.2504         30.2504
 -15838527.03048 -18529753.60949  21118683.2664                   21118674.6644
        50.7504         54.7504
 23  1  2  0  1  0.0000000  0  9G23G24G27G08G22G10G21G18G32
 -14953365.25947 -13643855.81246  21191058.7194                   21191047.8324
        46.7504         40.5004
 -15065265.27047 -12415265.09147  22202860.4454                   22202851.9024
        43.0004         44.2504
 -13019058.51747  -9952632.45647  22982893.4774                   22982884.6994
        43.0004         42.5004
  -9957629.55246  -7692525.59246  23321489.9614                   23321482.7664
        39.5004         39.5004
  -5480172.59846  -4471005.52543  22933272.5314                   22933261.6454
        38.0004         23.2504
 -28030403.79348 -21667190.99649  20542724.1254                   20542715.0554
        53.0004         54.7504
  -6801909.79745  -3859386.98542  24603372.7894                   24603361.9024
        35.7504         17.7504
 -15763945.39746 -12305508.78445  22966365.5704                   22966355.7974
        41.0004         30.5004
 -15890290.88148 -18570089.06649  21108833.1174                   21108823.9304
        50.5004         55.0004
 23  1  2  0  1 30.0000000  0  9G23G24G27G08G22G10G21G18G32
 -14905679.09447 -13606697.77346  21200132.6414                   21200122.1054
        46.0004         40.7504
 -15035496.43847 -12392068.58447  22208525.8914                   22208516.8794
        43.5004         44.2504
 -12949853.72247  -9898706.63247  22996062.1334                   22996053.8834
        42.5004         42.0004
  -9943203.79146  -7681284.75846  23324234.4534                   23324227.1414
        39.2504         39.7504
  -5568069.20846  -4539496.39343  22916545.9224                   22916535.0354
        38.2504         22.5004
 -28040071.26248 -21674724.09049  20540884.6174                   20540875.6054
        52.0004         55.0004
  -6888732.73946  -3927041.22443  24586851.7034                   24586838.9414
        37.2504         18.2504
 -15662015.35646 -12226082.78645  22985762.1174                   22985752.5784
        39.5004         30.5004
 -15941648.27548 -18610107.80449  21099060.0394                   21099051.1454
        50.5004         55.0004
 23  1  2  0  2  0.0000000  0  9G23G24G27G08G22G10G21G18G32
 -14857741.23047 -13569343.60646  21209255.2034                   21209244.7854
        45.7504         40.2504
 -15005100.32147 -12368383.30247  22214309.1334                   22214301.0004
        42.2504         44.5004
 -12880268.05147  -9844484.04147  23009303.5944                   23009295.4614
        43.0004         42.2504
  -9928233.75146  -7669619.80946  23327084.0704                   23327076.2304
        39.5004         39.5004
  -5655715.74346  -4607792.34443  22899867.8204                   22899857.1684
        38.7504         22.0004
 -28049472.65048 -21682049.84249  20539095.3834                   20539086.4304
        52.2504         55.2504
  -6975421.02846  -3994590.53543  24570355.1174                   24570343.2344
        38.0004         18.2504
 -15559835.27146 -12146461.95545  23005207.3594                   23005196.3554
        40.5004         30.0004
 -15992597.92948 -18649808.82249  21089364.5314                   21089355.8134
        51.5004         55.0004
 23  1  2  0  2 30.0000000  0  9G23G24G27G08G22G10G21G18G32
 -14809553.03247 -13531794.36446  21218425.3204                   21218414.9024
        46.5004         40.2504
 -14974079.06947 -12344210.89447  22220212.2974                   22220204.2814
        42.2504         44.0004
 -12810305.61747  -9789967.87447  23022617.5634                   23022608.9614
        42.5004         42.0004
  -9912721.46846  -7657532.33546  23330035.6884                   23330027.6724
        40.0004         39.2504
  -5743112.08546  -4675893.38843  22883236.5314                   22883225.6454
        39.2504         22.5004
 -28058609.22248 -21689169.24949  20537356.7114                   20537347.7584
        52.5004         54.7504
  -7061974.13146  -4062034.49643  24553884.6644                   24553872.6054
        38.0004         19.7504
 -15457408.34946 -12066648.76344  23024696.8524                   23024688.1914
        39.7504         29.0004
 -16043140.51548 -18689192.65149  21079746.7734                   21079737.8204
        51.0004         54.7504
 23  1  2  0  3  0.0000000  0  9G23G24G27G08G22G10G21G18G32
 -14761113.26247 -13494049.08946  21227643.0164                   21227632.3634
        47.0004         40.5004
 -14942432.17147 -12319550.97247  22226235.0634                   22226226.5204
        42.5004         44.2504
 -12739967.74747  -9735159.15946  23036002.2814                   23035993.8554
        42.0004         41.7504
  -9896666.81246  -7645022.23046  23333090.8834                   23333083.3364
        39.5004         39.7504
  -5830255.61246  -4743797.39943  22866653.2344                   22866643.0514
        40.0004         23.2504
 -28067478.54648 -21696080.41249  20535668.8524                   20535659.7814
        52.2504         54.7504
  -7148388.74046  -4129370.53843  24537440.5704                   24537428.5704
        38.2504         20.0004
 -15354734.89246 -11986643.49144  23044235.6174                   23044225.9614
        39.5004         29.7504
 -16093274.06448 -18728257.74449  21070206.5234                   21070197.3954
        51.2504         54.7504
 23  1  2  0  3 30.0000000  0  9G23G24G27G08G22G10G21G18G32
 -14712423.61247 -13456109.11146  21236908.3444                   21236897.9264
        47.0004         40.2504
 -14910162.22647 -12294405.56647  22232375.4694                   22232367.1024
        42.2504         44.0004
 -12669258.88547  -9680061.34147  23049458.2194                   23049449.3244
        43.5004         42.0004
  -9880072.21846  -7632091.41046  23336249.1644                   23336240.8554
        39.7504         39.5004
  -5917146.39346  -4811504.47943  22850118.4844                   22850108.1254
        39.0004         22.7504
 -28076081.79348 -21702784.23849  20534031.8284                   20534022.9924
        53.2504         54.7504
  -7234664.22846  -4196598.16543  24521023.1644                   24521010.8134
        39.2504         19.7504
 -15251818.43346 -11906448.85544  23063819.9924                   23063810.5704
        38.7504         29.2504
 -16142999.63748 -18767004.93849  21060744.3364                   21060735.5004
        51.7504         55.0004
 23  1  2  0  4  0.0000000  0  9G23G24G27G08G22G10G21G18G32
 -14663482.97247 -13417973.55746  21246221.3364                   21246210.8014
        46.2504         40.5004
 -14877268.93247 -12268774.41747  22238635.4304                   22238626.4774
        42.5004         44.2504
 -12598180.57247  -9624675.65646  23062983.4144                   23062975.2234
        42.5004         41.7504
  -9862937.82646  -7618739.96146  23339509.7344                   23339501.5434
        39.5004         39.7504
  -6003781.80546  -4879012.56343  22833633.4144                   22833622.0004
        40.0004         23.7504
 -28084417.33048 -21709279.46249  20532445.7114                   20532436.8164
        52.7504         54.7504
  -7320797.61646  -4263715.07643  24504631.8834                   24504620.3524
        37.7504         20.2504
 -15148659.50246 -11826065.28844  23083450.8914                   23083440.8834
        39.5004         28.7504
 -16192315.45748 -18805432.84649  21051359.4614                   21051351.2114
        51.0004         54.7504
 23  1  2  0  4 30.0000000  0  9G23G24G27G08G22G10G21G18G32
 -14614291.52748 -13379642.56846  21255582.8284                   21255571.7664
        48.0004         40.5004
 -14843753.34447 -12242658.37547  22245012.3594                   22245004.3444
        42.7504         44.0004
 -12526735.68447  -9569004.33546  23076579.1174                   23076570.2814
        42.5004         41.5004
  -9845264.14346  -7604968.28346  23342872.6094                   23342864.5944
        39.5004         39.7504
  -6090160.68546  -4946320.74643  22817195.0784                   22817184.8364
        39.7504         23.7504
 -28092484.59748 -21715565.64649  20530910.3834                   20530901.3714
        53.2504         55.0004
  -7406786.81546  -4330719.60743  24488268.7734                   24488257.0084
        39.0004         21.0004
 -15045260.01246 -11745494.25944  23103125.6254                   23103117.1994
        37.2504         29.2504
 -16241221.07448 -18843541.10749  21042053.4454                   21042044.9614
        51.7504         54.7504
 23  1  2  0  5  0.0000000  0  9G23G24G27G08G22G10G21G18G32
 -14564851.09447 -13341117.55546  21264990.2894                   21264979.7544
        46.2504         40.2504
 -14809618.23747 -12216059.59947  22251508.3914                   22251499.9654
        43.0004         44.0004
 -12454928.85147  -9513050.96446  23090244.3834                   23090234.7274
        43.0004         41.7504
  -9827054.25046  -7590778.78546  23346338.2734                   23346330.0824
        38.5004         39.7504
  -6176283.53446  -5013429.43344  22800807.0314                   22800796.5554
        40.5004         25.2504
 -28100284.81848 -21721643.73549  20529426.2424                   20529417.2304
        51.5004         55.2504
  -7492631.54846  -4397611.60143  24471933.6804                   24471921.2114
        39.2504         21.2504
 -14941623.60446 -11664738.63244  23122848.6024                   23122837.9494
        39.2504         29.0004
 -16289717.73448 -18881330.70849  21032824.5704                   21032815.2664
        51.2504         54.7504
 23  1  2  0  5 30.0000000  0  9G23G24G27G08G22G10G21G18G32
 -14515160.67747 -13302397.76646  21274446.2974                   21274435.8204
        47.0004         40.5004
 -14774863.49047 -12188977.96947  22258122.6884                   22258113.8524
        44.0004         44.0004
 -12382761.63547  -9456816.78146  23103976.4844                   23103968.0594
        42.5004         41.7504
  -9808308.11346  -7576171.42846  23349905.6334                   23349897.4414
        40.0004         39.7504
  -6262147.52046  -5080336.42644  22784466.9924                   22784456.8094
        40.2504         24.0004
 -28107816.05848 -21727512.23949  20527992.8914                   20527983.9384
        53.0004         55.0004
  -7578329.14946  -4464388.92243  24455625.3204                   24455613.7304
        39.2504         19.7504
 -14837750.87246 -11583798.85744  23142615.0234                   23142604.2544
        39.2504         29.0004
 -16337803.65648 -18918800.24849  21023674.6174                   21023665.4884
        51.7504         54.7504
 23  1  2  0  6  0.0000000  0  9G23G24G27G08G22G10G21G18G32
 -14465220.94447 -13263483.69746  21283949.4694                   21283939.0514
        47.0004         40.2504
 -14739490.76847 -12161414.80547  22264853.0864                   22264844.8954
        43.0004         44.0004
 -12310237.49947  -9400304.47546  23117778.0084                   23117769.2304
        42.2504         41.5004
  -9789027.40546  -7561147.52646  23353574.7814                   23353566.0044
        40.0004         39.5004
  -6347752.19846  -5147041.36944  22768176.8054                   22768166.0944
        40.2504         25.5004
 -28115078.59648 -21733171.36649  20526610.9534                   20526601.9414
        52.5004         54.7504
  -7663877.96046  -4531050.29543  24439346.3674                   24439333.8404
        39.0004         20.5004
 -14733644.45046 -11502676.98644  23162425.7424                   23162415.7344
        39.5004         28.7504
 -16385479.10348 -18955949.93049  21014601.2194                   21014592.6764
        51.0004         54.7504
 23  1  2  0  6 30.0000000  0  9G23G24G27G08G22G10G21G18G32
 -14415031.67547 -13224375.18346  21293500.1644                   21293489.7464
        47.5004         40.0004
 -14703500.74747 -12133370.65347  22271702.4534                   22271693.6174
        43.2504         44.2504
 -12237359.00947  -9343516.04046  23131645.9454                   23131637.2854
        42.5004         41.0004
  -9769212.89146  -7545707.67946  23357344.8674                   23357336.5004
        39.0004         39.5004
  -6433095.71946  -5213542.76644  22751936.9144                   22751926.0274
        40.7504         25.7504
 -28122071.66448 -21738620.50849  20525280.3204                   20525271.0744
        53.0004         54.7504
  -7749275.67146  -4597593.95343  24423095.9304                   24423083.3444
        39.5004         20.7504
 -14629305.61646 -11421373.99844  23182280.7034                   23182270.7544
        39.0004         28.7504
 -16432743.12648 -18992779.03549  21005608.0634                   21005598.8164
        51.0004         54.7504
 23  1  2  0  7  0.0000000  0  9G23G24G27G08G22G10G21G18G32
 -14364593.29147 -13185072.54846  21303098.2114                   21303087.7344
        47.0004         40.2504
 -14666894.94447 -12104846.63147  22278668.5234                   22278659.5124
        43.7504         44.2504
 -12164129.19046  -9286453.86446  23145580.8204                   23145572.9224
        41.5004         41.0004
  -9748866.18646  -7529853.11846  23361217.0704                   23361208.5274
        40.5004         39.2504
  -6518177.30546  -5279840.07844  22735745.7504                   22735735.8014
        40.0004         25.2504
 -28128794.55948 -21743859.12949  20524001.1414                   20523991.9534
        53.0004         55.2504
  -7834519.97946  -4664018.08443  24406874.4454                   24406862.0944
        38.7504         20.2504
 -14524736.67646 -11339891.70244  23202180.1884                   23202169.1254
        41.0004         28.0004
 -16479595.64148 -19029287.47949  20996692.2424                   20996683.0554
        51.5004         55.0004
 23  1  2  0  7 30.0000000  0  9G23G24G27G08G22G10G21G18G32
 -14313906.12147 -13145576.06346  21312743.7114                   21312733.4104
        47.0004         40.2504
 -14629674.66447 -12075843.81347  22285750.4304                   22285742.1214
        42.5004         44.2504
 -12090551.21847  -9229120.37946  23159582.4534                   23159573.9104
        42.5004         40.7504
  -9727988.64346  -7513584.93446  23365189.9694                   23365181.3094
        39.0004         39.5004
  -6602995.79646  -5345932.39044  22719605.6484                   22719595.6414
        40.2504         25.0004
 -28135247.13648 -21748887.11349  20522772.9304                   20522764.1524
        53.0004         55.0004
  -7919609.57946  -4730321.65043  24390682.4614                   24390669.7584
        39.7504         20.0004
 -14419939.66846 -11258231.71244  23222122.3914                   23222111.3874
        40.2504         28.0004
 -16526036.37448 -19065475.05849  20987854.6254                   20987845.7894
        51.0004         54.7504
 23  1  2  0  8  0.0000000  0  9G23G24G27G08G22G10G21G18G32
 -14262969.96747 -13105885.56146  21322436.8134                   21322426.2194
        46.0004         40.0004
 -14591840.78247 -12046362.87347  22292950.5784                   22292941.9184
        43.2504         44.2504
 -12016627.69946  -9171517.64046  23173649.6644                   23173640.5944
        41.7504         40.5004
  -9706581.17046  -7496903.81446  23369263.7734                   23369255.1724
        38.5004         39.2504
  -6687549.87346  -5411818.66244  22703516.1724                   22703505.1094
        40.7504         25.7504
 -28141428.51848 -21753703.77949  20521596.8834                   20521587.9884
        52.5004         55.0004
  -8004542.39746  -4796503.05043  24374519.8444                   24374507.7274
        37.7504         21.5004
 -14314916.23046 -11176395.26344  23242107.6334                   23242096.9804
        40.0004         28.2504
 -16572064.57048 -19101341.17049  20979095.6254                   20979087.1994
        51.5004         54.7504
 23  1  2  0  8 30.0000000  0  9G23G24G27G08G22G10G21G18G32
 -14211784.66947 -13066000.92446  21332177.0864                   21332166.2584
        46.5004         40.5004
 -14553394.17147 -12016404.46647  22300266.1954                   22300258.3554
        42.7504         44.5004
 -11942361.06447  -9113647.55246  23187782.1174                   23187773.5164
        42.7504         40.7504
  -9684644.23446  -7479810.12246  23373437.8754                   23373429.5084
        39.0004         39.5004
  -6771837.66246  -5477497.40944  22687476.9064                   22687465.4924
        41.0004         25.7504
 -28147337.83548 -21758308.44049  20520472.5004                   20520463.4304
        52.7504         54.7504
  -8089316.61146  -4862560.84443  24358387.9144                   24358375.5044
        38.7504         20.5004
 -14209667.86346 -11094383.54744  23262135.3674                   23262124.6564
        40.5004         29.0004
 -16617679.51948 -19136885.28149  20970415.9384                   20970406.9844
        51.2504         54.7504
 23  1  2  0  9  0.0000000  0  9G23G24G27G08G22G10G21G18G32
 -14160352.04047 -13025923.56246  21341964.2194                   21341953.8014
        47.0004         39.7504
 -14514337.79647 -11985970.93647  22307698.2894                   22307690.2154
        43.0004         44.0004
 -11867756.05547  -9055513.77746  23201978.7194                   23201970.3524
        42.5004         40.2504
  -9662181.46046  -7462306.69046  23377712.5084                   23377704.3164
        38.7504         39.7504
  -6855859.53146  -5542968.99744  22671487.0234                   22671476.8984
        40.7504         26.0004
 -28152976.22848 -21762701.98949  20519399.4614                   20519390.0394
        52.5004         54.7504
  -8173930.54246  -4928493.78643  24342287.0784                   24342274.5514
        39.0004         22.0004
 -14104198.19046 -11012199.39944  23282204.4774                   23282195.2304
        39.7504         29.2504
 -16662882.51648 -19172108.39049  20961813.7274                   20961804.7734
        52.2504         54.7504
 23  1  2  0  9 30.0000000  0  9G23G24G27G08G22G10G21G18G32
 -14108671.31047 -12985652.86646  21351798.6564                   21351788.3554
        46.5004         40.5004
 -14474672.00347 -11955062.51347  22315247.0234                   22315238.3634
        43.5004         44.2504
 -11792814.52746  -8997117.79246  23216239.1724                   23216230.6884
        41.5004         40.0004
  -9639193.08446  -7444393.70846  23382086.8674                   23382078.6764
        39.7504         39.2504
  -6939613.47846  -5608231.77844  22655549.7584                   22655538.9304
        40.7504         27.7504
 -28158342.52648 -21766883.53149  20518378.3364                   20518369.0904
        52.5004         55.0004
  -8258381.79646  -4994299.92243  24326214.9064                   24326203.2584
        39.0004         20.7504
 -13998508.31346 -10929843.65444  23302317.2974                   23302307.5824
        40.7504         28.0004
 -16707672.37248 -19207009.55449  20953290.5394                   20953281.5274
        51.5004         55.0004
 23  1  2  0 10  0.0000000  0  9G23G24G27G08G22G10G21G18G32
 -14056742.18247 -12945188.62046  21361680.5784                   21361670.2194
        46.5004         40.0004
 -14434397.69147 -11923679.94347  22322910.9454                   22322902.1684
        42.7504         44.0004
 -11717539.14046  -8938461.64246  23230564.5084                   23230555.7894
        41.7504         39.5004
  -9615679.79846  -7426071.68946  23386561.4774                   23386553.4024
        39.0004         39.2504
  -7023097.80046  -5673284.49044  22639662.9844                   22639652.7424
        41.0004         27.2504
 -28163435.29848 -21770851.92349  20517409.2424                   20517400.1724
        53.0004         54.7504
  -8342668.94246  -5059978.21543  24310176.8674                   24310164.0474
        40.0004         21.5004
 -13892599.61646 -10847317.40844  23322471.4064                   23322461.5164
        40.7504         27.5004
 -16752048.09248 -19241588.02549  20944846.0084                   20944837.1134
        52.0004         54.7504
 23  1  2  0 10 30.0000000  0  9G23G24G27G08G22G10G21G18G32
 -14004565.61547 -12904531.56746  21371609.0554                   21371598.7544
        46.2504         40.0004
 -14393516.90247 -11891824.78147  22330690.5084                   22330681.4964
        43.7504         44.2504
 -11641933.45446  -8879548.12946  23244950.7734                   23244942.8164
        41.2504         39.0004
  -9591643.82846  -7407342.38646  23391135.8984                   23391127.6484
        39.7504         39.5004
  -7106312.52746  -5738127.09944  22623827.7974                   22623817.2624
        41.2504         26.5004
 -28168254.97848 -21774607.52349  20516491.9694                   20516483.1334
        53.0004         55.2504
  -8426790.17646  -5125527.21743  24294168.3204                   24294156.8484
        40.2504         20.5004
 -13786474.85546 -10764622.81044  23342666.8364                   23342656.3014
        41.7504         28.5004
 -16796010.15448 -19275844.17349  20936480.3524                   20936471.3984
        51.5004         54.7504
 23  1  2  0 11  0.0000000  0  9G23G24G27G08G22G10G21G18G32
 -13952141.70947 -12863681.77446  21381585.2814                   21381575.0394
        46.5004         40.0004
 -14352030.97647 -11859498.08947  22338584.2344                   22338576.3364
        42.5004         44.5004
 -11566000.47346  -8820379.57546  23259400.8914                   23259392.5824
        40.7504         39.5004
  -9567086.21446  -7388206.60146  23395808.7424                   23395800.4924
        40.0004         39.5004
  -7189255.04446  -5802757.62344  22608045.1024                   22608033.9804
        41.0004         26.5004
 -28172800.92148 -21778149.81749  20515626.8594                   20515617.9064
        53.7504         55.0004
  -8510742.76646  -5190944.79943  24278193.1414                   24278180.7304
        39.5004         20.5004
 -13680135.88046 -10681761.29344  23362901.8754                   23362891.3984
        41.2504         28.2504
 -16839558.28848 -19309777.76449  20928193.2114                   20928184.4924
        51.7504         54.7504
 23  1  2  0 11 30.0000000  0  9G23G24G27G08G22G10G21G18G32
 -13899471.17147 -12822639.80946  21391608.4454                   21391597.6174
        47.0004         40.0004
 -14309941.81047 -11826701.33247  22346594.0004                   22346585.5744
        42.5004         44.0004
 -11489743.68046  -8760958.68246  23273911.9614                   23273903.9454
        40.5004         38.5004
  -9542009.48846  -7368666.30146  23400580.2274                   23400572.2114
        40.2504         39.5004
  -7271926.00446  -5867176.51444  22592312.3914                   22592302.0904
        41.2504         26.0004
 -28177073.32648 -21781478.96249  20514813.5704                   20514804.8524
        53.0004         55.0004
  -8594525.61846  -5256230.12743  24262249.8204                   24262237.5864
        40.0004         22.5004
 -13573585.24346 -10598734.83144  23383175.9694                   23383167.6024
        38.7504         28.0004
 -16882692.66148 -19343388.95449  20919984.9844                   20919976.2074
        51.2504         54.7504
 23  1  2  0 12  0.0000000  0  9G23G24G27G08G22G10G21G18G32
 -13846552.80247 -12781404.73346  21401678.0084                   21401667.4144
        46.0004         40.0004
 -14267249.52747 -11793434.61147  22354718.5314                   22354709.3444
        42.5004         44.0004
 -11413164.61446  -8701286.71646  23288484.3834                   23288476.1334
        40.5004         38.5004
  -9516413.47046  -7348721.36146  23405451.1174                   23405443.1024
        41.0004         39.7504
  -7354322.80846  -5931381.82144  22576633.0784                   22576622.2504
        41.7504         26.0004
 -28181070.07248 -21784593.30849  20514053.1414                   20514044.3054
        53.2504         55.0004
  -8678135.85546  -5321380.93743  24246338.8594                   24246326.7424
        40.2504         22.0004
 -13466823.69146 -10515543.99944  23403493.7114                   23403484.0554
        38.7504         27.5004
 -16925411.63248 -19376676.44949  20911856.1484                   20911847.3134
        52.0004         54.7504
 23  1  2  0 12 30.0000000  0  9G23G24G27G08G22G10G21G18G32
 -13793387.56247 -12739977.28346  21411795.3134                   21411784.7774
        46.2504         39.7504
 -14223956.30447 -11759699.63847  22362956.6024                   22362948.1174
        42.7504         44.2504
 -11336267.17446  -8641366.61546  23303118.1804                   23303109.5784
        40.0004         38.2504
  -9490300.35146  -7328373.49046  23410419.9144                   23410412.1914
        39.7504         39.5004
  -7436444.94447  -5995373.06844  22561006.1334                   22560995.2464
        42.5004         26.5004
 -28184791.73648 -21787493.30449  20513345.2734                   20513336.2034
        52.0004         55.0004
  -8761572.62346  -5386396.58543  24230462.0234                   24230449.6724
        40.7504         21.7504
 -13359853.68746 -10432190.80644  23423850.2814                   23423839.6294
        41.0004         27.5004
 -16967715.71448 -19409640.66249  20903805.7504                   20903796.9734
        51.7504         54.7504
 23  1  2  0 13  0.0000000  0  9G23G24G27G08G22G10G21G18G32
 -13739976.10947 -12698357.98546  21421959.1024                   21421948.4494
        47.5004         39.7504
 -14180064.11447 -11725497.91547  22371308.8594                   22371300.6684
        42.2504         44.2504
 -11259054.73546  -8581201.08446  23317809.6884                   23317802.4924
        38.5004         38.5004
  -9463671.66346  -7307623.87746  23415487.7424                   23415479.4924
        40.0004         39.0004
  -7518291.49246  -6059149.57944  22545430.4144                   22545419.8204
        41.7504         27.2504
 -28188237.91048 -21790178.64349  20512689.1884                   20512680.4694
        53.7504         54.7504
  -8844833.48246  -5451275.17843  24214617.5704                   24214605.3364
        41.0004         22.7504
 -13252677.93546 -10348677.20944  23444242.4844                   23444234.5274
        38.0004         27.5004
 -17009605.16448 -19442281.77649  20895834.3444                   20895825.8014
        51.0004         54.7504
 23  1  2  0 13 30.0000000  0  9G23G24G27G08G22G10G21G18G32
 -13686318.07247 -12656546.54246  21432169.7194                   21432159.5354
        47.0004         39.7504
 -14135573.85146 -11690830.20347  22379774.7664                   22379766.7504
        41.0004         43.5004
 -11181529.74446  -8520792.00246  23332562.8444                   23332554.8874
        39.5004         38.5004
  -9436528.70846  -7286473.54746  23420653.0944                   23420644.1994
        39.7504         39.2504
  -7599860.91847  -6122710.16444  22529908.5634                   22529897.6764
        42.5004         28.0004
 -28191408.05848 -21792648.88949  20512085.8444                   20512077.0664
        53.0004         55.0004
  -8927916.23446  -5516014.95743  24198807.7894                   24198795.0864
        40.7504         22.0004
 -13145297.79046 -10265004.40144  23464679.1804                   23464667.7074
        39.7504         27.5004
 -17051079.13248 -19474599.13949  20887942.2034                   20887933.3094
        52.0004         54.7504
 23  1  2  0 14  0.0000000  0  9G23G24G27G08G22G10G21G18G32
 -13632414.17747 -12614543.50946  21442427.2894                   21442416.9304
        45.7504         39.7504
 -14090487.68747 -11655698.11747  22388355.7974                   22388345.7894
        43.0004         44.0004
 -11103695.84746  -8460142.20146  23347374.4534                   23347366.3204
        40.0004         37.7504
  -9408873.95346  -7264924.39846  23425914.9844                   23425906.6764
        39.7504         39.2504
  -7681152.89946  -6186054.53944  22514438.5864                   22514428.7544
        41.7504         27.0004
 -28194301.60148 -21794903.60349  20511535.4534                   20511526.5004
        52.5004         54.7504
  -9010819.99546  -5580615.27243  24183031.3984                   24183019.2814
        40.7504         22.7504
 -13037715.79546 -10181174.27744  23485149.8984                   23485140.7114
        37.7504         27.0004
 -17092137.92948 -19506592.99249  20880129.2274                   20880119.9224
        51.7504         54.7504
 23  1  2  0 14 30.0000000  0  9G23G24G27G08G22G10G21G18G32
 -13578264.59747 -12572349.03646  21452732.2034                   21452721.2584
        47.5004         39.5004
 -14044807.03546 -11620102.79347  22397047.2034                   22397038.8954
        41.2504         43.7504
 -11025555.90646  -8399253.94846  23362244.2664                   23362235.6054
        39.2504         37.7504
  -9380708.20546  -7242977.07846  23431275.4304                   23431266.8874
        39.2504         39.5004
  -7762165.84447  -6249181.48944  22499023.1724                   22499012.4024
        42.5004         27.5004
 -28196918.14948 -21796942.47849  20511037.3364                   20511028.3834
        52.5004         55.0004
  -9093541.75246  -5645073.76843  24167289.9384                   24167278.2304
        40.2504         22.5004
 -12929933.95946 -10097188.43544  23505660.4144                   23505650.5234
        38.5004         26.5004
 -17132781.35148 -19538263.17349  20872394.7424                   20872385.9064
        51.7504         54.7504
 23  1  2  0 15  0.0000000  0  9G23G24G27G08G22G10G21G18G32
 -13523869.27747 -12529963.08546  21463082.5784                   21463072.1024
        46.5004         39.2504
 -13998533.27946 -11584045.32047  22405852.8284                   22405844.6374
        41.5004         43.5004
 -10947112.87546  -8338129.50246  23377171.3134                   23377162.8874
        39.0004         38.2504
  -9352033.21446  -7220632.94546  23436731.3984                   23436723.4414
        39.2504         39.0004
  -7842898.71346  -6312090.19644  22483658.5554                   22483649.4264
        41.2504         27.5004
 -28199257.03348 -21798764.98549  20510592.1954                   20510583.0084
        51.5004         54.7504
  -9176080.02146  -5709389.30543  24151583.4224                   24151571.3054
        39.2504         22.0004
 -12821954.06146 -10013048.26444  23526207.5474                   23526198.7704
        37.0004         26.0004
 -17173008.98948 -19569609.37749  20864739.6024                   20864730.7664
        51.2504         54.7504
 23  1  2  0 15 30.0000000  0  9G23G24G27G08G22G10G21G18G32
 -13469228.19047 -12487385.62946  21473481.1484                   21473470.4964
        45.7504         39.5004
 -13951667.81946 -11547526.78047  22414770.2504                   22414763.0554
        40.0004         43.5004
 -10868369.40846  -8276770.95446  23392155.1414                   23392147.7114
        39.0004         37.7504
  -9322850.35046  -7197893.06046  23442285.0474                   23442277.1484
        40.2504         39.2504
  -7923350.09247  -6374779.55744  22468350.3054                   22468339.8874
        42.2504         28.0004
 -28201317.37048 -21800370.44449  20510200.4614                   20510191.0984
        52.5004         55.0004
  -9258432.41946  -5773559.96343  24135912.1484                   24135900.0314
        40.0004         22.2504
 -12713777.91746  -9928755.17844  23546793.2894                   23546783.9264
        38.0004         25.7504
 -17212820.37248 -19600631.21749  20857163.7114                   20857154.9344
        51.5004         54.7504
 23  1  2  0 16  0.0000000  0  9G23G24G27G08G22G10G21G18G32
 -13414342.61047 -12444617.65546  21483925.1414                   21483915.0164
        46.5004         39.0004
 -13904213.32747 -11510549.25747  22423801.6724                   22423792.9534
        42.0004         43.2504
 -10789329.67546  -8215181.56346  23407196.1414                   23407187.9494
        39.0004         38.0004
  -9293162.31346  -7174759.54046  23447935.2894                   23447926.4534
        40.0004         39.2504
  -8003520.06147  -6437249.64344  22453094.8444                   22453084.0164
        43.2504         28.2504
 -28203099.98348 -21801759.49949  20509861.2034                   20509851.8984
        53.5004         55.0004
  -9340598.03046  -5837585.12943  24120276.6884                   24120264.6884
        39.5004         22.0004
 -12605408.55746  -9844311.52644  23567415.8674                   23567405.8594
        38.0004         27.5004
 -17252216.43948 -19631329.43649  20849666.6954                   20849658.0354
        51.5004         54.7504
 23  1  2  0 16 30.0000000  0  9G23G24G27G08G22G10G21G18G32
 -13359211.42347 -12401658.30046  21494416.2894                   21494405.8714
        47.0004         38.7504
 -13856170.16546 -11473113.01247  22432943.2504                   22432934.9414
        41.2504         43.0004
 -10709995.49046  -8153362.72146  23422293.7114                   23422285.1094
        40.0004         38.5004
  -9262969.29046  -7151232.51946  23453680.0394                   23453671.9064
        39.2504         39.2504
  -8083406.19947  -6499498.54344  22437892.4614                   22437881.8674
        42.0004         28.2504
 -28204602.93048 -21802930.62149  20509575.0394                   20509566.2034
        53.7504         55.0004
  -9422573.49546  -5901462.09043  24104677.2894                   24104665.2304
        39.0004         22.0004
 -12496846.77746  -9759717.95144  23588074.9694                   23588064.3754
        39.2504         27.0004
 -17291195.73348 -19661702.90849  20842249.0084                   20842240.6414
        51.5004         55.0004
 23  1  2  0 17  0.0000000  0  9G23G24G27G08G22G10G21G18G32
 -13303835.56247 -12358508.28946  21504954.2194                   21504943.3914
        46.5004         39.0004
 -13807540.67846 -11435219.91747  22442197.3054                   22442189.1134
        39.7504         43.0004
 -10630370.52746  -8091317.29346  23437445.1724                   23437437.0984
        39.5004         38.0004
  -9232273.57546  -7127313.79446  23459521.0784                   23459513.2384
        39.5004         39.5004
  -8163008.32147  -6561526.15744  22422745.2974                   22422734.1764
        42.7504         27.5004
 -28205826.40048 -21803883.98149  20509342.2664                   20509333.3134
        53.7504         54.7504
  -9504357.71746  -5965190.04343  24089114.3754                   24089102.3754
        39.7504         22.5004
 -12388095.33246  -9674976.56744  23608769.1174                   23608759.2854
        38.2504         26.7504
 -17329758.81648 -19691752.04449  20834911.1564                   20834902.3204
        51.5004         54.7504
 23  1  2  0 17 30.0000000  0  9G23G24G27G08G22G10G21G18G32
 -13248215.35047 -12315167.87346  21515537.9224                   21515527.5634
        46.0004         39.0004
 -13758326.69046 -11396871.34747  22451562.9614                   22451554.5944
        40.2504         42.7504
 -10550457.96246  -8029047.76946  23452652.2194                   23452643.6764
        38.2504         38.5004
  -9201076.81346  -7103004.64246  23465457.9224                   23465449.6724
        39.5004         39.2504
  -8242325.11047  -6623331.41544  22407651.0634                   22407641.4654
        42.0004         28.0004
 -28206770.29148 -21804619.48149  20509162.9454                   20509153.8754
        53.5004         55.0004
  -9585948.92646  -6028767.62043  24073587.9304                   24073575.5784
        38.0004         22.5004
 -12279156.30846  -9590089.04844  23629499.0314                   23629489.2584
        37.5004         26.5004
 -17367905.66048 -19721476.85049  20827652.0784                   20827642.9494
        51.5004         54.7504
 23  1  2  0 18  0.0000000  0  9G23G24G27G08G22G10G21G18G32
 -13192351.07347 -12271637.27246  21526168.5314                   21526158.1724
        46.5004         39.0004
 -13708530.02646 -11358068.75547  22461037.8364                   22461030.2894
        39.2504         42.5004
 -10470260.97746  -7966556.61446  23467914.0164                   23467905.2974
        40.0004         38.7504
  -9169381.50946  -7078307.01046  23471488.7894                   23471481.3014
        39.0004         39.0004
  -8321355.94047  -6684913.86244  22392612.0394                   22392601.3874
        42.5004         27.7504
 -28207433.68048 -21805136.40449  20509036.4064                   20509027.4534
        53.2504         54.7504
  -9667345.22046  -6092193.29643  24058099.0004                   24058086.4734
        39.7504         22.7504
 -12170031.97046  -9505057.08944  23650265.1414                   23650254.7814
        38.2504         25.7504
 -17405636.27248 -19750877.31749  20820472.3134                   20820463.1844
        52.0004         55.0004
 23  1  2  0 18 30.0000000  0  9G23G24G27G08G22G10G21G18G32
 -13136242.50147 -12227916.31746  21536845.6724                   21536835.2544
        45.5004         38.7504
 -13658151.99846 -11318813.12747  22470625.3674                   22470616.9414
        39.5004         42.5004
 -10389782.18846  -7903845.88046  23483227.2814                   23483219.5004
        38.5004         37.7504
  -9137188.53146  -7053221.56946  23477614.5234                   23477607.2704
        39.5004         38.7504
  -8400099.48247  -6746272.43944  22377627.6174                   22377617.0234
        42.5004         28.2504
 -28207815.96448 -21805434.29049  20508963.6724                   20508954.8954
        53.0004         55.0004
  -9748543.85446  -6155464.94343  24042646.5864                   24042635.1134
        39.0004         22.0004
 -12060723.80946  -9419881.87144  23671064.0634                   23671055.9884
        37.2504         26.0004
 -17442950.08848 -19779953.01449  20813371.4844                   20813362.6484
        50.7504         55.0004
 23  1  2  0 19  0.0000000  0  9G23G24G27G08G22G10G21G18G32
 -13079889.62647 -12184004.99746  21547569.6174                   21547559.1994
        45.7504         38.5004
 -13607194.07646 -11279105.66147  22480321.8054                   22480313.7894
        40.2504         42.5004
 -10309024.42646  -7840917.76046  23498595.9844                   23498587.1484
        39.5004         38.0004
  -9104499.32246  -7027749.46246  23483835.6254                   23483827.4924
        39.0004         39.0004
  -8478554.36447  -6807406.07844  22362697.9144                   22362687.5554
        42.7504         28.5004
 -28207916.17848 -21805512.38149  20508944.7194                   20508935.5314
        53.5004         55.0004
  -9829543.25346  -6218581.34543  24027233.6334                   24027221.5744
        40.5004         22.7504
 -11951233.75246  -9334564.99144  23691901.6254                   23691890.7384
        39.2504         26.0004
 -17479846.81748 -19808703.70149  20806350.1564                   20806341.4384
        51.2504         54.7504
 23  1  2  0 19 30.0000000  0  9G23G24G27G08G22G10G21G18G32
 -13023293.95547 -12139904.48646  21558339.2034                   21558328.6684
        45.7504         38.5004
 -13555659.51046 -11238948.84047  22490128.3984                   22490120.6764
        38.7504         42.2504
 -10227992.14046  -7777775.71946  23514015.2894                   23514007.3324
        39.0004         37.7504
  -9071317.21546  -7001893.27346  23490150.3054                   23490141.8204
        39.5004         39.0004
  -8556720.64047  -6868314.84644  22347823.9384                   22347813.0514
        42.2504         28.2504
 -28207735.38048 -21805371.50049  20508978.8284                   20508970.2274
        53.0004         55.0004
  -9910342.81646  -6281542.04543  24011858.0234                   24011845.7304
        40.5004         22.5004
 -11841565.14046  -9249108.93144  23712770.5164                   23712760.0984
        38.5004         25.5004
 -17516327.66048 -19837130.31849  20799408.2734                   20799399.2624
        52.2504         55.2504
 23  1  2  0 20  0.0000000  0  9G23G24G27G08G22G10G21G18G32
 -12966454.31647 -12095613.86046  21569155.3524                   21569144.8754
        45.7504         38.5004
 -13503548.49946 -11198342.88847  22500045.2584                   22500037.0664
        40.2504         42.2504
 -10146687.01946  -7714421.09446  23529488.0394                   23529478.5594
        40.2504         37.7504
  -9037642.22246  -6975653.03146  23496558.6094                   23496550.2424
        41.0004         38.7504
  -8634596.33047  -6928997.17044  22333005.1334                   22332993.9534
        43.0004         28.0004
 -28207271.46948 -21805010.01249  20509067.3284                   20509058.1994
        53.0004         54.7504
  -9990938.17746  -6344343.61843  23996520.9224                   23996508.8054
        40.5004         22.7504
 -11731718.62346  -9163514.26743  23733673.7584                   23733663.2234
        39.2504         23.7504
 -17552391.17948 -19865231.75349  20792545.6334                   20792536.6214
        51.5004         55.0004
 23  1  2  0 20 30.0000000  0  9G23G24G27G08G22G10G21G18G32
 -12909371.57747 -12051133.82146  21580017.7114                   21580007.7034
        45.5004         39.0004
 -13450863.80246 -11157289.85247  22510070.3834                   22510062.3094
        40.5004         42.0004
 -10065112.71746  -7650856.68946  23545010.9384                   23545002.2774
        38.7504         37.5004
  -9003477.11746  -6949030.87346  23503059.8524                   23503051.7774
        40.2504         38.7504
  -8712181.01947  -6989452.75744  22318240.5234                   22318230.0474
        42.7504         28.0004
 -28206524.38149 -21804427.86149  20509209.3524                   20509200.5164
        54.0004         54.7504
 -10071328.70846  -6406985.56444  23981223.7114                   23981210.8914
        41.5004         24.2504
 -11621696.99046  -9077783.16044  23754610.2424                   23754599.5314
        38.5004         24.0004
 -17588037.97448 -19893008.46849  20785761.9694                   20785753.3094
        51.7504         54.7504
 23  1  2  0 21  0.0000000  0  9G23G24G27G08G22G10G21G18G32
 -12852046.38547 -12006464.84046  21590926.5554                   21590916.0204
        45.7504         38.5004
 -13397607.41746 -11115791.38047  22520205.5234                   22520196.5124
        39.7504         42.5004
  -9983272.79246  -7587085.32646  23560584.6174                   23560575.8984
        38.7504         37.5004
  -8968823.45346  -6922028.02646  23509653.9454                   23509646.1644
        39.5004         38.7504
  -8789474.16447  -7049681.15244  22303532.2344                   22303521.9344
        43.0004         28.2504
 -28205494.25648 -21803625.16949  20509405.3984                   20509396.6214
        52.7504         54.7504
 -10151512.61646  -6469466.49644  23965964.8364                   23965953.2464
        41.0004         25.5004
 -11511502.65046  -8991917.43144  23775578.1644                   23775569.3284
        37.2504         25.0004
 -17623268.38948 -19920460.72349  20779057.9774                   20779048.8484
        51.0004         55.0004
 23  1  2  0 21 30.0000000  0  9G23G24G27G08G22G10G21G18G32
 -12794477.95847 -11961606.34346  21601881.5234                   21601870.9304
        45.7504         38.5004
 -13343780.27546 -11073848.12547  22530447.6414                   22530440.2114
        39.0004         42.0004
  -9901169.29446  -7523108.56946  23576209.1414                   23576199.1914
        39.7504         37.2504
  -8933682.88746  -6894645.77846  23516340.4844                   23516333.1134
        40.0004         38.5004
  -8866473.73147  -7109680.81744  22288880.0314                   22288869.0864
        43.0004         29.5004
 -28204179.48448 -21802600.67049  20509655.6334                   20509646.7974
        52.7504         54.7504
 -10231486.88546  -6531784.10544  23950746.0004                   23950733.5904
        40.7504         24.5004
 -11401136.77846  -8905918.05743  23796580.2034                   23796570.8404
        38.2504         22.5004
 -17658081.46148 -19947587.78149  20772433.5164                   20772424.5634
        51.5004         54.7504
 23  1  2  0 22  0.0000000  0  9G23G24G27G08G22G10G21G18G32
 -12736666.69747 -11916558.61546  21612882.9844                   21612872.0984
        45.7504         38.2504
 -13289384.45246 -11031461.79847  22540798.9924                   22540791.2704
        39.5004         42.2504
  -9818805.60646  -7458929.06446  23591880.4224                   23591872.8754
        38.0004         37.0004
  -8898056.98446  -6866885.33346  23523120.8984                   23523112.8244
        41.2504         39.0004
  -8943178.86047  -7169451.01644  22274282.8594                   22274272.1484
        43.0004         28.5004
 -28202580.07748 -21801354.38449  20509959.9614                   20509951.1254
        53.0004         54.7504
 -10311250.25446  -6593937.34544  23935567.7894                   23935555.9064
        41.0004         24.5004
 -11290601.58946  -8819786.72543  23817614.1954                   23817605.0084
        37.2504         23.5004
 -17692477.32048 -19974389.74349  20765888.1644                   20765879.1524
        51.5004         55.0004
 23  1  2  0 22 30.0000000  0  9G23G24G27G08G22G10G21G18G32
 -12678613.68347 -11871322.51746  21623929.6804                   21623919.0864
        45.5004         38.2504
 -13234422.89446 -10988634.59847  22551258.3834                   22551249.6054
        40.5004         42.0004
  -9736185.61346  -7394549.87846  23607603.5084                   23607594.7304
        38.5004         36.0004
  -8861948.72546  -6838749.03146  23529992.3204                   23529983.8954
        41.5004         39.0004
  -9019589.65547  -7228991.89244  22259742.8984                   22259731.9534
        43.5004         29.0004
 -28200696.09948 -21799886.35849  20510318.3914                   20510309.7304
        53.0004         55.0004
 -10390801.29346  -6655925.15844  23920430.3984                   23920417.1094
        41.0004         26.5004
 -11179900.12146  -8733525.88743  23838681.6564                   23838671.0044
        38.7504         22.7504
 -17726456.86348 -20000867.30549  20759421.6094                   20759412.8324
        51.7504         55.0004
 23  1  2  0 23  0.0000000  0  9G23G24G27G08G22G10G21G18G32
 -12620318.68147 -11825897.85246  21635023.0704                   21635012.6524
        45.5004         38.2504
 -13178896.83146 -10945367.52546  22561823.5864                   22561815.7464
        40.0004         41.2504
  -9653311.99046  -7329973.00346  23623372.6024                   23623364.6454
        37.5004         36.0004
  -8825359.48747  -6810237.95046  23536954.5164                   23536946.6764
        42.0004         38.7504
  -9095704.81647  -7288302.39745  22245258.1564                   22245247.6804
        44.0004         30.7504
 -28198526.53848 -21798195.79249  20510731.1884                   20510722.6454
        52.2504         55.0004
 -10470137.60847  -6717745.64944  23905333.0554                   23905319.8244
        42.0004         25.2504
 -11069033.87446  -8647136.62243  23859777.4064                   23859768.1024
        36.7504         22.5004
 -17760019.60748 -20027020.08149  20753035.3834                   20753026.1374
        52.0004         54.7504
 23  1  2  0 23 30.0000000  0 10G23G24G27G08G22G10G21G18G31G32
 -12561781.27847 -11780284.30346  21646161.9774                   21646151.8524
        45.7504         38.2504
 -13122807.79546 -10901661.78446  22572497.9144                   22572489.4884
        39.5004         41.5004
  -9570187.19046  -7265200.43146  23639192.0314                   23639183.3714
        39.0004         36.7504
  -8788290.78547  -6781353.25946  23544008.9694                   23544000.1914
        42.0004         38.7504
  -9171522.18847  -7347380.86145  22230830.8204                   22230820.1094
        44.0004         30.7504
 -28196070.35148 -21796281.89249  20511198.5474                   20511189.5944
        52.7504         55.0004
 -10549256.04147  -6779396.34244  23890277.0944                   23890265.1524
        42.0004         26.5004
 -10958004.35846  -8560620.12543  23880905.9304                   23880896.3324
        37.0004         22.0004
    604501.75455    503236.69354  25306167.2114                   25306155.7384
        34.5004         29.2504
 -17793164.96448 -20052847.62949  20746727.8364                   20746719.0594
        51.7504         54.7504
 23  1  2  0 24  0.0000000  0 10G23G24G27G08G22G10G21G18G31G32
 -12503005.69847 -11734485.15146  21657346.8754                   21657336.0474
        45.5004         38.0004
 -13066161.57146 -10857521.89746  22583276.6884                   22583268.7304
        39.0004         41.5004
  -9486818.37446  -7200237.71446  23655057.1804                   23655047.7584
        38.7504         36.0004
  -8750748.03946  -6752099.19146  23551152.9924                   23551144.5664
        41.7504         38.5004
  -9247045.55247  -7406230.23045  22216459.6024                   22216448.0704
        43.7504         30.2504
 -28193331.19948 -21794147.48849  20511719.8054                   20511711.3204
        53.7504         55.2504
 -10628159.33246  -6840879.40944  23875261.4224                   23875249.8324
        41.0004         25.2504
 -10846817.74345  -8473981.16243  23902063.2814                   23902054.5634
        34.7504         22.0004
    486629.03245    411387.77545  25283735.3754                   25283725.0164
        33.0004         30.0004
 -17825896.93448 -20078353.05549  20740498.8054                   20740489.9694
        52.0004         55.0004
 23  1  2  0 24 30.0000000  0 10G23G24G27G08G22G10G21G18G31G32
 -12443985.89347 -11688495.71346  21668577.9844                   21668567.3914
        45.7504         38.2504
 -13008953.98046 -10812944.53045  22594163.7814                   22594154.7704
        39.7504         34.5004
  -9403202.28246  -7135082.30945  23670967.4144                   23670958.8714
        37.7504         35.2504
  -8712727.22447  -6722472.59646  23558388.1644                   23558379.7974
        42.0004         38.5004
  -9322267.60847  -7464844.79845  22202145.6334                   22202134.5704
        44.7504         30.5004
 -28190301.93148 -21791787.02449  20512296.2344                   20512287.6334
        53.5004         55.0004
 -10706838.94146  -6902188.18644  23860288.5864                   23860278.1094
        41.5004         26.0004
 -10735469.74346  -8387216.53543  23923253.4924                   23923243.3094
        36.7504         21.5004
    368667.75945    319469.84544  25261290.3364                   25261278.4534
        35.2504         29.0004
 -17858209.31948 -20103531.52349  20734350.2974                   20734341.3444
        51.7504         54.7504
 23  1  2  0 25  0.0000000  0 10G23G24G27G08G22G10G21G18G31G32
 -12384724.73947 -11642318.20446  21679854.7734                   21679844.2974
        45.0004         38.0004
 -12951189.64046 -10767933.37544  22605154.9694                   22605147.1294
        38.2504         29.5004
  -9319344.76846  -7069738.78145  23686925.9224                   23686917.3204
        37.7504         34.7504
  -8674233.06147  -6692477.17946  23565712.9694                   23565704.8954
        42.0004         38.5004
  -9397189.94547  -7523225.83745  22187888.3594                   22187876.8284
        44.7504         32.0004
 -28186985.00348 -21789202.41049  20512927.3834                   20512918.7234
        53.0004         55.0004
 -10785295.92046  -6963323.47044  23845359.7734                   23845347.7154
        41.5004         24.2504
 -10623965.14045  -8300329.82743  23944469.8204                   23944461.8634
        35.2504         22.2504
    250617.63045    227482.67445  25238825.3674                   25238814.3634
        35.0004         30.2504
 -17890104.76248 -20128385.11249  20728280.7584                   20728271.6884
        51.5004         54.7504
 23  1  2  0 25 30.0000000  0 10G23G24G27G08G22G10G21G18G31G32
 -12325220.48347 -11595951.27246  21691178.7734                   21691168.1804
        45.5004         38.0004
 -12892868.65446 -10722488.43245  22616254.4694                   22616245.4574
        39.0004         30.0004
  -9235246.85846  -7004207.95545  23702928.9774                   23702920.2584
        37.7504         34.0004
  -8635265.54947  -6662112.91046  23573128.4924                   23573120.1844
        42.2504         38.5004
  -9471809.71047  -7581371.08645  22173687.5944                   22173677.5274
        44.5004         31.5004
 -28183377.66348 -21786391.49949  20513613.9454                   20513605.2854
        53.7504         54.7504
 -10863525.90346  -7024281.89344  23830472.3754                   23830460.4344
        41.0004         24.7504
 -10512304.10746  -8213321.23743  23965720.6024                   23965710.5944
        37.7504         23.0004
                                  25216348.6174                   25216333.5704
        38.0004         27.7504
 -17921581.39248 -20152912.34749  20722290.8284                   20722282.1094
        51.7504         54.7504
 23  1  2  0 26  0.0000000  0 10G23G24G27G08G22G10G21G18G31G32
 -12265480.92247 -11549400.97346  21702546.1484                   21702535.9064
        45.5004         38.5004
 -12834000.50846 -10676617.16844  22627456.1334                   22627447.9414
        38.5004         29.5004
  -9150919.34146  -6938498.18545  23718977.0314                   23718967.5514
