     2.11           OBSERVATION DATA    G (GPS)             RINEX VERSION / TYPE
teqc  2019Feb25     Salamtina Y.M.      20230920 03:20:33UTCPGM / RUN BY / DATE
OBSERVATION MODE: Permanent                                 COMMENT
CHUM Chumysh (CHUM)                                         MARKER NAME
25601M001                                                   MARKER NUMBER
4549261325          TRIMBLE NETRS        1.3-2              REC # / TYPE / VERS
237                 AOAD/M_T        NONE                    ANT # / TYPE
        0.0900        0.0000        0.0000                  ANTENNA: DELTA H/E/N
  1228950.3080  4508080.0097  4327868.5420                  APPROX POSITION XYZ
  74.75110458  42.99850161  716.3351  LonLatAlt  S/W        COMMENT
ANT ADDED FROM RCV_ANT.txt                                  COMMENT
Linux 2.6.32-573.12.1.x86_64|x86_64|gcc|Linux 64|=+         COMMENT
BIT 2 OF LLI FLAGS DATA COLLECTED UNDER A/S CONDITION       COMMENT
Konovalov S.M.      RS_RAS                                  OBSERVER / AGENCY
     1     1                                                WAVELENGTH FACT L1/2
     7    L1    L2    C1    P1    P2    S1    S2            # / TYPES OF OBSERV
    30.0000                                                 INTERVAL
    18                                                      LEAP SECONDS
TIME: 2023.01.05                                            COMMENT
TOUR: cont                                                  COMMENT
RSET: RAS02                                                 COMMENT
ASET: DS24                                                  COMMENT
OPER: skon (Konovalov S.M.)                                 COMMENT
SOUR: chum202301050000d.dat                                 COMMENT
SUPP: chum202301050000d.eph                                 COMMENT
SUPP: chum202301050000d.ion                                 COMMENT
SUPP: chum202301050000d.mes                                 COMMENT
Forced Modulo Decimation to 30 seconds                      COMMENT
 SNR is mapped to RINEX snr flag value [0-9]                COMMENT
  L1 & L2: min(max(int(snr_dBHz/6), 0), 9)                  COMMENT
  2023     1     5     0     0    0.0000000     GPS         TIME OF FIRST OBS
  2023     1     5    23    59   30.0000000     GPS         TIME OF LAST OBS
                                                            END OF HEADER
 23  1  5  0  0  0.0000000  0  9G24G23G27G08G22G21G10G18G32
 -15201267.92947 -12376351.76047  22362421.9694                   22362413.8954
        42.0004         44.0004
 -14065175.91547 -13049739.74446  21409435.4614                   21409424.5744
        47.0004         39.7504
 -11690556.68546  -8902941.25946  23297679.7734                   23297672.9304
        39.7504         38.5004
  -9759162.30946  -7555017.98346  23407657.3754                   23407647.3674
        41.5004         39.5004
  -7565176.47146  -5638270.77144  22576405.4144                   22576394.2344
        41.5004         26.0004
  -8741914.03846  -5811701.07443  24236222.6804                   24236210.7974
        40.2504         22.0004
 -27898752.26348 -21997068.41449  20514578.0314                   20514569.0784
        53.5004         54.7504
 -14176478.79846 -10746545.20344  23411387.0944                   23411378.5514
        37.5004         27.7504
 -17230678.10248 -19712635.63349  20908909.6954                   20908900.8014
        51.0004         54.7504
 23  1  5  0  0 30.0000000  0  9G24G23G27G08G22G21G10G18G32
 -15157585.14647 -12342313.22047  22370735.3364                   22370726.6174
        42.5004         43.7504
 -14011843.39747 -13008181.94346  21419584.4614                   21419573.8674
        47.0004         39.5004
 -11613457.10446  -8842863.66346  23312353.0634                   23312344.2854
        40.0004         39.0004
  -9732674.23546  -7534377.95146  23412696.6564                   23412688.2894
        40.7504         39.0004
  -7647264.09346  -5702235.12244  22560783.4534                   22560773.5634
        41.7504         27.2504
  -8825230.15946  -5876622.73343  24220368.2194                   24220355.9844
        40.5004         22.2504
 -27902368.10148 -21999885.94249  20513890.1334                   20513881.0044
        52.5004         55.0004
 -14069439.77146 -10663138.19844  23431757.1174                   23431746.9344
        39.5004         27.2504
 -17272763.95048 -19745429.78249  20900901.0864                   20900891.9574
        51.5004         54.7504
 23  1  5  0  1  0.0000000  0  9G24G23G27G08G22G21G10G18G32
 -15113302.65046 -12307807.37347  22379160.5394                   22379152.9924
        41.0004         43.5004
 -13958263.21047 -12966431.15946  21429780.2664                   21429769.4964
        46.2504         39.5004
 -11536042.55246  -8782540.64946  23327083.3134                   23327075.9414
        38.7504         37.5004
  -9705670.01946  -7513335.72546  23417834.5784                   23417827.1484
        40.0004         39.5004
  -7729074.39447  -5765983.40444  22545215.2034                   22545205.6054
        42.0004         27.0004
  -8908367.97146  -5941405.43243  24204547.9454                   24204535.7704
        41.0004         21.5004
 -27905707.05148 -22002487.72749  20513254.7734                   20513245.8204
        53.2504         55.0004
 -13962193.85646 -10579569.95644  23452163.6024                   23452155.0594
        38.0004         27.2504
 -17314433.28648 -19777899.37349  20892971.7814                   20892962.9454
        52.0004         55.0004
 23  1  5  0  1 30.0000000  0  9G24G23G27G08G22G21G10G18G32
 -15068423.31246 -12272836.46747  22387702.0554                   22387693.1024
        41.5004         43.2504
 -13904436.92247 -12924488.61646  21440023.3674                   21440012.6564
        46.2504         39.5004
 -11458317.32646  -8721975.55346  23341874.1644                   23341865.9144
        39.2504         38.0004
  -9678152.96446  -7491893.90546  23423071.2344                   23423063.1604
        41.0004         38.7504
  -7810607.79246  -5829515.91144  22529700.8054                   22529689.9774
        41.5004         25.7504
  -8991326.37246  -6006048.31743  24188761.3754                   24188748.9064
        40.5004         21.7504
 -27908769.37348 -22004873.95149  20512671.9924                   20512663.0984
        53.2504         54.7504
 -13854744.53846 -10495843.21344  23472612.2194                   23472601.7424
        38.2504         26.0004
 -17355687.18848 -19810045.25349  20885121.0234                   20885112.4224
        51.0004         54.7504
 23  1  5  0  2  0.0000000  0  9G24G23G27G08G22G21G10G18G32
 -15022949.60347 -12237402.38547  22396355.7974                   22396346.7854
        42.0004         43.7504
 -13850365.60547 -12882355.12046  21450312.4534                   21450301.9774
        45.7504         39.2504
 -11380285.50446  -8661171.53546  23356723.6024                   23356715.8204
        38.7504         37.5004
  -9650124.93546  -7470053.90946  23428404.9224                   23428397.0234
        38.5004         38.7504
  -7891864.22547  -5892832.57544  22514237.3444                   22514227.8054
        42.0004         26.7504
  -9074104.68246  -6070550.91443  24173009.2274                   24172996.6994
        39.7504         22.7504
 -27911555.95948 -22007045.30649  20512141.7734                   20512132.6454
        52.0004         54.7504
 -13747094.62246 -10411960.18144  23493095.8834                   23493087.4574
        38.0004         27.5004
 -17396526.39448 -19841867.99649  20877349.8364                   20877341.1174
        51.5004         54.7504
 23  1  5  0  2 30.0000000  0  9G24G23G27G08G22G21G10G18G32
 -14976882.02246 -12201505.57547  22405121.2894                   22405113.5664
        40.2504         43.5004
 -13796048.37547 -12840030.01646  21460648.5864                   21460638.1684
        46.2504         39.2504
 -11301948.94146  -8600130.07046  23371630.0704                   23371622.2304
        39.5004         37.5004
  -9621586.66146  -7447816.32546  23433835.9534                   23433827.7624
        39.2504         38.7504
  -7972841.07747  -5955931.40844  22498828.9844                   22498818.2734
        42.0004         27.0004
  -9156699.52546  -6134910.48443  24157291.2194                   24157279.8634
        39.7504         22.5004
 -27914065.08648 -22009000.47649  20511664.2274                   20511655.2154
        53.0004         55.0004
 -13639245.07046 -10327921.56144  23513619.5394                   23513610.2344
        36.5004         26.0004
 -17436949.62548 -19873366.60449  20869657.4064                   20869648.3954
        51.5004         55.0004
 23  1  5  0  3  0.0000000  0  9G24G23G27G08G22G21G10G18G32
 -14930222.38046 -12165147.41947  22414000.1954                   22413992.6484
        40.7504         43.5004
 -13741485.72547 -12797513.67246  21471031.2814                   21471020.9804
        45.5004         39.0004
 -11223310.89146  -8538853.66046  23386594.5084                   23386586.2584
        40.5004         37.5004
  -9592540.08046  -7425182.65846  23439363.6484                   23439355.3404
        39.0004         38.7504
  -8053537.97247  -6018812.08744  22483472.6484                   22483462.1134
        42.0004         27.0004
  -9239109.59146  -6199126.14743  24141609.4774                   24141597.6524
        40.5004         22.5004
 -27916296.32748 -22010739.10949  20511239.5164                   20511230.6214
        52.2504         55.0004
 -13531198.19146 -10243729.18444  23534180.0864                   23534171.0744
        36.5004         27.5004
 -17476956.89248 -19904541.09749  20862043.9304                   20862035.2704
        51.0004         55.0004
 23  1  5  0  3 30.0000000  0  9G24G23G27G08G22G21G10G18G32
 -14882972.72547 -12128329.50747  22422991.9694                   22422983.6024
        42.2504         43.0004
 -13686678.24547 -12754806.56546  21481461.4534                   21481450.6254
        46.0004         39.0004
 -11144374.88746  -8477345.09446  23401616.0704                   23401608.2894
        39.0004         37.5004
  -9562987.40046  -7402154.62846  23444986.6564                   23444978.9924
        39.0004         38.5004
  -8133953.80846  -6081473.76044  22468169.9924                   22468159.1644
        41.7504         28.2504
  -9321333.05146  -6263196.38243  24125962.7894                   24125950.4384
        40.0004         22.7504
 -27918249.64148 -22012261.16649  20510867.8284                   20510858.8164
        52.2504         55.0004
 -13422956.38946 -10159384.91244  23554777.8054                   23554768.7934
        36.2504         26.7504
 -17516548.45448 -19935391.64749  20854510.3914                   20854501.3794
        51.5004         55.0004
 23  1  5  0  4  0.0000000  0  9G24G23G27G08G22G21G10G18G32
 -14835134.15446 -12091052.68947  22432095.0704                   22432086.9964
        41.0004         42.7504
 -13631625.54847 -12711908.35946  21491937.4774                   21491926.8834
        47.0004         39.0004
 -11065143.36546  -8415606.26046  23416693.0084                   23416684.6414
        38.5004         38.0004
  -9532929.21446  -7378732.69946  23450707.7114                   23450698.6414
        39.7504         38.5004
  -8214087.28347  -6143915.42144  22452920.7974                   22452910.4964
        42.0004         28.2504
  -9403367.58746  -6327119.36643  24110352.9534                   24110339.8984
        40.5004         22.5004
 -27919923.97948 -22013565.84649  20510549.2814                   20510540.2114
        53.7504         55.0004
 -13314521.19846 -10074889.95144  23575412.4144                   23575403.8134
        37.5004         25.5004
 -17555723.58948 -19965917.70449  20847055.4924                   20847046.5984
        52.0004         55.0004
 23  1  5  0  4 30.0000000  0  9G24G23G27G08G22G21G10G18G32
 -14786624.54546 -12053253.00247  22441325.6954                   22441317.6214
        40.0004         42.5004
 -13576244.18047 -12668754.05846  21502475.9224                   21502465.5634
        45.5004         39.0004
 -10985535.73046  -8353574.33646  23431842.1414                   23431833.8324
        39.0004         37.7504
  -9502284.34646  -7354853.59846  23456538.2424                   23456530.2274
        41.0004         39.0004
  -8293853.72347  -6206071.06944  22437741.9224                   22437731.3284
        42.2504         27.7504
  -9485127.10046  -6390828.08643  24094793.5084                   24094782.0944
        39.0004         22.2504
 -27921235.25348 -22014587.62449  20510299.8834                   20510290.9884
        53.5004         55.0004
 -13205810.83746  -9990180.59844  23596100.7424                   23596090.0314
        37.5004         26.0004
 -17594398.49148 -19996053.97849  20839695.8364                   20839687.0594
        51.7504         55.2504
 23  1  5  0  5  0.0000000  0  9G24G23G27G08G22G21G10G18G32
 -14737698.26246 -12015128.59647  22450636.8754                   22450628.3324
        40.7504         42.7504
 -13520786.86547 -12625540.57746  21513029.2814                   21513018.6884
        45.5004         38.7504
 -10905807.52346  -8291448.47746  23447013.4304                   23447005.8244
        38.5004         37.5004
  -9471306.07346  -7330714.70846  23462433.5394                   23462425.4654
        39.2504         38.7504
  -8373504.61047  -6268136.67044  22422584.2584                   22422574.0744
        42.5004         27.7504
  -9566862.62646  -6454518.10443  24079240.2424                   24079228.5354
        39.7504         22.0004
 -27922435.33748 -22015522.74949  20510071.4454                   20510062.2584
        52.5004         54.7504
 -13097079.99946  -9905455.26944  23616791.6414                   23616780.7544
        38.0004         26.0004
 -17632825.50748 -20025997.08949  20832383.6094                   20832374.4804
        51.2504         55.0004
 23  1  5  0  5 30.0000000  0  9G24G23G27G08G22G21G10G18G32
 -14688103.87846 -11976483.63147  22460072.9304                   22460065.8524
        38.5004         42.0004
 -13465000.74147 -12582070.87246  21523644.6954                   21523634.6884
        45.5004         38.5004
 -10825708.74246  -8229033.85646  23462255.7114                   23462247.7544
        38.2504         37.0004
  -9439743.61946  -7306120.61246  23468439.2814                   23468431.7344
        39.2504         39.0004
  -8452785.46346  -6329913.95344  22407498.1644                   22407487.2194
        41.5004         27.0004
  -9648319.36046  -6517990.88343  24063739.5784                   24063727.1094
        39.0004         22.5004
 -27923270.87848 -22016173.82949  20509912.5944                   20509903.3484
        53.0004         55.0004
 -12988077.60146  -9820518.34144  23637533.5394                   23637523.1804
        38.5004         27.0004
 -17670751.51648 -20055549.81549  20825166.3754                   20825157.4804
        50.7504         54.7504
 23  1  5  0  6  0.0000000  0  9G24G23G27G08G22G21G10G18G32
 -14637927.90746 -11937385.47247  22469622.4844                   22469614.2344
        39.7504         42.5004
 -13408970.82347 -12538411.20046  21534307.2034                   21534296.4924
        46.5004         38.5004
 -10745327.30746  -8166398.97146  23477553.1254                   23477543.9384
        40.2504         38.0004
  -9407683.26946  -7281138.54346  23474540.5864                   23474532.3954
        39.5004         38.2504
  -8531780.27847  -6391468.31644  22392465.8594                   22392455.0904
        42.0004         27.0004
  -9729579.63946  -6581310.56543  24048276.1334                   24048264.4264
        38.7504         22.7504
 -27923825.87949 -22016606.29849  20509806.8284                   20509797.5234
        54.0004         54.7504
 -12878890.59046  -9735437.58244  23658311.8754                   23658300.8714
        39.0004         26.0004
 -17708261.16848 -20084778.10549  20818028.5634                   20818019.3754
        51.5004         54.7504
 23  1  5  0  6 30.0000000  0  9G24G23G27G08G22G21G10G18G32
 -14587172.00146 -11897835.41947  22479280.5784                   22479272.3874
        39.0004         42.5004
 -13352697.18947 -12494561.62346  21545016.1024                   21545004.9224
        45.7504         38.7504
 -10664666.12646  -8103546.11746  23492902.1804                   23492893.6954
        39.0004         37.5004
  -9375126.37046  -7255769.55646  23480735.4224                   23480727.6414
        39.5004         38.2504
  -8610487.97647  -6452798.97644  22377488.2734                   22377477.6214
        42.2504         27.7504
  -9810641.06346  -6644475.30243  24032851.0634                   24032838.7704
        40.7504         23.0004
 -27924099.67648 -22016819.64749  20509754.7194                   20509745.4734
        53.5004         54.7504
 -12769520.78746  -9650214.35844  23679123.3524                   23679113.5784
        37.5004         25.5004
 -17745354.23848 -20113681.77549  20810969.8444                   20810961.0084
        51.0004         55.0004
 23  1  5  0  7  0.0000000  0  9G24G23G27G08G22G21G10G18G32
 -14535838.43746 -11857835.23947  22489049.5314                   22489041.2234
        39.5004         42.2504
 -13296180.52247 -12450522.66846  21555770.6414                   21555759.6374
        45.7504         38.5004
 -10583728.73546  -8040478.02046  23508302.8444                   23508294.8874
        39.2504         37.5004
  -9342075.50346  -7230015.64646  23487024.6024                   23487017.0554
        39.2504         38.2504
  -8688908.16747  -6513905.58744  22362565.4534                   22362555.0354
        42.0004         28.5004
  -9891502.83846  -6707484.47144  24017463.5944                   24017451.0084
        41.2504         24.0004
 -27924092.36848 -22016813.95449  20509755.9614                   20509746.9494
        52.7504         55.0004
 -12659970.80146  -9564850.75044  23699970.7274                   23699959.7814
        38.5004         25.5004
 -17782031.16148 -20142261.18949  20803990.2664                   20803981.2544
        51.2504         54.7504
 23  1  5  0  7 30.0000000  0  9G24G23G27G08G22G21G10G18G32
 -14483928.11646 -11817385.62947  22498927.3054                   22498919.4064
        39.5004         42.0004
 -13239420.23047 -12406293.87746  21566571.6334                   21566561.3324
        45.7504         38.2504
 -10502517.43446  -7977196.48446  23523757.2584                   23523749.3594
        38.5004         37.7504
  -9308531.44646  -7203877.45346  23493407.9224                   23493400.1994
        39.0004         38.0004
  -8767038.87947  -6574786.64744  22347697.0634                   22347687.2894
        42.5004         27.7504
  -9972162.05646  -6770335.82243  24002113.8984                   24002102.1914
        40.5004         22.7504
 -27923802.38648 -22016587.99549  20509811.5474                   20509802.1844
        53.5004         54.7504
 -12550241.83946  -9479347.65344  23720850.9304                   23720840.6294
        38.5004         24.5004
 -17818291.01048 -20170515.61449  20797090.2034                   20797081.4264
        51.0004         55.0004
 23  1  5  0  8  0.0000000  0  9G24G23G27G08G22G21G10G18G32
 -14431442.97446 -11776488.12747  22508915.0944                   22508906.7274
        39.7504         42.0004
 -13182416.57747 -12361875.45946  21577419.1484                   21577408.6134
        45.2504         38.0004
 -10421035.35146  -7913703.98146  23539262.4844                   23539254.6454
        39.0004         37.7504
  -9274496.26246  -7177356.55246  23499885.3284                   23499877.0204
        40.0004         39.0004
  -8844879.00047  -6635441.26444  22332883.6954                   22332874.2154
        42.5004         29.2504
 -10052616.85946  -6833027.86044  23986805.1644                   23986792.4024
        41.2504         25.0004
 -27923229.61748 -22016141.67549  20509920.3444                   20509911.1564
        52.7504         54.7504
 -12440336.05546  -9393706.78144  23741764.5314                   23741754.8754
        37.5004         25.7504
 -17854133.78748 -20198445.03449  20790269.9924                   20790260.9804
        51.5004         55.0004
 23  1  5  0  8 30.0000000  0  9G24G23G27G08G22G21G10G18G32
 -14378385.86746 -11735144.91446  22519011.9454                   22519003.4614
        39.7504         41.7504
 -13125170.78147 -12317268.36246  21588312.6724                   21588301.8444
        45.7504         38.5004
 -10339286.53446  -7850003.60846  23554819.0864                   23554811.1884
        38.5004         37.2504
  -9239972.34246  -7150454.81546  23506454.8524                   23506446.6024
        40.5004         38.5004
  -8922428.77747  -6695869.64744  22318127.5234                   22318117.3984
        42.0004         28.2504
 -10132865.76846  -6895559.46844  23971533.4454                   23971521.5634
        41.2504         24.0004
 -27922374.56848 -22015475.40249  20510083.1884                   20510074.0594
        53.7504         54.7504
 -12330256.55046  -9307930.53443  23762712.7814                   23762702.1294
        38.5004         23.5004
 -17889560.43748 -20226050.19649  20783528.6644                   20783519.3594
        51.5004         55.0004
 23  1  5  0  9  0.0000000  0  9G24G23G27G08G22G21G10G18G32
 -14324757.54946 -11693356.62147  22529217.3444                   22529208.6844
        40.7504         42.0004
 -13067681.99247 -12272471.90646  21599252.0554                   21599241.8134
        45.5004         38.0004
 -10257273.08446  -7786097.03246  23570425.6334                   23570417.6174
        38.2504         36.7504
  -9204960.84646  -7123173.14646  23513117.1884                   23513109.0554
        41.0004         38.5004
  -8999686.01947  -6756070.07844  22303425.3054                   22303415.7074
        42.7504         28.7504
 -10212906.09846  -6957928.54644  23956302.2274                   23956290.2274
        41.5004         25.0004
 -27921235.57349 -22014587.87349  20510299.6484                   20510290.6954
        54.0004         55.0004
 -12220004.24346  -9222019.66244  23783693.0234                   23783682.9574
        39.0004         24.0004
 -17924569.86348 -20253330.25049  20776866.4534                   20776857.7344
        52.0004         55.0004
 23  1  5  0  9 30.0000000  0  9G24G23G27G08G22G21G10G18G32
 -14270560.47646 -11651125.12847  22539529.4924                   22539521.9454
        38.2504         42.0004
 -13009950.92847 -12227486.66946  21610238.5234                   21610227.6374
        45.5004         38.2504
 -10174998.57046  -7721987.03546  23586081.9064                   23586074.1254
        38.7504         36.7504
  -9169464.19746  -7095513.44546  23519871.6254                   23519863.7274
        39.7504         38.0004
  -9076650.57647  -6816042.43044  22288779.0554                   22288769.4574
        42.5004         28.7504
 -10292735.89546  -7020133.57744  23941111.5004                   23941099.2074
        41.5004         26.2504
 -27919812.74148 -22013479.18749  20510570.3754                   20510561.5984
        53.5004         55.0004
 -12109581.84146  -9135976.24043  23804706.2114                   23804695.1484
        38.2504         22.5004
 -17959162.59348 -20280285.60849  20770283.6024                   20770274.5904
        51.2504         55.0004
 23  1  5  0 10  0.0000000  0  9G24G23G27G08G22G21G10G18G32
 -14215795.71146 -11608451.31546  22549951.4534                   22549943.1454
        39.5004         41.5004
 -12951977.11747 -12182312.28046  21621270.1024                   21621259.6254
        45.2504         38.0004
 -10092465.36746  -7657675.44446  23601787.6254                   23601779.2584
        37.5004         36.2504
  -9133482.80446  -7067476.01946  23526718.5474                   23526711.4104
        40.2504         38.0004
  -9153320.58147  -6875785.28744  22274191.2734                   22274179.5084
        43.2504         29.2504
 -10372352.82846  -7082172.72544  23925961.0004                   23925948.4734
        40.7504         25.2504
 -27918104.47848 -22012148.07249  20510895.5084                   20510886.5554
        53.5004         54.7504
 -11998990.68346  -9049801.31543  23825749.8674                   23825740.6804
        36.5004         22.5004
 -17993337.86148 -20306915.67849  20763780.3284                   20763771.0234
        51.0004         54.7504
 23  1  5  0 10 30.0000000  0  9G24G23G27G08G22G21G10G18G32
 -14160466.54346 -11565337.64346  22560480.8594                   22560471.8484
        39.7504         41.7504
 -12893761.95447 -12136949.83246  21632348.2194                   21632337.5664
        45.5004         37.5004
 -10009677.77346  -7593165.65446  23617541.3914                   23617533.4924
        38.2504         36.0004
  -9097020.62746  -7039063.95546  23533657.6564                   23533649.5234
        41.2504         38.2504
  -9229696.31747  -6935298.82444  22259657.1954                   22259646.1334
        43.7504         29.0004
 -10451756.65247  -7144045.85144  23910851.0864                   23910838.2664
        42.2504         25.5004
 -27916111.71148 -22010595.26549  20511274.7194                   20511265.7074
        52.7504         54.7504
 -11888233.97946  -8963497.36243  23846826.0704                   23846816.2384
        36.5004         23.2504
 -18027096.92648 -20333221.42449  20757356.2194                   20757347.1484
        51.2504         55.0004
 23  1  5  0 11  0.0000000  0 10G24G23G27G08G22G21G10G18G31G32
 -14104574.30746 -11521785.26746  22571115.6484                   22571107.7504
        38.5004         41.2504
 -12835305.24247 -12091399.15746  21643472.1954                   21643461.4264
        45.5004         38.0004
  -9926638.49746  -7528459.71846  23633344.2194                   23633335.2664
        38.2504         36.2504
  -9060078.82947  -7010278.15246  23540688.0234                   23540679.5984
        42.0004         38.7504
  -9305776.43647  -6994582.01945  22245179.1804                   22245168.5274
        44.0004         30.0004
 -10530944.14546  -7205750.36944  23895782.2424                   23895770.3014
        41.2504         26.0004
 -27913833.44948 -22008820.00049  20511708.1954                   20511699.3594
        53.5004         54.7504
 -11777313.47946  -8877065.84143  23867933.3674                   23867924.3554
        37.0004         22.2504
    481475.80755    404142.50854  25310970.2974                   25310960.3484
        30.7504         27.0004
 -18060439.32848 -20359202.50049  20751010.8054                   20751002.3204
        50.5004         55.0004
 23  1  5  0 11 30.0000000  0 10G24G23G27G08G22G21G10G18G31G32
 -14048120.72446 -11477795.45746  22581859.1884                   22581850.8794
        39.0004         41.5004
 -12776606.85947 -12045660.17746  21654642.5474                   21654631.4844
        45.5004         37.7504
  -9843350.18046  -7463559.73546  23649192.5314                   23649184.8094
        38.0004         36.5004
  -9022659.26446  -6981120.06146  23547808.6334                   23547800.2664
        41.7504         38.5004
  -9381559.67147  -7053633.88344  22230757.9924                   22230747.3404
        44.2504         29.5004
 -10609913.47146  -7267284.90344  23880754.2974                   23880741.7704
        41.5004         25.0004
 -27911269.11048 -22006821.81349  20512196.1094                   20512186.9804
        53.7504         54.7504
 -11666230.89446  -8790507.98443  23889072.6094                   23889062.3674
        37.5004         22.5004
    363651.62055    312331.37254  25288549.4224                   25288539.6484
        32.7504         29.0004
 -18093364.69648 -20384858.60449  20744745.6644                   20744736.5944
        51.5004         55.0004
 23  1  5  0 12  0.0000000  0 10G24G23G27G08G22G21G10G18G31G32
 -13991108.22246 -11433370.14146  22592708.4144                   22592699.6374
        40.0004         41.2504
 -12717667.40547 -11999733.33846  21665857.7504                   21665847.3914
        45.5004         38.0004
  -9759816.48246  -7398468.53546  23665088.7274                   23665080.7704
        38.0004         36.0004
  -8984763.36647  -6951590.81046  23555020.0004                   23555011.5164
        42.2504         38.0004
  -9457045.56847  -7112454.04445  22216393.6414                   22216383.3404
        44.0004         30.0004
 -10688662.87446  -7328648.07144  23865768.9064                   23865756.7894
        41.0004         26.5004
 -27908417.89148 -22004600.08949  20512738.7664                   20512729.9304
        53.0004         55.0004
 -11554988.71546  -8703825.74243  23910240.9304                   23910231.5084
        37.0004         22.5004
    245735.30556    220448.49654  25266115.2114                   25266099.8714
        36.5004         26.5004
 -18125873.52048 -20410190.14349  20738559.3594                   20738550.4654
        51.5004         55.0004
 23  1  5  0 12 30.0000000  0 10G24G23G27G08G22G21G10G18G31G32
 -13933539.18046 -11388511.12145  22603663.4924                   22603654.7154
        40.0004         34.2504
 -12658487.67547 -11953619.28446  21677119.7814                   21677109.0704
        46.0004         38.5004
  -9676041.00946  -7333188.95145  23681029.8524                   23681022.4224
        37.2504         34.5004
  -8946394.55647  -6921693.03546  23562321.2584                   23562312.3054
        42.5004         38.2504
  -9532233.71747  -7171042.20145  22202085.8594                   22202075.2074
        44.5004         31.0004
 -10767190.90946  -7389838.73844  23850825.8054                   23850813.6294
        41.5004         24.2504
 -27905280.47649 -22002155.34849  20513335.8134                   20513327.2114
        54.0004         54.7504
 -11443589.61946  -8617021.25343  23931439.5634                   23931429.5554
        38.0004         22.7504
    127728.53955    128495.10655  25243657.7664                   25243645.8244
        34.7504         30.0004
 -18157966.44848 -20435197.61149  20732452.0784                   20732443.4774
        52.2504         54.7504
 23  1  5  0 13  0.0000000  0 10G24G23G27G08G22G21G10G18G31G32
 -13875416.04746 -11343220.38644  22614722.9844                   22614715.0864
        38.7504         29.5004
 -12599068.22647 -11907318.42546  21688426.6954                   21688416.0434
        46.0004         38.0004
  -9592027.14846  -7267723.60545  23697017.6564                   23697010.0514
        38.0004         34.2504
  -8907554.41247  -6891428.00646  23569712.1564                   23569703.9654
        42.0004         38.0004
  -9607123.54147  -7229397.88945  22187834.4064                   22187824.3404
        44.2504         30.7504
 -10845495.98546  -7450855.65444  23835923.6484                   23835912.4104
        41.0004         24.0004
 -27901856.18448 -21999487.07149  20513987.3054                   20513978.4104
        52.2504         54.7504
 -11332035.99546  -8530096.35343  23952667.3674                   23952657.8874
        36.0004         22.2504
      9633.83745     36473.32244  25221179.5944                   25221171.8134
        31.5004         28.7504
 -18189643.77748 -20459881.21949  20726424.1334                   20726415.4734
        51.5004         55.0004
 23  1  5  0 13 30.0000000  0 10G24G23G27G08G22G21G10G18G31G32
 -13816737.92346 -11297497.15845  22625890.3754                   22625881.1884
        40.5004         30.2504
 -12539406.29447 -11860828.61246  21699780.1564                   21699769.6214
        45.7504         37.7504
  -9507775.10946  -7202072.67645  23713049.9534                   23713042.5824
        36.2504         34.0004
  -8868242.61847  -6860795.46946  23577192.3594                   23577184.5204
        42.5004         38.0004
  -9681711.29347  -7287518.18545  22173640.8204                   22173630.9304
        44.0004         30.5004
 -10923573.72246  -7511695.46144  23821066.9774                   23821054.9184
        40.7504         24.7504
 -27898141.83148 -21996592.77049  20514693.9614                   20514685.3014
        53.5004         54.7504
 -11220327.01346  -8443050.38243  23973925.3524                   23973914.9344
        38.0004         22.0004
   -108542.90956    -55612.49355  25198696.6644                   25198683.0234
        37.2504         31.0004
 -18220902.64048 -20484238.76449  20720476.0784                   20720467.0664
        52.5004         54.7504
 23  1  5  0 14  0.0000000  0 10G24G23G27G08G22G21G10G18G31G32
 -13757508.99046 -11251344.75845  22637159.9774                   22637152.1374
        39.0004         30.2504
 -12479504.30947 -11814151.75146  21711179.0474                   21711168.3954
        46.0004         38.0004
  -9423290.14346  -7136240.23045  23729126.9694                   23729119.1294
        37.5004         34.0004
  -8828463.11247  -6829798.46246  23584762.5944                   23584754.8134
        42.0004         38.0004
  -9755998.13747  -7345404.02845  22159504.2664                   22159494.0824
        43.7504         31.2504
 -11001423.08846  -7572357.29844  23806252.2424                   23806241.0634
        40.0004         24.5004
 -27894138.95348 -21993473.65349  20515455.7424                   20515446.9064
        53.7504         55.0004
 -11108466.92846  -8355886.69143  23995210.0634                   23995201.1684
        36.5004         22.5004
   -226802.28346   -147762.54945  25176191.9224                   25176180.3914
        37.5004         31.0004
 -18251745.36848 -20508272.04349  20714606.8834                   20714597.8134
        52.2504         55.0004
 23  1  5  0 14 30.0000000  0 10G24G23G27G08G22G21G10G18G31G32
 -13697730.99446 -11204764.49444  22648535.8914                   22648527.4064
        39.7504         29.0004
 -12419362.17247 -11767287.76646  21722623.7274                   21722612.7814
        45.5004         38.0004
  -9338575.06345  -7070228.46945  23745246.6334                   23745240.2584
        35.0004         33.7504
  -8788217.87546  -6798438.55346  23592421.1804                   23592413.1054
        41.7504         38.0004
  -9829982.89847  -7403054.45645  22145426.1414                   22145415.3134
        44.7504         31.2504
 -11079042.35946  -7632839.84344  23791481.9224                   23791470.0394
        39.7504         25.0004
 -27889846.85748 -21990129.16049  20516272.5474                   20516263.7114
        53.0004         54.7504
 -10996457.59346  -8268606.66143  24016525.7814                   24016515.8914
        37.5004         22.7504
   -345140.35246   -239973.91045  25153674.1334                   25153662.8954
        38.0004         31.0004
 -18282171.61548 -20531980.79849  20708816.8284                   20708807.8164
        52.2504         54.7504
 23  1  5  0 15  0.0000000  0 10G24G23G27G08G22G21G10G18G31G32
 -13637406.99246 -11157758.78545  22660014.6644                   22660006.5904
        39.0004         30.0004
 -12358981.05447 -11720237.56246  21734114.4224                   21734103.2424
        46.2504         37.7504
  -9253633.98246  -7004040.63645  23761412.4064                   23761404.1564
        37.7504         34.0004
  -8747509.58647  -6766717.81546  23600167.5944                   23600159.1684
        42.5004         38.0004
  -9903665.84647  -7460469.72945  22131403.9454                   22131394.1724
        44.7504         30.7504
 -11156430.73946  -7693142.47344  23776754.3914                   23776743.9734
        40.7504         26.0004
 -27885265.82148 -21986559.52649  20517144.1254                   20517135.5234
        53.0004         54.7504
 -10884301.99146  -8181212.70543  24037869.1644                   24037858.3954
        38.0004         22.5004
   -463555.86155   -332245.93455  25131135.4534                   25131128.3164
        33.0004         31.0004
 -18312182.53048 -20555365.91649  20703105.6884                   20703096.7934
        52.0004         54.7504
 23  1  5  0 15 30.0000000  0 11G24G23G27G08G22G21G10G18G31G01G32
 -13576369.67246 -11110197.21244  22671630.8834                   22671621.9304
        39.0004         29.5004
 -12298191.74847 -11672869.28246  21745681.5944                   21745671.0594
        46.0004         37.2504
  -9168300.48046  -6937546.97145  23777650.3594                   23777642.0514
        36.5004         32.5004
  -8706170.81046  -6734505.77646  23608033.9924                   23608025.9184
        41.5004         37.2504
  -9976876.49047  -7517516.95345  22117473.0784                   22117462.3674
        44.2504         31.2504
 -11233416.55647  -7753131.38744  23762107.3674                   23762094.5474
        42.0004         25.5004
 -27880226.14248 -21982632.50949  20518103.5864                   20518094.7504
        53.2504         55.0004
 -10771832.85046  -8093574.42743  24059270.8364                   24059260.4774
        38.0004         22.7504
   -581876.81945   -424444.07845  25108621.0234                   25108611.6604
        30.5004         31.0004
    571629.90155    513801.58552  25344137.8284                   25344130.0474
        30.5004         16.7504
 -18341608.71848 -20578295.40549  20697506.4694                   20697497.4574
        52.0004         55.0004
 23  1  5  0 16  0.0000000  0 11G24G23G27G08G22G21G10G18G31G01G32
 -13515124.58946 -11062473.80444  22683284.0944                   22683276.3134
        38.2504         29.2504
 -12237497.98947 -11625575.45246  21757230.9304                   21757220.5124
        45.2504         37.0004
  -9083081.20046  -6871142.35745  23793866.5474                   23793859.1174
        36.5004         33.0004
  -8664707.16247  -6702196.46446  23615924.0784                   23615917.1764
        42.2504         37.7504
 -10050117.57547  -7574587.91645  22103536.1094                   22103525.3404
        45.0004         31.5004
 -11310501.14346  -7813197.32144  23747436.6414                   23747425.0514
        40.0004         26.0004
 -27875230.30748 -21978739.65349  20519054.1094                   20519045.2154
        53.0004         55.0004
 -10659555.79946  -8006085.79843  24080637.0944                   24080626.2074
        39.5004         22.5004
                                  25086031.3674                   25086018.0784
        36.0004         30.2504
    458600.47445    425726.76242  25322629.5704                   25322621.3204
        31.0004         14.7504
 -18370953.96148 -20601161.81649  20691922.0784                   20691913.0664
        51.7504         55.0004
 23  1  5  0 16 30.0000000  0 11G24G23G27G08G22G21G10G18G31G01G32
 -13453174.43346 -11014200.92744  22695073.9614                   22695065.0084
        39.0004         29.5004
 -12176400.41847 -11577966.96646  21768857.3674                   21768847.2424
        45.5004         37.2504
  -8997479.75246  -6804439.93445  23810157.7734                   23810148.2344
        37.7504         33.0004
  -8622621.35947  -6669402.34846  23623934.3524                   23623925.3404
        43.0004         37.5004
 -10122888.81347  -7631292.75545  22089687.5704                   22089677.2704
        44.7504         31.2504
 -11387183.42646  -7872949.72844  23732844.3914                   23732833.0354
        40.7504         25.7504
 -27869778.42948 -21974491.43749  20520091.7274                   20520082.5984
        52.7504         55.0004
 -10546973.34646  -7918359.22444  24102060.3134                   24102050.4224
        38.2504         24.5004
   -819235.15845   -609398.50145  25063454.0314                   25063443.3794
        34.2504         31.5004
    345807.38755    337835.96252  25301164.7814                   25301159.1684
        30.0004         14.7504
 -18399718.61948 -20623575.82149  20686448.3594                   20686439.3484
        51.5004         54.7504
 23  1  5  0 17  0.0000000  0 11G24G23G27G08G22G21G10G18G31G01G32
 -13390684.79946 -10965507.70044  22706964.2424                   22706956.0514
        38.0004         29.2504
 -12115062.86247 -11530171.47846  21780529.5164                   21780519.2734
        45.5004         37.0004
  -8911662.76445  -6737569.54845  23826486.9144                   23826479.3094
        35.7504         33.5004
  -8580078.87947  -6636252.39346  23632029.0864                   23632019.7234
        43.2504         37.5004
 -10195352.55847  -7687757.99345  22075898.7114                   22075888.0594
        44.5004         32.0004
 -11463624.75147  -7932514.40344  23718298.9534                   23718286.7194
        42.2504         25.0004
 -27864033.85048 -21970015.13749  20521184.9924                   20521175.9804
        52.7504         54.7504
 -10434251.19246  -7830523.80443  24123512.0864                   24123499.9694
        40.2504         22.7504
   -937931.42046   -701889.04245  25040869.0704                   25040856.3094
        37.0004         31.7504
    233089.78254    250004.11752  25279716.2814                   25279710.0234
        28.5004         14.7504
 -18428066.47048 -20645665.03949  20681053.9774                   20681044.7304
        52.2504         54.7504
 23  1  5  0 17 30.0000000  0 11G24G23G27G08G22G21G10G18G31G01G32
 -13327659.78746 -10916397.30944  22718958.7424                   22718949.6134
        38.7504         29.2504
 -12053487.44947 -11482190.63346  21792247.7894                   21792236.6094
        45.0004         37.5004
  -8825635.30346  -6670535.15845  23842857.2664                   23842849.7194
        36.7504         33.5004
  -8537083.40646  -6602749.42246  23640210.3984                   23640201.8554
        41.7504         37.5004
 -10267510.37647  -7743984.85645  22062167.0234                   22062156.6644
        44.2504         30.0004
 -11539824.92746  -7991891.15844  23703797.9384                   23703785.6454
        41.2504         25.7504
 -27857997.44348 -21965311.44549  20522333.5554                   20522324.5434
        52.0004         54.7504
 -10321393.31546  -7742582.59344  24144985.1174                   24144976.6334
        37.5004         24.5004
  -1056691.88845   -794429.67145  25018267.3364                   25018256.3914
        35.2504         30.0004
    120442.76755    205839.08653  25258280.7344                   25258269.1454
        34.5004         19.5004
 -18455999.53348 -20667431.05349  20675738.3594                   20675729.2894
        51.5004         54.7504
 23  1  5  0 18  0.0000000  0 11G24G23G27G08G22G21G10G18G31G01G32
 -13264098.33546 -10866868.91344  22731052.7894                   22731045.3594
        38.0004         29.0004
 -11991671.05947 -11434022.03846  21804010.4384                   21804000.1374
        44.5004         37.2504
  -8739397.02546  -6603336.52845  23859268.2974                   23859259.6954
        36.5004         32.7504
  -8493634.29947  -6568892.99446  23648477.5864                   23648470.2154
        42.5004         37.5004
 -10339357.76047  -7799969.81645  22048494.9454                   22048484.4104
        44.5004         30.0004
 -11615778.63247  -8051075.87444  23689344.9924                   23689332.6994
        42.2504         26.0004
 -27851665.63748 -21960377.57049  20523538.2974                   20523529.5784
        52.0004         55.0004
 -10208398.58146  -7654534.76243  24166489.1564                   24166478.6214
        38.2504         22.2504
  -1175510.46045   -887015.57045  24995657.5704                   24995646.4494
        35.7504         31.2504
                                  25236861.250
        26.250
 -18483514.71148 -20688871.42949  20670502.8134                   20670493.5084
        51.5004         55.0004
 23  1  5  0 18 30.0000000  0 11G24G23G27G08G22G21G10G18G31G01G32
 -13200008.02446 -10816928.41144  22743249.1954                   22743241.0634
        38.2504         29.2504
 -11929619.41547 -11385670.12246  21815818.8444                   21815808.6024
        45.5004         37.0004
  -8652956.67946  -6535980.40245  23875717.5474                   23875708.8284
        37.0004         33.5004
  -8449738.97847  -6534688.86246  23656831.4694                   23656823.2774
        42.5004         37.2504
 -10410899.60847  -7855716.70145  22034881.0164                   22034870.4224
        44.2504         31.7504
 -11691489.56447  -8110071.39444  23674937.5394                   23674925.0704
        42.0004         26.0004
 -27845043.33448 -21955217.33449  20524798.5084                   20524789.6724
        52.2504         55.0004
 -10095274.44146  -7566386.09743  24188015.6564                   24188006.2934
        38.7504         23.7504
  -1294389.88845   -979648.86345  24973034.7034                   24973024.2854
        34.0004         31.2504
    714361.73215                  25215456.492
        32.750
 -18510617.63248 -20709990.58349  20665345.0164                   20665335.5354
        52.0004         55.0004
 23  1  5  0 19  0.0000000  0 10G24G23G27G08G22G21G10G18G31G32
 -13135386.40746 -10766573.88644  22755546.3524                   22755537.5744
        37.7504         29.5004
 -11867328.01547 -11337131.37546  21827672.6954                   21827662.0434
        45.5004         37.0004
  -8566312.52446  -6468465.50345  23892204.6644                   23892197.3524
        36.0004         32.5004
  -8405395.05747  -6500135.16046  23665270.0004                   23665262.3364
        43.0004         36.7504
 -10482130.33047  -7911221.14145  22021326.5084                   22021315.6804
        44.5004         31.0004
 -11766951.05846  -8168872.57244  23660577.3984                   23660564.9884
        41.5004         27.0004
 -27838125.27248 -21949826.64349  20526114.7734                   20526106.1724
        51.7504         54.7504
  -9982018.47146  -7478134.68043  24209567.7114                   24209557.0594
        38.7504         22.5004
  -1413323.12245  -1072324.12545  24950405.5784                   24950391.5864
        35.7504         31.0004
 -18537303.73848 -20730784.94049  20660266.8364                   20660257.5904
        51.7504         55.0004
 23  1  5  0 19 30.0000000  0 11G24G23G27G08G22G21G10G18G31G01G32
 -13070238.46146 -10715809.26144  22767943.4774                   22767935.3444
        38.5004         27.7504
 -11804799.93047 -11288408.18646  21839570.7664                   21839560.5824
        44.5004         37.0004
  -8479470.63646  -6400796.48745  23908730.6414                   23908722.0984
        36.7504         33.0004
  -8360607.39746  -6465235.72146  23673792.8524                   23673784.2504
        41.7504         36.0004
 -10553052.06647  -7966484.82045  22007830.0084                   22007819.2974
        44.5004         31.0004
 -11842163.56546  -8227479.71844  23646264.3444                   23646253.3984
        41.5004         26.7504
 -27830913.71648 -21944207.25949  20527487.1954                   20527478.5944
        51.0004         55.0004
  -9868635.48846  -7389784.33643  24231145.0554                   24231134.1094
        39.0004         22.2504
  -1532309.82445  -1165040.97645  24927761.4694                   24927749.2934
        35.7504         30.5004
                                  25172696.0234                   25172687.9494
        30.7504         18.2504
 -18563576.07048 -20751256.87649  20655267.2734                   20655258.2034
        51.0004         54.7504
 23  1  5  0 20  0.0000000  0 11G24G23G27G08G22G21G10G18G31G01G32
 -13004566.14746 -10664636.05644  22780440.4224                   22780432.6994
        37.2504         29.2504
 -11742035.00647 -11239500.47846  21851514.2814                   21851504.0394
        44.2504         36.7504
  -8392433.60145  -6332975.43945  23925291.8984                   23925285.1724
        35.2504         32.2504
  -8315377.80647  -6429991.90646  23682399.7894                   23682391.1884
        42.5004         36.5004
 -10623663.48247  -8021506.68545  21994393.1334                   21994382.5984
        44.7504         30.7504
 -11917124.80046  -8285891.06244  23632000.3284                   23631988.2704
        41.2504         25.2504
 -27823408.06048 -21938358.70549  20528915.3524                   20528906.5744
        52.0004         54.7504
  -9755127.33246  -7301336.43843  24252743.8134                   24252733.6884
        39.2504         22.7504
  -1651346.96945  -1257797.27645  24905106.8364                   24905097.4734
        32.5004         31.0004
                                  25151340.8754                   25151332.5664
        32.2504         15.5004
 -18589434.51048 -20771406.29549  20650346.7194                   20650337.4144
        52.0004         54.7504
 23  1  5  0 20 30.0000000  0 11G24G23G27G08G22G21G10G18G31G01G32
 -12938371.44346 -10613055.74744  22793037.2734                   22793028.6724
        38.5004         28.5004
 -11679033.20447 -11190408.18446  21863503.6724                   21863493.1374
        44.2504         37.0004
  -8305204.29846  -6265004.58045  23941892.9144                   23941883.8444
        36.5004         32.7504
  -8269707.88747  -6394404.97746  23691090.5704                   23691081.6764
        42.2504         36.7504
 -10693963.68547  -8076286.04645  21981015.3284                   21981005.0274
        44.5004         30.5004
 -11991832.25047  -8344104.67744  23617783.9924                   23617772.0514
        42.0004         27.0004
 -27815606.87548 -21932279.85749  20530400.0314                   20530391.2544
        51.5004         54.7504
  -9641495.77546  -7212792.35543  24274366.6334                   24274356.5084
        38.0004         22.5004
  -1770431.77545  -1350590.62045  24882448.0864                   24882435.9694
        35.0004         31.2504
                                  25130001.8284                   25129992.9344
        30.0004         17.7504
 -18614878.89248 -20791233.07449  20645504.7664                   20645495.6374
        51.2504         54.7504
 23  1  5  0 21  0.0000000  0 11G24G23G27G08G22G21G10G18G31G01G32
 -12871657.86546 -10561071.14444  22805732.3914                   22805723.6134
        37.7504         27.2504
 -11615796.11047 -11141132.52946  21875537.3054                   21875526.6524
        45.0004         36.2504
  -8217787.25146  -6196887.38445  23958527.7814                   23958519.2384
        36.7504         33.0004
  -8223601.61746  -6358478.05046  23699864.1254                   23699855.5824
        41.5004         36.2504
 -10763953.25047  -8130823.35845  21967696.5634                   21967686.7304
        44.2504         30.5004
 -12066285.55346  -8402120.23444  23603616.1414                   23603604.4924
        40.5004         26.7504
 -27807511.52448 -21925971.79449  20531940.5634                   20531931.7274
        51.0004         55.0004
  -9527744.29146  -7124154.86043  24296013.6954                   24296003.2194
        39.5004         23.2504
  -1889562.74746  -1443419.91845  24859777.1564                   24859766.8554
        36.2504         31.5004
  -1422178.73055  -1354281.31752  25108681.5474                   25108673.4734
        31.7504         17.7504
 -18639910.78448 -20810738.43749  20640741.1484                   20640732.1954
        51.2504         54.7504
 23  1  5  0 21 30.0000000  0 11G24G23G27G08G22G21G10G18G31G01G32
 -12804423.84146 -10508681.01344  22818526.9614                   22818518.0084
        38.7504         27.0004
 -11552319.96147 -11091670.59646  21887616.1334                   21887605.5394
        44.5004         36.5004
  -8130181.44146  -6128623.13745  23975198.3444                   23975190.4454
        38.0004         32.2504
  -8177057.58147  -6322210.01446  23708721.5474                   23708712.9454
        42.0004         36.2504
 -10833627.36547  -8185114.85045  21954438.6644                   21954428.0124
        45.0004         32.0004
 -12140479.00346  -8459933.30844  23589497.7194                   23589485.6604
        41.7504         27.5004
 -27799117.26948 -21919430.81049  20533537.8984                   20533529.1214
        52.0004         54.7504
  -9413871.00546  -7035422.42344  24317682.9614                   24317672.6604
        38.5004         24.0004
  -2008732.96745  -1536279.87345  24837100.4384                   24837089.1994
        34.0004         31.2504
                                  25087376.3674                   25087370.9304
        30.5004         14.7504
 -18664526.49148 -20829919.50049  20636057.1564                   20636048.0864
        52.0004         54.7504
 23  1  5  0 22  0.0000000  0 11G24G23G27G08G22G21G10G18G31G01G32
 -12736675.81146 -10455890.31444  22831418.7734                   22831410.6414
        38.2504         28.7504
 -11488609.18847 -11042025.86846  21899740.4534                   21899729.3324
        44.5004         36.0004
  -8042394.32446  -6060217.58245  23991903.2344                   23991895.1604
        36.2504         32.0004
  -8130081.31646  -6285605.17846  23717659.9384                   23717653.2114
        41.2504         36.0004
 -10902989.60147  -8239163.34345  21941239.1804                   21941229.1134
        44.5004         32.0004
 -12214414.44646  -8517545.35144  23575427.7274                   23575416.0784
        40.5004         26.0004
 -27790427.71848 -21912659.73049  20535191.3284                   20535182.6094
        52.2504         54.7504
  -9299882.31046  -6946600.09543  24339373.3914                   24339364.3794
        38.5004         22.5004
  -2127944.28946  -1629171.81345  24814415.8054                   24814404.4494
        36.7504         31.7504
                                  25066093.6414                   25066087.0904
        28.7504         15.5004
 -18688730.41848 -20848779.69349  20631451.3204                   20631442.1914
        52.0004         54.7504
 23  1  5  0 22 30.0000000  0 11G24G23G27G08G22G21G10G18G31G01G32
 -12668416.62946 -10402701.34444  22844407.7814                   22844399.9414
        37.5004         27.2504
 -11424664.59147 -10992198.92046  21911909.0314                   21911897.8524
        45.0004         36.2504
  -7954429.49645  -5991673.54345  24008641.7504                   24008634.3204
        35.0004         32.0004
  -8082676.15846  -6248666.16645  23726680.5944                   23726673.4574
        40.7504         35.5004
 -10972039.63647  -8292968.54245  21928099.3674                   21928088.8324
        44.5004         32.0004
 -12288090.36746  -8574955.15244  23561407.5554                   23561396.3754
        41.7504         27.2504
 -27781442.94248 -21905658.60649  20536901.2584                   20536892.5984
        51.5004         55.0004
  -9185780.87346  -6857689.85443  24361086.6644                   24361076.7734
        38.7504         23.7504
  -2247194.39845  -1722093.97545  24791721.8364                   24791711.1254
        35.5004         31.2504
  -1757723.24455  -1615744.70952  25044828.7344                   25044822.3594
        30.7504         16.2504
 -18712523.38548 -20867319.65449  20626923.6954                   20626914.5084
        52.0004         54.7504
 23  1  5  0 23  0.0000000  0 11G24G23G27G08G22G21G10G18G31G01G32
 -12599642.59946 -10349111.20644  22857496.6414                   22857486.3404
        38.7504         27.2504
 -11360480.38947 -10942185.27345  21924122.3914                   21924111.4454
        44.5004         35.7504
  -7866283.96145  -5922988.72545  24025414.3054                   24025408.1644
        34.5004         31.5004
  -8034838.20646  -6211389.87645  23735785.1254                   23735775.7624
        41.5004         34.7504
 -11040770.87347  -8346525.33945  21915020.3284                   21915009.9104
        45.0004         31.5004
 -12361498.77146  -8632156.49544  23547437.8204                   23547426.8754
        40.7504         26.7504
 -27772156.41948 -21898422.36449  20538668.3444                   20538659.6844
        50.7504         55.0004
  -9071562.68646  -6768688.70744  24382821.3754                   24382811.3674
        39.5004         24.0004
  -2366474.40446  -1815039.47645  24769025.2344                   24769013.2934
        37.0004         32.0004
                                  25023582.2584                   25023576.7034
        28.7504         16.7504
 -18735899.62548 -20885534.90449  20622475.3914                   20622466.0864
        51.5004         54.7504
 23  1  5  0 23 30.0000000  0 11G24G23G27G08G22G21G10G18G31G01G32
 -12530362.62246 -10295126.78244  22870678.4614                   22870670.2114
        38.7504         27.7504
 -11296063.26147 -10891990.12146  21936380.4614                   21936369.6334
        45.2504         36.2504
  -7777967.41146  -5854170.63345  24042222.5004                   24042214.2504
        36.0004         31.0004
  -7986576.16147  -6173783.12045  23744969.9924                   23744959.9264
        42.5004         35.0004
 -11109189.04447  -8399838.17345  21902000.6414                   21901990.2814
        44.5004         32.0004
 -12434644.48146  -8689153.16144  23533518.7424                   23533507.7384
        41.2504         26.5004
 -27762573.74848 -21890955.35249  20540491.6414                   20540482.5704
        51.5004         54.7504
  -8957236.48346  -6679603.35244  24404577.8674                   24404567.3914
        39.5004         25.0004
  -2485788.07145  -1908011.17845  24746318.0004                   24746309.1644
        35.2504         31.5004
                                  25002358.2424                   25002351.2814
        31.2504         16.7504
 -18758865.85448 -20903430.66149  20618104.6804                   20618095.7274
        52.0004         55.0004
 23  1  5  0 24  0.0000000  0 11G24G23G27G08G22G21G10G18G31G01G32
 -12460577.45346 -10240748.76444  22883958.0474                   22883949.9144
        37.5004         27.0004
 -11231411.98247 -10841612.51945  21948682.8754                   21948672.6914
        44.2504         35.5004
  -7689481.32745  -5785220.43545  24059060.4774                   24059052.8134
        34.2504         31.0004
  -7937890.90246  -6135846.58445  23754232.7114                   23754225.6914
        41.2504         34.5004
