     2.11           OBSERVATION DATA    G (GPS)             RINEX VERSION / TYPE
teqc  2019Feb25     Salamtina Y.M.      20230920 03:20:32UTCPGM / RUN BY / DATE
OBSERVATION MODE: Permanent                                 COMMENT
CHUM Chumysh (CHUM)                                         MARKER NAME
25601M001                                                   MARKER NUMBER
4549261325          TRIMBLE NETRS        1.3-2              REC # / TYPE / VERS
237                 AOAD/M_T        NONE                    ANT # / TYPE
        0.0900        0.0000        0.0000                  ANTENNA: DELTA H/E/N
  1228950.3071  4508080.0116  4327868.5411                  APPROX POSITION XYZ
  74.75110460  42.99850159  716.3357  LonLatAlt  S/W        COMMENT
ANT ADDED FROM RCV_ANT.txt                                  COMMENT
Linux 2.6.32-573.12.1.x86_64|x86_64|gcc|Linux 64|=+         COMMENT
BIT 2 OF LLI FLAGS DATA COLLECTED UNDER A/S CONDITION       COMMENT
Konovalov S.M.      RS_RAS                                  OBSERVER / AGENCY
     1     1                                                WAVELENGTH FACT L1/2
     7    L1    L2    C1    P1    P2    S1    S2            # / TYPES OF OBSERV
    30.0000                                                 INTERVAL
    18                                                      LEAP SECONDS
TIME: 2023.01.03                                            COMMENT
TOUR: cont                                                  COMMENT
RSET: RAS02                                                 COMMENT
ASET: DS24                                                  COMMENT
OPER: skon (Konovalov S.M.)                                 COMMENT
SOUR: chum202301030000d.dat                                 COMMENT
SUPP: chum202301030000d.eph                                 COMMENT
SUPP: chum202301030000d.ion                                 COMMENT
SUPP: chum202301030000d.mes                                 COMMENT
Forced Modulo Decimation to 30 seconds                      COMMENT
 SNR is mapped to RINEX snr flag value [0-9]                COMMENT
  L1 & L2: min(max(int(snr_dBHz/6), 0), 9)                  COMMENT
  2023     1     3     0     0    0.0000000     GPS         TIME OF FIRST OBS
  2023     1     3    23    59   30.0000000     GPS         TIME OF LAST OBS
                                                            END OF HEADER
 23  1  3  0  0  0.0000000  0  9G24G23G08G22G27G21G10G18G32
 -15071438.32147 -12589471.93947  22240679.5704                   22240671.6134
        42.5004         44.2504
 -14827375.21647 -13148700.33446  21248671.3834                   21248661.1994
        46.5004         40.5004
 -10084478.24746  -7833142.24446  23339848.9064                   23339841.3014
        38.5004         40.0004
  -6077804.66446  -4956413.75944  22833438.6334                   22833427.8054
        40.0004         25.0004
 -12844707.02347  -9967168.20846  23065845.0704                   23065836.9964
        42.2504         41.7504
  -7599003.51646  -4653395.11543  24501203.3134                   24501191.8984
        37.5004         20.5004
 -28334924.54148 -21919609.50049  20532482.2974                   20532473.6374
        52.5004         55.0004
 -15449094.06346 -12019093.94744  23085932.4454                   23085922.9654
        39.2504         28.5004
 -16358356.31348 -18937090.11349  21050111.2034                   21050102.3674
        51.5004         54.7504
 23  1  3  0  0 30.0000000  0  9G24G23G08G22G27G21G10G18G32
 -15037794.48047 -12563255.96647  22247082.0164                   22247073.9414
        42.0004         44.0004
 -14778126.94447 -13110325.05546  21258043.5004                   21258032.3204
        47.0004         40.5004
 -10066675.66846  -7819270.11946  23343236.5164                   23343228.8524
        38.7504         39.7504
  -6164171.98746  -5023712.94544  22817002.0234                   22816992.3094
        39.5004         25.0004
 -12773186.55847  -9911437.99246  23079455.1174                   23079446.6334
        42.7504         41.7504
  -7684962.40646  -4720376.07443  24484846.9224                   24484834.3364
        40.0004         21.2504
 -28342957.89248 -21925869.25249  20530953.8524                   20530944.8984
        53.0004         55.0004
 -15345672.00146 -11938505.35944  23105613.5864                   23105604.1644
        39.5004         29.0004
 -16407189.59248 -18975142.00649  21040818.6024                   21040809.4734
        51.5004         55.0004
 23  1  3  0  1  0.0000000  0  9G24G23G08G22G27G21G10G18G32
 -15003528.81347 -12536555.42847  22253603.1644                   22253594.6804
        42.0004         44.0004
 -14728627.29147 -13071753.89346  21267462.3204                   21267452.0784
        47.0004         40.5004
 -10048334.65246  -7804978.44446  23346726.9064                   23346719.1254
        39.0004         39.5004
  -6250280.76446  -5090810.69844  22800617.0234                   22800606.6054
        40.0004         25.5004
 -12701302.20047  -9855424.19946  23093135.3364                   23093125.5634
        42.7504         41.7504
  -7770773.93746  -4787242.17543  24468516.4614                   24468505.5164
        39.0004         20.7504
 -28350721.65448 -21931918.92849  20529476.3364                   20529467.3834
        52.7504         55.2504
 -15242010.66646 -11857730.29444  23125340.0944                   23125329.9104
        39.5004         28.7504
 -16455611.23148 -19012873.13849  21031604.0234                   21031595.0704
        51.5004         55.0004
 23  1  3  0  1 30.0000000  0  9G24G23G08G22G27G21G10G18G32
 -14968643.63047 -12509372.14947  22260241.2734                   22260233.1994
        42.0004         44.2504
 -14678877.61247 -13032987.91846  21276929.7344                   21276918.9064
        46.5004         41.0004
 -10029457.39546  -7790268.90546  23350319.0704                   23350311.2304
        40.0004         40.2504
  -6336130.70346  -5157706.72344  22784279.5234                   22784269.7504
        40.2504         26.0004
 -12629057.92546  -9799129.97046  23106881.8594                   23106873.5514
        41.7504         41.5004
  -7856437.60146  -4853993.08343  24452215.5084                   24452203.4494
        39.5004         21.0004
 -28358216.46048 -21937759.04249  20528050.2504                   20528041.4734
        51.7504         55.0004
 -15138113.14146 -11776771.18844  23145111.3134                   23145100.8364
        40.0004         29.2504
 -16503622.03148 -19050284.14349  21022468.5634                   21022459.1414
        52.0004         54.7504
 23  1  3  0  2  0.0000000  0  9G24G23G08G22G27G21G10G18G32
 -14933140.50347 -12481707.39647  22266997.5864                   22266989.2774
        43.5004         44.5004
 -14628878.55047 -12994027.61246  21286444.2734                   21286433.5044
        46.0004         40.2504
 -10010045.79546  -7775142.99646  23354013.0004                   23354004.9264
        39.0004         39.7504
  -6421721.14146  -5224400.56244  22767993.1564                   22767982.6214
        40.5004         26.0004
 -12556457.10747  -9742557.90746  23120697.9614                   23120688.0124
        42.7504         41.2504
  -7941951.91546  -4920627.62143  24435942.5004                   24435931.2034
        39.0004         21.2504
 -28365442.00948 -21943389.34649  20526675.1724                   20526666.1604
        52.0004         54.7504
 -15033981.84546 -11695629.93444  23164926.6484                   23164916.7584
        40.2504         29.0004
 -16551222.03048 -19087375.02949  21013409.8754                   21013401.5084
        51.7504         54.7504
 23  1  3  0  2 30.0000000  0  9G24G23G08G22G27G21G10G18G32
 -14897020.57447 -12453561.96847  22273871.6724                   22273862.6024
        43.2504         44.2504
 -14578630.19347 -12954873.04946  21296005.6804                   21295995.6724
        47.0004         40.2504
  -9990100.73646  -7759601.40146  23357808.6254                   23357800.3164
        40.0004         39.0004
  -6507050.63346  -5290891.05944  22751755.7734                   22751744.5944
        40.5004         25.5004
 -12483502.63247  -9685710.26446  23134580.1484                   23134571.8984
        42.0004         41.2504
  -8027314.71146  -4987144.07043  24419699.3204                   24419686.6764
        40.0004         21.0004
 -28372398.27048 -21948809.80049  20525351.6884                   20525342.3244
        53.0004         55.0004
 -14929618.59346 -11614307.91544  23184786.5634                   23184776.2624
        39.2504         29.5004
 -16598410.72848 -19124145.43649  21004430.3524                   21004421.9844
        51.2504         54.7504
 23  1  3  0  3  0.0000000  0  9G24G23G08G22G27G21G10G18G32
 -14860285.17547 -12424936.97447  22280861.4454                   22280852.9614
        42.2504         44.2504
 -14528132.96047 -12915524.55646  21305615.3594                   21305604.8834
        46.5004         40.2504
  -9969623.85646  -7743645.39546  23361705.0864                   23361696.6024
        38.7504         39.5004
  -6592118.23746  -5357177.48044  22735566.9534                   22735556.7114
        40.0004         25.0004
 -12410197.61247  -9628589.49446  23148530.2504                   23148521.7074
        42.0004         41.2504
  -8112524.41646  -5053541.24543  24403483.8054                   24403471.9804
        39.2504         21.5004
 -28379084.64048 -21954019.95949  20524079.3204                   20524069.8404
        52.7504         54.7504
 -14825025.55746 -11532806.85144  23204689.5084                   23204679.5004
        39.2504         29.0004
 -16645187.92848 -19160595.19049  20995528.8444                   20995519.6564
        52.2504         55.0004
 23  1  3  0  3 30.0000000  0  9G24G23G08G22G27G21G10G18G32
 -14822935.36147 -12395833.22947  22287969.3674                   22287960.6484
        42.7504         44.0004
 -14477386.82047 -12875982.11446  21315272.0864                   21315261.3164
        47.0004         40.2504
  -9948616.00246  -7727275.65846  23365702.8754                   23365694.7424
        38.5004         39.5004
  -6676922.52346  -5423258.72244  22719429.8674                   22719419.0394
        40.7504         25.5004
 -12336544.75947  -9571197.67046  23162545.7504                   23162536.8554
        42.5004         41.0004
  -8197578.78046  -5119817.36243  24387298.8054                   24387286.3364
        38.7504         21.5004
 -28385500.48548 -21959019.32249  20522858.1724                   20522849.3954
        52.2504         55.2504
 -14720204.52146 -11451128.13044  23224635.7894                   23224626.0744
        39.0004         28.7504
 -16691553.09148 -19196723.87749  20986705.7504                   20986697.0314
        51.2504         55.0004
 23  1  3  0  4  0.0000000  0  9G24G23G08G22G27G21G10G18G32
 -14784972.49747 -12366251.75647  22295192.8054                   22295184.7304
        43.0004         44.2504
 -14426392.09947 -12836245.96746  21324976.4454                   21324965.2664
        46.0004         40.2504
  -9927078.72846  -7710493.36646  23369800.5784                   23369792.9144
        38.7504         39.5004
  -6761462.42046  -5489133.95944  22703341.8834                   22703331.8164
        40.5004         26.2504
 -12262547.15847  -9513537.20046  23176626.6024                   23176617.7074
        42.0004         40.5004
  -8282475.80946  -5185970.90743  24371143.1174                   24371130.4734
        38.7504         21.5004
 -28391645.00048 -21963807.25849  20521689.0234                   20521679.7774
        52.0004         55.0004
 -14615157.46246 -11369273.29944  23244626.4614                   23244616.5124
        39.7504         28.5004
 -16737505.92848 -19232531.25949  20977961.1954                   20977952.7704
        51.7504         54.7504
 23  1  3  0  4 30.0000000  0  9G24G23G08G22G27G21G10G18G32
 -14746397.33347 -12336193.18747  22302533.6564                   22302525.4654
        43.0004         44.5004
 -14375148.48747 -12796315.89146  21334727.3204                   21334716.7274
        46.7504         40.0004
  -9905012.98546  -7693299.28946  23373999.6484                   23373991.9844
        39.2504         39.2504
  -6845736.36446  -5554801.95044  22687305.8364                   22687295.1254
        41.0004         25.5004
 -12188207.24847  -9455610.01246  23190773.2584                   23190765.0664
        43.0004         40.5004
  -8367213.39346  -5252000.17143  24355018.2974                   24355006.3554
        39.5004         21.0004
 -28397517.98348 -21968383.60549  20520571.3984                   20520562.3874
        53.2504         54.7504
 -14509885.91046 -11287243.53444  23264658.0784                   23264648.4804
        40.0004         29.5004
 -16783045.59848 -19268016.70049  20969295.3524                   20969286.5744
        51.5004         55.0004
 23  1  3  0  5  0.0000000  0  9G24G23G08G22G27G21G10G18G32
 -14707212.30947 -12305659.39347  22309990.6724                   22309981.8954
        43.5004         44.5004
 -14323657.23047 -12756192.85246  21344525.6804                   21344515.2624
        46.5004         40.5004
  -9882420.73446  -7675694.95246  23378299.4384                   23378290.8954
        39.5004         39.0004
  -6929744.02246  -5620262.44344  22671319.1954                   22671308.8364
        40.5004         26.0004
 -12113529.07547  -9397419.22746  23204982.8594                   23204975.0784
        42.0004         40.0004
  -8451790.61746  -5317904.50743  24338924.6414                   24338911.7034
        39.5004         21.7504
 -28403119.38048 -21972748.33249  20519505.3914                   20519496.7304
        51.7504         54.7504
 -14404392.88646 -11205041.19745  23284733.5944                   23284723.3524
        40.5004         30.5004
 -16828172.88748 -19303180.81449  20960707.8754                   20960699.2734
        51.5004         55.0004
 23  1  3  0  5 30.0000000  0  9G24G23G08G22G27G21G10G18G32
 -14667418.08647 -12274650.89547  22317562.6564                   22317554.5234
        42.5004         44.2504
 -14271917.90347 -12715876.49546  21354371.5314                   21354361.1134
        46.0004         40.5004
  -9859303.31846  -7657681.40046  23382698.3204                   23382690.4804
        39.5004         39.5004
  -7013483.48546  -5685513.95444  22655383.8284                   22655373.7034
        40.5004         26.0004
 -12038514.94246  -9338966.67246  23219257.9384                   23219250.1564
        41.5004         40.0004
  -8536204.87546  -5383681.83443  24322859.9064                   24322848.4344
        38.7504         21.2504
 -28408448.56248 -21976900.94449  20518491.4534                   20518482.3834
        52.2504         55.0004
 -14298679.75646 -11122667.33944  23304850.0234                   23304840.1914
        40.5004         29.2504
 -16872886.78648 -19338022.79849  20952198.8914                   20952190.2304
        51.7504         54.7504
 23  1  3  0  6  0.0000000  0  9G24G23G08G22G27G21G10G18G32
 -14627016.09247 -12243168.82047  22325251.6334                   22325242.5044
        42.7504         44.5004
 -14219930.78547 -12675367.05546  21364264.5084                   21364253.7974
        47.0004         40.5004
  -9835661.46446  -7639259.19746  23387197.2114                   23387189.3714
        39.7504         39.7504
  -7096953.87246  -5750555.79944  22639499.7504                   22639489.4494
        40.7504         26.5004
 -11963168.02947  -9280254.78846  23233596.9694                   23233588.3094
        42.2504         39.7504
  -8620454.40546  -5449330.82743  24306828.0864                   24306815.9694
        40.0004         21.0004
 -28413504.79348 -21980840.86349  20517529.3054                   20517520.1174
        52.7504         54.7504
 -14192748.54246 -11040123.56144  23325007.2894                   23324998.1024
        40.5004         28.7504
 -16917187.13348 -19372542.55049  20943768.9534                   20943760.2934
        52.2504         54.7504
 23  1  3  0  6 30.0000000  0  9G24G23G08G22G27G21G10G18G32
 -14586007.88947 -12211214.37347  22333054.4924                   22333047.0044
        43.0004         44.7504
 -14167696.23547 -12634664.79546  21374204.0004                   21374193.7584
        46.5004         39.7504
  -9811497.38246  -7620430.05046  23391796.2664                   23391787.8404
        40.0004         39.7504
  -7180154.13246  -5815387.14644  22623667.8204                   22623657.2274
        41.7504         26.2504
 -11887491.37746  -9221285.99046  23247996.5394                   23247988.8164
        40.5004         39.5004
  -8704537.33746  -5514849.97843  24290826.6414                   24290815.5784
        39.2504         21.5004
 -28418287.94048 -21984567.98749  20516619.3284                   20516610.1994
        52.5004         55.0004
 -14086601.45546 -10957411.53944  23345204.5474                   23345197.4104
        39.2504         28.0004
 -16961073.75248 -19406739.90149  20935417.5004                   20935408.9574
        51.7504         54.7504
 23  1  3  0  7  0.0000000  0  9G24G23G08G22G27G21G10G18G32
 -14544394.57247 -12178788.41047  22340973.9694                   22340965.2504
        43.5004         44.5004
 -14115214.19247 -12593769.70446  21384191.0234                   21384180.7814
        46.0004         40.0004
  -9786811.95046  -7601194.66646  23396493.1564                   23396485.2584
        38.7504         39.7504
  -7263082.99246  -5880007.03244  22607887.0474                   22607876.2194
        41.2504         26.5004
 -11811487.65647  -9162062.33846  23262461.1024                   23262451.8554
        42.2504         39.5004
  -8788451.84546  -5580237.89143  24274858.9304                   24274846.6374
        40.0004         21.7504
 -28422797.07848 -21988081.60849  20515760.9534                   20515752.1174
        52.7504         55.0004
 -13980240.21446 -10874532.66644  23365445.1484                   23365437.1334
        39.0004         28.5004
 -17004546.05248 -19440614.40949  20927144.9614                   20927136.4184
        51.7504         55.0004
 23  1  3  0  7 30.0000000  0  9G24G23G08G22G27G21G10G18G32
 -14502178.08147 -12145892.43447  22349007.2504                   22348998.8834
        42.0004         44.5004
 -14062485.30847 -12552682.27646  21394225.3754                   21394214.6644
        46.0004         40.0004
  -9761607.02546  -7581554.49146  23401290.0554                   23401281.6294
        39.7504         39.7504
  -7345739.50746  -5944414.68244  22592157.4304                   22592147.1294
        40.5004         27.2504
 -11735160.54046  -9102586.65246  23276985.0864                   23276976.8954
        40.2504         39.7504
  -8872195.76246  -5645492.88443  24258922.8914                   24258911.1254
        40.0004         22.7504
 -28427032.27748 -21991381.75849  20514955.0394                   20514946.2034
        53.0004         55.2504
 -13873667.12146 -10791488.74744  23385728.3054                   23385717.5944
        41.0004         28.5004
 -17047604.28148 -19474166.27549  20918951.2274                   20918942.4494
        51.5004         54.7504
 23  1  3  0  8  0.0000000  0  9G24G23G08G22G27G21G10G18G32
 -14459359.41447 -12112527.23747  22357155.1644                   22357146.7384
        43.0004         44.2504
 -14009509.43047 -12511402.37146  21404306.0554                   21404295.5204
        46.5004         39.7504
  -9735883.60346  -7561510.27446  23406184.1254                   23406176.5784
        39.5004         39.5004
  -7428122.25546  -6008609.00944  22576480.6954                   22576470.1024
        41.5004         27.0004
 -11658512.36846  -9042860.83146  23291570.4224                   23291562.3484
        40.2504         39.0004
  -8955766.98246  -5710613.30043  24243019.1484                   24243008.1454
        40.5004         22.0004
 -28430992.35748 -21994467.52649  20514201.4224                   20514192.4694
        53.2504         55.0004
 -13766883.95946 -10708281.08444  23406046.8674                   23406037.2704
        39.0004         28.2504
 -17090247.76348 -19507394.93949  20910836.8834                   20910828.0474
        52.2504         55.0004
 23  1  3  0  8 30.0000000  0  9G24G23G08G22G27G21G10G18G32
 -14415940.20647 -12078694.07147  22365418.5234                   22365409.2774
        43.0004         44.2504
 -13956286.80847 -12469930.20646  21414434.3284                   21414423.4414
        46.5004         39.7504
  -9709643.62546  -7541063.55046  23411177.6254                   23411169.6094
        39.2504         39.5004
  -7510230.44746  -6072589.39544  22560856.2734                   22560845.6804
        41.2504         27.2504
 -11581546.47546  -8982887.38646  23306217.1094                   23306208.3324
        40.0004         38.7504
  -9039163.83346  -5775597.82243  24227149.4844                   24227137.7774
        40.2504         22.7504
 -28434677.28048 -21997338.89749  20513500.3834                   20513491.3714
        52.7504         55.2504
 -13659892.80446 -10624911.34344  23426406.1254                   23426397.1134
        38.2504         28.2504
 -17132476.33348 -19540300.31449  20902800.5944                   20902791.9344
        52.0004         54.7504
 23  1  3  0  9  0.0000000  0  9G24G23G08G22G27G21G10G18G32
 -14371922.09547 -12044394.23247  22373793.1094                   22373785.7384
        42.0004         44.0004
 -13902817.81847 -12428266.06646  21424608.5474                   21424598.2464
        46.5004         39.7504
  -9682888.36846  -7520215.32046  23416268.9224                   23416261.3164
        40.5004         39.2504
  -7592062.93146  -6136354.92844  22545283.5864                   22545273.6374
        40.5004         27.7504
 -11504265.85946  -8922668.75546  23320922.2504                   23320914.4694
        39.0004         38.0004
  -9122384.51146  -5840445.11243  24211314.0554                   24211302.1724
        40.2504         21.7504
 -28438086.80348 -21999995.66749  20512851.3754                   20512842.4804
        52.5004         55.0004
 -13552695.79246 -10541381.24544  23446806.5704                   23446796.1524
        38.7504         27.0004
 -17174289.96848 -19572882.35149  20894843.6724                   20894835.0704
        52.0004         54.7504
 23  1  3  0  9 30.0000000  0  9G24G23G08G22G27G21G10G18G32
 -14327306.20046 -12009628.60647  22382283.9924                   22382275.8014
        41.7504         44.0004
 -13849102.35747 -12386409.87046  21434830.5164                   21434820.2734
        46.0004         40.0004
  -9655618.98846  -7498966.46346  23421458.2194                   23421450.2034
        40.0004         39.2504
  -7673618.18947  -6199904.47144  22529764.5234                   22529753.9304
        42.0004         27.0004
 -11426673.38046  -8862207.08346  23335688.2584                   23335679.7734
        40.0004         38.2504
  -9205426.72146  -5905153.29943  24195511.0474                   24195499.3404
        40.5004         22.5004
 -28441219.71048 -22002436.89049  20512255.0084                   20512246.4064
        52.0004         55.0004
 -13445294.62946 -10457692.00044  23467243.0394                   23467233.5594
        37.5004         27.0004
 -17215688.09448 -19605140.62149  20886966.1174                   20886957.4574
        52.0004         54.7504
 23  1  3  0 10  0.0000000  0  9G24G23G08G22G27G21G10G18G32
 -14282095.12547 -11974399.18847  22390887.3754                   22390878.8324
        42.2504         44.0004
 -13795141.50447 -12344362.45546  21445099.1334                   21445088.3634
        47.0004         39.5004
  -9627838.36946  -7477319.23746  23426744.4614                   23426736.9734
        39.5004         39.0004
  -7754896.14346  -6263237.89844  22514297.3754                   22514287.7774
        40.5004         26.5004
 -11348772.93346  -8801505.43946  23350511.8364                   23350503.8794
        39.5004         38.0004
  -9288289.47146  -5969721.67743  24179742.9064                   24179731.0824
        39.5004         22.5004
 -28444076.67648 -22004663.09349  20511711.4384                   20511702.6024
        52.7504         54.7504
 -13337692.28246 -10373846.04144  23487718.8204                   23487710.8054
        38.5004         27.7504
 -17256671.46848 -19637075.70949  20879166.8444                   20879158.3014
        51.7504         55.0004
 23  1  3  0 10 30.0000000  0  9G24G23G08G22G27G21G10G18G32
 -14236289.31547 -11938706.33647  22399604.6254                   22399595.6134
        42.2504         44.0004
 -13740934.44047 -12302123.19346  21455413.9774                   21455403.6174
        46.0004         39.2504
  -9599547.01146  -7455274.03046  23432128.8754                   23432120.8594
        40.0004         39.0004
  -7835894.72847  -6326353.65244  22498884.3524                   22498873.4654
        43.0004         28.0004
 -11270566.47346  -8740565.35046  23365393.7664                   23365385.8094
        39.0004         37.7504
  -9370970.34446  -6034148.30643  24164009.5554                   24163997.1454
        40.5004         22.7504
 -28446656.05448 -22006673.00049  20511220.6804                   20511211.9024
        52.5004         55.2504
 -13229889.66546 -10289843.99544  23508234.2274                   23508223.9264
        38.5004         26.5004
 -17297238.80348 -19668686.61749  20871447.1414                   20871438.7154
        51.7504         55.0004
 23  1  3  0 11  0.0000000  0  9G24G23G08G22G27G21G10G18G32
 -14189890.96146 -11902551.76347  22408432.8914                   22408424.9924
        41.2504         43.5004
 -13686481.99147 -12259692.71746  21465776.0004                   21465765.5824
        46.0004         39.5004
  -9570746.43746  -7432832.03146  23437608.8984                   23437601.0594
        39.7504         39.5004
  -7916613.42147  -6389251.30644  22483523.5394                   22483513.2974
        42.5004         27.5004
 -11192057.65246  -8679389.65346  23380333.5944                   23380326.1054
        39.7504         38.0004
  -9453466.55646  -6098431.04543  24148311.0164                   24148298.6054
        39.5004         22.0004
 -28448957.99048 -22008466.71649  20510782.5784                   20510773.9184
        52.5004         54.7504
 -13121889.40146 -10205687.96544  23528785.2504                   23528776.1214
        37.7504         26.5004
 -17337390.52048 -19699973.67849  20863806.7504                   20863797.9734
        52.2504         55.0004
 23  1  3  0 11 30.0000000  0  9G24G23G08G22G27G21G10G18G32
 -14142901.14546 -11865936.34847  22417374.5084                   22417366.9614
        40.5004         43.2504
 -13631783.83147 -12217070.80146  21476185.2504                   21476174.4224
        46.0004         39.5004
  -9541438.72946  -7409994.86646  23443185.9774                   23443178.0204
        40.2504         39.5004
  -7997050.67647  -6451929.66144  22468217.4614                   22468206.5744
        43.0004         28.5004
 -11113248.97846  -8617980.30146  23395330.9694                   23395322.4264
        39.5004         38.0004
  -9535776.49746  -6162568.66443  24132648.2114                   24132635.6844
        40.7504         23.5004
 -28450981.40948 -22010043.40749  20510397.6414                   20510388.5704
        53.2504         55.0004
 -13013693.05146 -10121379.12944  23549374.2274                   23549365.0394
        38.0004         26.2504
 -17377125.90348 -19730936.29549  20856245.1564                   20856236.6134
        52.2504         55.0004
 23  1  3  0 12  0.0000000  0  9G24G23G08G22G27G21G10G18G32
 -14095322.93146 -11828862.38247  22426429.6094                   22426420.4224
        41.7504         43.2504
 -13576841.49947 -12174258.59646  21486640.3984                   21486629.6884
        46.0004         39.2504
  -9511625.90146  -7386764.09546  23448858.9384                   23448851.2154
        39.5004         39.0004
  -8077206.67447  -6514388.85944  22452963.8134                   22452953.6884
        42.5004         27.5004
 -11034144.86446  -8556340.73746  23410383.7584                   23410375.3324
        38.5004         37.7504
  -9617899.48146  -6226560.57643  24117020.0864                   24117008.0864
        39.0004         21.7504
 -28452727.15348 -22011403.72649  20510065.3594                   20510056.5824
        53.5004         55.0004
 -12905304.07946 -10036920.18844  23570000.3364                   23569990.7974
        37.7504         26.5004
 -17416446.13948 -19761575.42849  20848762.6724                   20848754.1294
        51.7504         55.0004
 23  1  3  0 12 30.0000000  0  9G24G23G08G22G27G21G10G18G32
 -14047156.99746 -11791330.48147  22435593.8364                   22435585.8794
        39.0004         42.7504
 -13521654.33347 -12131255.63646  21497141.4924                   21497131.2504
        45.5004         39.0004
  -9481309.53646  -7363140.96346  23454628.0394                   23454620.4924
        39.2504         39.0004
  -8157079.65447  -6576627.52444  22437764.8834                   22437754.2894
        42.2504         27.5004
 -10954747.47046  -8494472.63746  23425493.0164                   23425484.7664
        39.0004         37.2504
  -9699833.03146  -6290404.88143  24101428.5704                   24101416.8634
        39.7504         22.7504
 -28454193.67748 -22012546.47349  20509786.1884                   20509777.7034
        53.0004         55.0004
 -12796723.49746  -9952311.94144  23590662.0554                   23590652.9264
        38.0004         26.5004
 -17455350.23248 -19791890.29049  20841359.8444                   20841351.3014
        51.5004         55.0004
 23  1  3  0 13  0.0000000  0  9G24G23G08G22G27G21G10G18G32
 -13998404.15846 -11753341.27247  22444871.7814                   22444863.9414
        40.5004         43.0004
 -13466221.61847 -12088061.32046  21507690.1414                   21507679.7814
        45.5004         39.0004
  -9450490.17146  -7339125.87546  23460493.4774                   23460485.3444
        39.2504         39.2504
  -8236667.39747  -6638643.92544  22422619.6094                   22422608.8404
        43.7504         28.5004
 -10875059.00446  -8432377.74546  23440656.8914                   23440648.6994
        38.7504         38.0004
  -9781573.81546  -6354098.97643  24085873.9224                   24085862.0394
        39.7504         22.7504
 -28455379.84948 -22013470.76049  20509560.6024                   20509551.8244
        52.0004         54.7504
 -12687952.51346  -9867555.35144  23611360.5554                   23611351.6024
        38.0004         26.7504
 -17493837.12348 -19821880.05949  20834035.9924                   20834027.2154
        52.0004         55.0004
 23  1  3  0 13 30.0000000  0  9G24G23G08G22G27G21G10G18G32
 -13949067.03646 -11714896.75547  22454260.2974                   22454252.3984
        41.0004         42.7504
 -13410544.49047 -12044676.55346  21518285.3364                   21518274.9184
        46.0004         39.0004
  -9419169.83346  -7314720.42546  23466453.2664                   23466445.4264
        39.5004         39.0004
  -8315969.82647  -6700437.99044  22407528.4454                   22407517.9694
        42.5004         28.7504
 -10795083.42246  -8370059.12346  23455875.5704                   23455867.2034
        39.0004         37.5004
  -9863120.79746  -6417642.07243  24070355.9304                   24070343.8134
        39.7504         22.0004
 -28456285.96648 -22014176.82949  20509388.1954                   20509378.9494
        53.7504         55.0004
 -12578994.06346  -9782652.68744  23632095.0554                   23632085.6334
        38.7504         25.5004
 -17531907.64948 -19851545.38449  20826791.2504                   20826782.5314
        52.0004         54.7504
 23  1  3  0 14  0.0000000  0  9G24G23G08G22G27G21G10G18G32
 -13899147.69146 -11675998.56247  22463759.6094                   22463751.5354
        40.5004         42.7504
 -13354623.42947 -12001101.71046  21528926.8284                   21528916.2934
        46.0004         39.0004
  -9387350.90946  -7289926.45446  23472507.4384                   23472500.0664
        39.5004         38.7504
  -8394986.32447  -6762009.27844  22392493.0164                   22392481.8364
        43.5004         28.5004
 -10714824.07446  -8307519.36046  23471149.3984                   23471140.3284
        40.0004         38.0004
  -9944472.56046  -6481033.04243  24054875.9924                   24054863.4064
        40.2504         22.7504
 -28456911.82448 -22014664.50749  20509269.2194                   20509260.0314
        53.5004         55.0004
 -12469850.54246  -9697605.79944  23652864.3444                   23652854.7464
        37.5004         25.7504
 -17569561.92948 -19880886.37149  20819625.9454                   20819617.1094
        51.2504         54.7504
 23  1  3  0 14 30.0000000  0  9G24G23G08G22G27G21G10G18G32
 -13848647.31846 -11636647.62347  22473368.5084                   22473361.1954
        39.0004         42.5004
 -13298458.22247 -11957336.61346  21539615.0314                   21539604.0864
        46.0004         39.2504
  -9355034.71446  -7264745.00346  23478657.6174                   23478649.6604
        40.0004         39.0004
  -8473715.61146  -6823356.75644  22377510.4924                   22377500.0164
        41.2504         28.2504
 -10634283.56146  -8244760.53346  23486474.2344                   23486466.6884
        38.0004         37.5004
 -10025626.40446  -6544269.80843  24039432.5784                   24039420.4024
        39.2504         22.5004
 -28457256.43948 -22014933.03249  20509203.5704                   20509194.6764
        53.5004         55.0004
 -12360523.54346  -9612415.94744  23673668.5394                   23673658.8834
        37.2504         26.7504
 -17606799.50148 -19909902.64049  20812539.7584                   20812531.0984
        52.0004         54.7504
 23  1  3  0 15  0.0000000  0  9G24G23G08G22G27G21G10G18G32
 -13797568.28346 -11596845.75947  22483089.9384                   22483081.4534
        40.5004         42.7504
 -13242049.59947 -11913381.85346  21550349.1724                   21550338.4024
        46.0004         38.7504
  -9322223.48646  -7239177.82646  23484900.8674                   23484893.1454
        39.2504         38.5004
  -8552157.19747  -6884480.05544  22362584.9064                   22362573.6684
        42.5004         28.5004
 -10553465.48046  -8181785.41546  23501854.2584                   23501845.9494
        39.0004         38.0004
 -10106580.92646  -6607351.22343  24024027.8524                   24024015.5594
        40.5004         22.7504
 -28457319.92848 -22014982.50749  20509191.4224                   20509182.2934
        53.5004         55.0004
 -12251015.66446  -9527085.12644  23694507.0004                   23694497.9304
        37.5004         25.5004
 -17643620.71248 -19938594.48049  20805533.0004                   20805524.1054
        51.2504         55.0004
 23  1  3  0 15 30.0000000  0  9G24G23G08G22G27G21G10G18G32
 -13745912.36746 -11556594.40447  22492918.5554                   22492911.1844
        39.2504         42.2504
 -13185397.78347 -11869237.57946  21561129.8524                   21561119.3164
        46.0004         39.0004
  -9288919.27246  -7213226.48246  23491238.8914                   23491231.0514
        39.7504         39.0004
  -8630309.64447  -6945378.05244  22347711.9924                   22347701.2234
        43.0004         28.5004
 -10472372.94346  -8118596.42746  23517285.6804                   23517277.3134
        39.5004         37.7504
 -10187334.23846  -6670275.88343  24008660.3524                   24008648.6454
        40.5004         23.0004
 -28457101.70748 -22014812.46849  20509232.8834                   20509224.2814
        52.2504         55.0004
 -12141328.86046  -9441614.90144  23715379.2194                   23715370.0904
        37.7504         25.5004
 -17680025.51448 -19966961.85349  20798605.4534                   20798596.6764
        52.0004         55.0004
 23  1  3  0 16  0.0000000  0  9G24G23G08G22G27G21G10G18G32
 -13693680.46946 -11515894.21647  22502858.8284                   22502850.6374
        41.0004         42.2504
 -13128502.08247 -11824903.28746  21571956.5864                   21571946.1094
        45.7504         38.5004
  -9255122.57646  -7186891.39146  23497670.2344                   23497662.1604
        40.5004         38.7504
  -8708171.35947  -7006049.51544  22332895.1334                   22332883.8954
        43.5004         29.2504
 -10391008.11246  -8055195.27346  23532768.7194                   23532759.9414
        39.2504         37.5004
 -10267883.64346  -6733041.63444  23993332.7894                   23993320.4384
        41.7504         25.7504
 -28456600.21148 -22014421.70149  20509328.2814                   20509319.5634
        53.0004         54.7504
 -12031464.49646  -9356006.32344  23736287.0634                   23736276.6454
        38.5004         25.5004
 -17716012.98348 -19995004.02149  20791757.0474                   20791748.3284
        51.7504         55.2504
 23  1  3  0 16 30.0000000  0  9G24G23G08G22G27G21G10G18G32
 -13640875.07946 -11474747.16947  22512907.0944                   22512898.6094
        39.5004         42.2504
 -13071363.34247 -11780379.59846  21582829.6884                   21582818.9774
        45.7504         38.5004
  -9220835.94146  -7160174.53946  23504194.8284                   23504187.0474
        39.5004         38.7504
  -8785742.08547  -7066494.22644  22318133.4534                   22318122.9184
        42.0004         29.0004
 -10309374.73446  -7991584.84746  23548303.0784                   23548295.1804
        39.2504         37.5004
 -10348227.68446  -6795647.36644  23978043.0554                   23978031.6414
        41.2504         25.7504
 -28455815.67648 -22013810.37249  20509477.6644                   20509468.7704
        53.7504         55.0004
 -11921425.12046  -9270261.37044  23757227.0474                   23757216.0434
        39.0004         25.0004
 -17751583.69848 -20022721.45149  20784988.3364                   20784979.5594
        51.0004         54.7504
 23  1  3  0 17  0.0000000  0  9G24G23G08G22G27G21G10G18G32
 -13587498.32546 -11433154.86247  22523065.2894                   22523056.5704
        40.2504         42.2504
 -13013982.05847 -11735666.91046  21593748.7974                   21593738.2624
        45.5004         38.5004
  -9186061.69046  -7133077.72446  23510811.7584                   23510804.2704
        40.0004         38.7504
  -8863021.17447  -7126711.67144  22303427.6564                   22303418.1174
        43.2504         29.7504
 -10227476.09746  -7927767.76546  23563888.2274                   23563879.8594
        39.0004         37.5004
 -10428364.38546  -6858091.54943  23962793.7424                   23962781.8594
        41.7504         23.2504
 -28454747.98048 -22012978.40349  20509680.7194                   20509671.6484
        53.0004         55.0004
 -11811213.14646  -9184381.93744  23778199.5234                   23778189.8674
        38.5004         24.5004
 -17786737.85848 -20050114.28949  20778298.8134                   20778289.7424
        52.2504         54.7504
 23  1  3  0 17 30.0000000  0  9G24G23G08G22G27G21G10G18G32
 -13533551.28546 -11391118.23047  22533329.3284                   22533322.3674
        38.5004         42.0004
 -12956357.73447 -11690764.85446  21604713.9384                   21604703.9884
        45.7504         38.5004
  -9150800.88946  -7105601.78346  23517521.7734                   23517514.0514
        41.0004         38.5004
  -8940006.58247  -7186700.30444  22288778.4924                   22288768.1914
        43.0004         29.7504
 -10145314.73646  -7863745.91346  23579523.5394                   23579513.9414
        39.0004         37.2504
 -10508291.16647  -6920372.15844  23947584.2034                   23947572.3204
        42.0004         26.0004
 -28453395.85648 -22011924.79749  20509937.9844                   20509929.3244
        53.2504         54.7504
 -11700829.96346  -9098369.04744  23799203.6024                   23799194.5904
        37.5004         24.0004
 -17821474.78948 -20077182.02149  20771688.7194                   20771679.6484
        52.0004         55.0004
 23  1  3  0 18  0.0000000  0  9G24G23G08G22G27G21G10G18G32
 -13479036.41346 -11348639.09747  22543704.0314                   22543696.0164
        40.0004         42.0004
 -12898491.03947 -11645673.92646  21615725.6414                   21615715.5744
        45.2504         38.5004
  -9115055.37946  -7077748.13846  23524324.2194                   23524316.5554
        40.5004         39.0004
  -9016698.19347  -7246459.97644  22274184.4534                   22274173.7424
        43.7504         29.7504
 -10062894.01346  -7799521.98346  23595206.9534                   23595198.9964
        38.5004         37.0004
 -10588006.66646  -6982488.10944  23932414.9534                   23932403.0704
        41.5004         24.7504
 -28451759.01548 -22010649.32849  20510249.5944                   20510240.7584
        53.2504         54.7504
 -11590278.03146  -9012224.70043  23820240.2814                   23820231.7384
        36.5004         23.0004
 -17855794.81948 -20103924.90149  20765157.7034                   20765148.9844
        51.5004         55.0004
 23  1  3  0 18 30.0000000  0  9G24G23G08G22G27G21G10G18G32
 -13423955.94146 -11305719.24547  22554185.3134                   22554177.4144
        39.7504         42.0004
 -12840382.56447 -11600394.61046  21626783.1484                   21626773.1414
        45.0004         38.7504
  -9078827.72246  -7049518.77746  23531218.2504                   23531210.4104
        41.5004         38.5004
  -9093095.17747  -7305990.08345  22259647.1644                   22259635.7504
        44.0004         30.0004
  -9980217.56346  -7735098.77846  23610940.0784                   23610931.4774
        38.2504         36.7504
 -10667509.40246  -7044438.26644  23917285.7034                   23917274.0554
        41.2504         26.0004
 -28449837.40548 -22009151.97049  20510615.0234                   20510606.1884
        53.2504         54.7504
 -11479559.94646  -8925950.85843  23841311.2734                   23841300.8554
        37.5004         22.2504
 -17889698.41248 -20130343.26849  20758705.8364                   20758697.0594
        52.5004         54.7504
 23  1  3  0 19  0.0000000  0 10G24G23G08G22G27G21G10G18G31G32
 -13368311.18146 -11262359.67246  22564774.5554                   22564766.3634
        40.7504         41.7504
 -12782031.88347 -11554926.55546  21637887.7194                   21637877.1844
        46.0004         38.7504
  -9042119.11346  -7020914.67646  23538203.4924                   23538195.4184
        41.7504         39.0004
  -9169195.90547  -7365289.35345  22245165.1174                   22245154.3484
        44.0004         30.0004
  -9897287.76446  -7670478.15745  23626720.2584                   23626712.0664
        37.5004         35.7504
 -10746796.48846  -7106220.40644  23902197.7814                   23902186.0164
        41.5004         25.7504
 -28447630.03148 -22007431.93949  20511034.8594                   20511026.4344
        52.7504         55.0004
 -11368676.95446  -8839548.54743  23862409.7274                   23862400.9494
        36.0004         22.2504
                                  25322890.984
        33.750
 -17923184.89448 -20156436.61049  20752333.7814                   20752324.8874
        51.5004         55.0004
 23  1  3  0 19 30.0000000  0 10G24G23G08G22G27G21G10G18G31G32
 -13312106.45946 -11218563.80046  22575469.3284                   22575462.1334
        39.2504         41.5004
 -12723441.72047 -11509271.88446  21649037.0394                   21649026.6214
        45.7504         38.5004
  -9004934.20546  -6991939.43346  23545279.7894                   23545271.8324
        41.7504         38.5004
  -9245002.13047  -7424359.12945  22230739.8674                   22230728.9224
        44.0004         30.5004
  -9814110.17446  -7605664.46346  23642548.7814                   23642541.0004
        38.2504         36.5004
 -10825869.08346  -7167835.39544  23887151.1724                   23887139.4654
        41.0004         25.5004
 -28445138.89048 -22005490.79749  20511509.1804                   20511500.1094
        53.0004         54.7504
 -11257633.80746  -8753021.42143  23883541.9454                   23883531.9384
        38.0004         22.7504
    417737.14945    357012.85854  25300475.6024                   25300465.5354
        33.7504         29.5004
 -17956256.77748 -20182206.90449  20746040.3834                   20746031.6644
        51.2504         54.7504
 23  1  3  0 20  0.0000000  0 10G24G23G08G22G27G21G10G18G31G32
 -13255340.05246 -11174330.22846  22586273.1884                   22586264.0004
        40.2504         41.5004
 -12664608.35747 -11463427.71946  21660232.1724                   21660221.9884
        45.7504         38.2504
  -8967270.76846  -6962591.30146  23552446.5704                   23552438.5554
        41.7504         38.7504
  -9320509.12847  -7483195.73945  22216371.4694                   22216360.5234
        44.2504         31.5004
  -9730684.00446  -7540657.07645  23658425.1644                   23658415.7424
        38.5004         35.5004
 -10904720.27046  -7229277.87844  23872146.1954                   23872134.6054
        41.0004         26.0004
 -28442359.20048 -22003324.80149  20512038.0784                   20512029.5354
        52.7504         55.0004
 -11146428.62046  -8666368.04243  23904702.7194                   23904693.8834
        36.2504         22.0004
    299851.18346    265153.73345  25278044.4304                   25278033.6604
        36.0004         31.0004
 -17988910.20148 -20207651.11349  20739826.4224                   20739817.8794
        51.7504         54.7504
 23  1  3  0 20 30.0000000  0 10G24G23G08G22G27G21G10G18G31G32
 -13198015.54846 -11129661.77146  22597180.5554                   22597172.2464
        39.7504         41.5004
 -12605533.75947 -11417395.58046  21671473.9844                   21671463.3914
        45.5004         38.5004
  -8929132.25146  -6932872.98146  23559703.3754                   23559696.1214
        41.0004         38.5004
  -9395717.68547  -7541799.80545  22202059.2814                   22202048.8054
        44.5004         31.0004
  -9647014.10446  -7475459.73245  23674346.3524                   23674337.7504
        38.2504         35.7504
 -10983350.11046  -7290547.87644  23857183.0004                   23857171.7624
        41.0004         25.7504
 -28439292.47248 -22000935.14049  20512621.6254                   20512612.9654
        53.5004         54.7504
 -11035065.26546  -8579591.41343  23925894.1724                   23925885.6294
        36.5004         22.5004
    181874.50545    173223.83644  25255592.4534                   25255583.3834
        33.5004         27.0004
 -18021146.89948 -20232770.60249  20733692.1564                   20733683.1454
        51.7504         54.7504
 23  1  3  0 21  0.0000000  0 10G24G23G08G22G27G21G10G18G31G32
 -13140134.77946 -11084559.87346  22608196.0704                   22608186.5314
        39.5004         41.5004
 -12546218.03847 -11371175.54646  21682761.3914                   21682751.0904
        45.5004         38.2504
  -8890520.67646  -6902786.04746  23567051.6954                   23567043.6214
        41.7504         38.5004
  -9470626.72747  -7600170.49545  22187805.1414                   22187794.3714
        44.0004         31.0004
  -9563103.45246  -7410074.81645  23690312.5784                   23690305.6764
        37.2504         35.5004
 -11061756.83046  -7351644.00744  23842262.8054                   23842251.7424
        40.2504         26.5004
 -28435938.08148 -21998321.33449  20513259.9454                   20513251.1094
        52.5004         54.7504
 -10923545.68946  -8492693.04943  23947115.8754                   23947106.7464
        36.0004         22.7504
     63809.71655     81225.19354  25233126.7194                   25233116.4184
        35.5004         29.2504
 -18052966.81748 -20257565.33449  20727636.8524                   20727628.2504
        51.7504         54.7504
 23  1  3  0 21 30.0000000  0 10G24G23G08G22G27G21G10G18G31G32
 -13081700.57446 -11039026.72646  22619314.1804                   22619306.6914
        39.0004         41.2504
 -12486662.12947 -11324768.35046  21694094.5784                   21694083.9264
        45.7504         38.5004
  -8851439.28447  -6872333.01746  23574489.2034                   23574480.8954
        42.5004         38.5004
  -9545236.07047  -7658307.62445  22173606.7664                   22173596.2894
        45.0004         31.7504
  -9478955.98246  -7344505.35845  23706326.8524                   23706318.0164
        37.5004         34.2504
 -11139938.95646  -7412565.12744  23827384.6884                   23827373.3914
        40.0004         25.5004
 -28432296.27548 -21995483.56449  20513953.1174                   20513944.2814
        53.5004         55.0004
 -10811872.65146  -8405675.06943  23968366.7584                   23968357.4534
        37.5004         22.7504
    -54341.35356    -10840.53354  25210645.6484                   25210633.2974
        36.5004         29.2504
 -18084370.79348 -20282035.94949  20721660.9844                   20721652.3244
        52.0004         55.0004
 23  1  3  0 22  0.0000000  0 10G24G23G08G22G27G21G10G18G31G32
 -13022714.28046 -10993063.36846  22630539.7584                   22630531.3914
        39.7504         41.2504
 -12426865.56247 -11278173.63446  21705473.5554                   21705462.9614
        45.0004         38.0004
  -8811888.69547  -6841514.37746  23582015.6644                   23582006.8284
        42.2504         38.2504
  -9619543.77547  -7716209.71545  22159466.5634                   22159456.2624
        44.5004         31.5004
  -9394573.91346  -7278753.06645  23722383.7584                   23722375.6254
        36.5004         34.5004
 -11217893.62446  -7473309.00544  23812552.9304                   23812540.0514
        40.5004         24.5004
 -28428365.37048 -21992420.51849  20514701.3444                   20514692.6254
        53.2504         55.0004
 -10700047.64646  -8318538.69843  23989646.6884                   23989637.0904
        37.2504         22.7504
   -172575.42846   -102971.11945  25188147.2734                   25188133.8094
        38.7504         31.0004
 -18115358.10048 -20306181.88549  20715764.6094                   20715755.7734
        52.0004         54.7504
 23  1  3  0 22 30.0000000  0 10G24G23G08G22G27G21G10G18G31G32
 -12963177.51646 -10946671.09246  22641868.5554                   22641859.8954
        38.7504         41.0004
 -12366828.17347 -11231391.26046  21716898.3674                   21716887.4224
        46.0004         38.0004
  -8771871.01647  -6810331.77946  23589630.2734                   23589621.9064
        43.0004         38.0004
  -9693549.02547  -7773876.15145  22145384.0164                   22145373.4804
        44.0004         30.2504
  -9309960.10546  -7212820.24345  23738484.3674                   23738477.1134
        36.2504         34.7504
 -11295619.52546  -7533874.64744  23797759.7814                   23797748.8364
        40.5004         24.2504
 -28424144.69549 -21989131.68849  20515504.0864                   20515495.5434
        54.0004         55.2504
 -10588072.38046  -8231285.23243  24010955.1254                   24010945.2344
        37.7504         22.5004
   -290889.55755   -195164.05955  25165629.2584                   25165618.8984
        35.0004         31.2504
 -18145928.54748 -20330002.99549  20709947.1414                   20709938.1294
        52.0004         55.0004
 23  1  3  0 23  0.0000000  0 10G24G23G08G22G27G21G10G18G31G32
 -12903090.45446 -10899849.97646  22653303.3444                   22653294.8594
        39.2504         41.5004
 -12306548.21747 -11184419.87546  21728369.2194                   21728358.3914
        45.5004         38.7504
  -8731386.37847  -6778785.31946  23597334.5234                   23597326.3324
        42.2504         38.0004
  -9767249.10247  -7831304.76045  22131359.7734                   22131348.3594
        45.2504         31.2504
  -9225115.72546  -7146707.71545  23754630.4614                   23754622.2704
        37.0004         33.5004
 -11373111.17446  -7594257.73944  23783014.0314                   23783001.8554
        40.7504         25.0004
 -28419631.94048 -21985615.25349  20516362.9614                   20516354.2424
        53.0004         54.7504
 -10475946.94646  -8143914.80243  24032292.3914                   24032282.3834
        39.2504         23.2504
                                  25143103.2734                   25143092.5044
        33.7504         33.0004
 -18176080.22248 -20353497.79049  20704209.4064                   20704200.4534
        51.5004         54.7504
 23  1  3  0 23 30.0000000  0 11G24G23G08G22G27G21G10G18G31G01G32
 -12842464.59246 -10852609.04646  22664839.8444                   22664831.5944
        39.2504         41.0004
 -12246035.35047 -11137266.98546  21739884.3754                   21739873.8984
        45.5004         38.2504
  -8690445.39247  -6746883.24746  23605124.7664                   23605116.9264
        42.2504         38.0004
  -9840652.33147  -7888502.08345  22117391.3674                   22117380.7734
        44.2504         31.2504
  -9140053.19246  -7080425.21245  23770817.5864                   23770809.0434
        36.7504         33.5004
 -11450376.50346  -7654464.49344  23768311.1094                   23768300.0474
        41.0004         26.2504
 -28414835.83048 -21981878.02549  20517275.4534                   20517267.1454
        53.5004         55.0004
 -10363682.91546  -8056436.31943  24053654.3754                   24053645.3634
        37.7504         23.0004
   -527746.87656   -345189.31555  25120558.9924                   25120546.6414
        37.5004         34.0004
    610382.29155    506651.97153  25352978.5704                   25352970.2624
        32.0004         18.2504
 -18205822.60148 -20376673.65749  20698549.3594                   20698540.5234
        52.5004         55.0004
 23  1  3  0 24  0.0000000  0 11G24G23G08G22G27G21G10G18G31G01G32
 -12781287.11246 -10804938.27646  22676481.0784                   22676473.0044
        38.7504         41.0004
 -12185274.89347 -11089921.17646  21751446.5784                   21751436.2194
        46.5004         37.7504
  -8649035.97647  -6714616.18746  23613004.7424                   23612996.4344
        42.2504         38.0004
  -9913743.24847  -7945456.01845  22103482.5004                   22103471.7304
        44.5004         31.2504
  -9054760.82746  -7013963.63845  23787047.7814                   23787040.0594
        37.0004         33.7504
 -11527398.83246  -7714481.87244  23753653.9064                   23753642.7274
        40.7504         25.2504
 -28409741.21148 -21977908.17849  20518245.2274                   20518236.3324
        53.0004         54.7504
 -10251267.56846  -7968839.95344  24075047.2894                   24075037.4574
        37.7504         24.5004
                                  25098002.1254                   25097989.4224
        38.5004         31.5004
    497497.46244    418689.76142  25331497.6884                   25331490.7854
        28.0004         15.5004
 -18235141.01848 -20399519.15749  20692970.0704                   20692961.4694
        52.0004         55.0004
 23  1  3  0 24 30.0000000  0 10G24G23G08G22G27G21G10G18G31G32
 -12719576.16046 -10756851.81145  22688224.9924                   22688216.0984
        38.7504         34.0004
 -12124283.03447 -11042395.05546  21763052.5554                   21763042.8984
        46.0004         38.0004
  -8607175.55747  -6681997.69046  23620971.8834                   23620963.1644
        43.0004         38.0004
  -9986536.34847  -8002177.90745  22089630.2504                   22089619.5984
        45.0004         32.0004
  -8969257.58745  -6947337.69445  23803318.7424                   23803310.1994
        35.5004         33.0004
 -11604192.36346  -7774320.99044  23739041.0864                   23739028.7934
        41.2504         25.7504
 -28404363.28849 -21973717.59049  20519268.5084                   20519260.1414
        54.0004         54.7504
 -10138718.82246  -7881139.62244  24096464.5394                   24096454.2384
        39.2504         25.0004
   -764897.82855   -529982.28154  25075425.9924                   25075417.6254
        34.7504         29.5004
 -18264051.44048 -20422046.74349  20687468.7344                   20687460.0744
        52.5004         55.0004
 23  1  3  0 25  0.0000000  0 11G24G23G08G22G27G21G10G18G31G01G32
 -12657322.40446 -10708342.38545  22700071.7584                   22700062.5704
        39.0004         30.2504
 -12063048.53947 -10994679.86446  21774705.2424                   21774695.0004
        45.0004         37.5004
  -8564855.56847  -6649021.08846  23629024.0474                   23629015.2704
        43.0004         37.7504
 -10059019.87247  -8058658.55745  22075837.1724                   22075826.3444
        44.5004         31.2504
  -8883535.23546  -6880541.07345  23819630.9454                   23819623.5164
        36.0004         33.2504
 -11680743.33846  -7833971.08444  23724473.8134                   23724462.5164
        41.7504         25.2504
 -28398689.92848 -21969296.79149  20520348.1564                   20520339.3794
        53.5004         55.0004
 -10026027.44446  -7793328.17843  24117909.4224                   24117899.1214
        39.0004         22.7504
   -883576.01445   -622458.89145  25052843.6484                   25052833.3484
        35.0004         31.2504
                                  25288573.5234                   25288565.2734
        29.2504         19.0004
 -18292542.62448 -20444247.65049  20682047.2274                   20682038.2154
        52.5004         54.7504
 23  1  3  0 25 30.0000000  0 11G24G23G08G22G27G21G10G18G31G01G32
 -12594531.46146 -10659414.38145  22712019.6094                   22712011.7114
        38.2504         30.0004
 -12001575.22047 -10946778.58746  21786403.4064                   21786392.8714
        45.7504         37.5004
