     2.11           OBSERVATION DATA    G (GPS)             RINEX VERSION / TYPE
teqc  2019Feb25     Salamtina Y.M.      20230920 03:20:35UTCPGM / RUN BY / DATE
OBSERVATION MODE: Permanent                                 COMMENT
CHUM Chumysh (CHUM)                                         MARKER NAME
25601M001                                                   MARKER NUMBER
4549261325          TRIMBLE NETRS        1.3-2              REC # / TYPE / VERS
237                 AOAD/M_T        NONE                    ANT # / TYPE
        0.0900        0.0000        0.0000                  ANTENNA: DELTA H/E/N
  1228950.3055  4508080.0101  4327868.5379                  APPROX POSITION XYZ
  74.75110461  42.99850159  716.3322  LonLatAlt  S/W        COMMENT
ANT ADDED FROM RCV_ANT.txt                                  COMMENT
Linux 2.6.32-573.12.1.x86_64|x86_64|gcc|Linux 64|=+         COMMENT
BIT 2 OF LLI FLAGS DATA COLLECTED UNDER A/S CONDITION       COMMENT
Konovalov S.M.      RS_RAS                                  OBSERVER / AGENCY
     1     1                                                WAVELENGTH FACT L1/2
     7    L1    L2    C1    P1    P2    S1    S2            # / TYPES OF OBSERV
    30.0000                                                 INTERVAL
    18                                                      LEAP SECONDS
TIME: 2023.01.11                                            COMMENT
TOUR: cont                                                  COMMENT
RSET: RAS02                                                 COMMENT
ASET: DS24                                                  COMMENT
OPER: skon (Konovalov S.M.)                                 COMMENT
SOUR: chum202301110000d.dat                                 COMMENT
SUPP: chum202301110000d.eph                                 COMMENT
SUPP: chum202301110000d.ion                                 COMMENT
SUPP: chum202301110000d.mes                                 COMMENT
Forced Modulo Decimation to 30 seconds                      COMMENT
 SNR is mapped to RINEX snr flag value [0-9]                COMMENT
  L1 & L2: min(max(int(snr_dBHz/6), 0), 9)                  COMMENT
  2023     1    11     0     0    0.0000000     GPS         TIME OF FIRST OBS
  2023     1    11    23    59   30.0000000     GPS         TIME OF LAST OBS
                                                            END OF HEADER
 23  1 11  0  0  0.0000000  0 11G22G08G27G23G24G21G10G18G31G01G32
 -16762698.10847  -8091797.70545  21892075.1094                   21892064.9844
        45.7504         34.0004
  -8325992.44346  -6444163.26346  23764608.8754                   23764602.1484
        39.5004         36.5004
  -8091476.49446  -6035423.98745  24079491.1414                   24079482.3054
        36.5004         32.7504
 -11467362.48847 -13421841.92746  21966426.6334                   21966416.2734
        46.0004         36.5004
 -10967305.00546  -9054105.06244  22905705.9534                   22905699.0514
        38.0004         29.2504
 -11454457.85147  -8625486.59444  23500840.9844                   23500828.2814
        43.0004         28.5004
 -27203954.83148 -21063302.75949  20544793.7814                   20544785.0044
        52.5004         55.0004
   1730500.24946  -5168394.63944  24444305.5634                   24444296.6684
        39.2504         26.0004
  -3262438.49846  -2513971.82645  24687969.6334                   24687959.6254
        36.5004         32.7504
                                  24954375.5164                   24954366.6214
        31.5004         16.7504
 -23928942.82648 -20293023.02849  20613323.6174                   20613314.8404
        52.0004         54.7504
 23  1 11  0  0 30.0000000  0 11G22G08G27G23G24G21G10G18G31G01G32
 -16830463.72847  -8144602.07445  21879179.8754                   21879169.4574
        46.2504         34.0004
  -8276293.58346  -6405436.90246  23774067.1484                   23774059.4264
        40.7504         36.2504
  -8002612.66145  -5966179.45245  24096399.4064                   24096394.0274
        35.2504         32.0004
 -11402158.84847 -13371033.91246  21978834.1094                   21978823.8094
        45.2504         36.5004
 -10896331.46046  -8998801.02744  22919212.1644                   22919203.9734
        39.0004         29.0004
 -11526684.54147  -8681767.16944  23487095.9844                   23487084.5704
        42.2504         27.2504
 -27193549.72548 -21055194.89749  20546773.8364                   20546765.0004
        51.7504         55.0004
   1845139.10046  -5079065.68844  24466121.8524                   24466111.6094
        38.7504         25.2504
  -3381831.27846  -2607005.15545  24665251.2034                   24665240.0234
        37.7504         34.0004
                                  24933216.9144                   24933209.6024
        29.5004         16.7504
 -23950723.15148 -20309994.69649  20609179.0004                   20609170.2814
        51.7504         54.7504
 23  1 11  0  1  0.0000000  0 11G22G08G27G23G24G21G10G18G31G01G32
 -16897912.46147  -8197159.50745  21866344.7664                   21866334.2304
        46.5004         34.0004
  -8226178.67146  -6366386.32545  23783603.2114                   23783594.5514
        40.5004         35.5004
  -7913588.52646  -5896809.99845  24113341.7274                   24113333.7114
        37.2504         33.5004
 -11336721.54447 -13320043.81346  21991286.2114                   21991275.9694
        44.7504         36.0004
 -10824860.14846  -8943109.06444  22932813.9774                   22932803.5004
        39.0004         26.7504
 -11598637.39747  -8737834.31644  23473403.8284                   23473392.7664
        42.0004         28.0004
 -27182844.77448 -21046853.37749  20548811.2274                   20548802.5664
        50.7504         54.7504
   1959880.01846  -4989657.17644  24487955.6174                   24487946.1954
        38.7504         24.7504
  -3501243.19346  -2700053.42745  24642526.8914                   24642516.9414
        37.2504         34.2504
                                  24912081.8754                   24912075.8524
        31.5004         16.2504
 -23972092.74848 -20326646.32349  20605112.5634                   20605103.9614
        51.0004         54.7504
 23  1 11  0  1 30.0000000  0 11G22G08G27G23G24G21G10G18G31G01G32
 -16965042.73047  -8249468.78545  21853570.2664                   21853559.7894
        46.7504         34.2504
  -8175649.28046  -6327012.80245  23793216.7034                   23793210.2114
        38.0004         34.5004
  -7824406.27546  -5827317.34445  24130312.8754                   24130304.8014
        36.7504         33.0004
 -11271049.96047 -13268871.17146  22003783.0864                   22003772.9614
        45.0004         36.0004
 -10752892.61546  -8887030.48344  22946506.2344                   22946500.3284
        37.2504         27.5004
 -11670313.71547  -8793686.00344  23459764.6094                   23459752.2584
        42.5004         28.5004
 -27171838.34548 -21038276.94049  20550905.3914                   20550896.9064
        50.5004         54.7504
   2074721.75146  -4900170.13244  24509809.6884                   24509799.6804
        38.5004         25.0004
  -3620670.33246  -2793113.55145  24619801.4144                   24619790.5274
        38.5004         34.5004
                                  24890969.3754                   24890963.5864
        30.0004         16.2504
 -23993051.07348 -20342977.47749  20601124.1414                   20601115.4804
        50.7504         55.0004
 23  1 11  0  2  0.0000000  0 11G22G08G27G23G24G21G10G18G31G01G32
 -17031856.60447  -8301531.52545  21840856.1254                   21840845.5314
        47.0004         34.2504
  -8124710.01746  -6287319.90345  23802911.1254                   23802904.8094
        39.5004         35.5004
  -7735071.66746  -5757705.97445  24147312.8364                   24147304.9964
        37.2504         33.0004
 -11205146.97547 -13217518.20746  22016324.3984                   22016314.2734
        46.2504         36.7504
 -10680433.83046  -8830569.11244  22960296.6024                   22960288.2934
        38.2504         27.5004
 -11741714.18146  -8849322.73044  23446177.1174                   23446165.5864
        41.7504         29.0004
 -27160532.65248 -21029467.31349  20553056.4224                   20553048.0554
        50.2504         54.7504
   2189659.46646  -4810608.24743  24531681.7114                   24531672.1134
        38.5004         23.5004
  -3740112.46246  -2886185.34845  24597071.7344                   24597061.0824
        37.0004         34.0004
  -2484269.67355   -961807.03252  24869880.6564                   24869872.5824
        33.2504         16.7504
 -24013601.06048 -20358990.44249  20597213.9144                   20597204.9614
        50.7504         54.7504
 23  1 11  0  2 30.0000000  0 11G22G08G27G23G24G21G10G18G31G01G32
 -17098350.73347  -8353345.10445  21828202.5164                   21828192.0394
        47.0004         34.5004
  -8073360.93946  -6247307.66346  23812684.1884                   23812676.9344
        40.2504         36.0004
  -7645585.07046  -5687976.18845  24164340.4224                   24164333.1684
        37.2504         32.2504
 -11139010.21647 -13165983.08945  22028909.7664                   22028899.4064
        46.0004         35.7504
 -10607483.72446  -8773724.86544  22974178.2344                   22974170.1604
        37.5004         26.7504
 -11812834.55547  -8904741.19544  23432643.9924                   23432632.2854
        43.7504         29.2504
 -27148924.45048 -21020421.96649  20555265.6094                   20555257.6524
        51.0004         55.0004
   2304693.81546  -4720971.13444  24553571.5634                   24553561.9064
        38.0004         24.2504
  -3859564.11046  -2979264.56745  24574341.8674                   24574330.4534
        39.2504         35.0004
  -2594974.97455  -1048071.00352  24848812.5004                   24848806.1254
        31.0004         17.2504
 -24033740.46148 -20374683.46949  20593381.3674                   20593372.5904
        51.2504         55.0004
 23  1 11  0  3  0.0000000  0 11G22G08G27G23G24G21G10G18G31G01G32
 -17164525.00247  -8404909.45245  21815610.2584                   21815599.4884
        47.0004         35.0004
  -8021605.09446  -6206978.45245  23822531.2664                   23822524.8914
        38.5004         34.7504
  -7555949.98546  -5618130.67545  24181398.3834                   24181390.4844
        38.0004         33.2504
 -11072640.22547 -13114266.22846  22041539.1954                   22041529.2464
        45.2504         36.0004
 -10534045.00646  -8716499.91044  22988154.0394                   22988144.7344
        38.2504         26.5004
 -11883672.50647  -8959939.60044  23419163.7034                   23419151.6454
        43.0004         28.7504
 -27137013.49248 -21011140.70849  20557531.5314                   20557523.1644
        51.7504         55.0004
   2419822.17146  -4631260.69943  24575481.2194                   24575470.3914
        38.7504         22.5004
  -3979023.01446  -3072349.42545  24551609.7504                   24551598.2774
        38.7504         34.5004
  -2705554.21755  -1134236.61453  24827770.5394                   24827763.9884
        32.0004         18.5004
 -24053469.89148 -20390057.04549  20589627.0554                   20589618.1604
        51.5004         54.7504
 23  1 11  0  3 30.0000000  0 11G22G08G27G23G24G21G10G18G31G01G32
 -17230379.72747  -8456224.80745  21803078.2194                   21803067.8594
        46.2504         34.7504
  -7969445.49546  -6166334.66345  23832456.7424                   23832448.9614
        38.5004         34.0004
  -7466170.65046  -5548172.77445  24198483.5634                   24198474.9024
        38.5004         33.5004
 -11006038.52647 -13062368.81545  22054213.4844                   22054203.5944
        46.2504         35.5004
 -10460121.43346  -8658897.13044  23002221.0784                   23002212.2424
        38.0004         27.0004
 -11954227.74447  -9014917.70344  23405738.0314                   23405725.5044
        43.0004         28.5004
 -27124800.66648 -21001624.22349  20559856.0634                   20559847.7544
        52.0004         54.7504
   2535041.22746  -4541479.59643  24597404.6954                   24597395.3914
        37.0004         23.7504
  -4098487.28046  -3165438.52445  24528875.5634                   24528864.9694
        38.2504         35.0004
  -2816005.59245  -1220302.63042  24806751.9844                   24806744.9654
        31.5004         17.7504
 -24072791.00748 -20405112.44949  20585950.3054                   20585941.6454
        52.5004         54.7504
 23  1 11  0  4  0.0000000  0 11G22G08G27G23G24G21G10G18G31G01G32
 -17295913.50147  -8507290.06345  21790607.8284                   21790596.8834
        47.7504         35.5004
  -7916884.04346  -6125377.69445  23842460.1724                   23842452.0984
        40.0004         34.7504
  -7376249.12746  -5478104.07645  24215594.2734                   24215586.1414
        38.2504         32.5004
 -10939204.36547 -13010290.26645  22066931.8204                   22066921.4614
        46.0004         35.7504
 -10385714.37846  -8600917.61144  23016379.1804                   23016371.7504
        37.5004         25.5004
 -12024496.66647  -9069672.70944  23392365.9384                   23392353.8794
        43.7504         29.0004
 -27112284.34048 -20991871.24549  20562237.6644                   20562229.7074
        51.2504         54.7504
   2650349.92846  -4451628.68743  24619347.2894                   24619338.2774
        37.5004         22.7504
  -4217953.23746  -3258528.86845  24506142.6334                   24506131.4534
        38.7504         35.2504
  -2926325.65045  -1306266.29042  24785758.8134                   24785751.6174
        33.7504         17.2504
 -24091703.05348 -20419849.09949  20582351.1254                   20582342.8164
        52.2504         54.7504
 23  1 11  0  4 30.0000000  0 11G22G08G27G23G24G21G10G18G31G01G32
 -17361126.81847  -8558105.61845  21778197.7894                   21778187.4304
        47.0004         35.2504
  -7863924.03146  -6084110.16445  23852539.0944                   23852531.1374
        39.0004         34.7504
  -7286189.75046  -5407927.93745  24232733.4774                   24232725.1094
        40.0004         34.2504
 -10872139.10447 -12958031.64645  22079693.0864                   22079683.4884
        46.2504         35.7504
 -10310827.54046  -8542564.23044  23030630.8364                   23030621.5904
        38.0004         26.0004
 -12094479.05147  -9124204.43444  23379048.1644                   23379036.6914
        42.5004         29.0004
 -27099465.15648 -20981882.27149  20564677.3674                   20564668.7664
        50.0004         55.0004
   2765744.91246  -4361710.49843  24641305.9774                   24641297.3164
        38.0004         23.5004
  -4337419.18846  -3351619.25945  24483408.0704                   24483397.8284
        38.7504         35.0004
  -3036512.80045  -1392126.38943  24764792.0474                   24764783.5634
        33.7504         18.2504
 -24110207.63648 -20434268.24549  20578830.0084                   20578821.5234
        51.2504         54.7504
 23  1 11  0  5  0.0000000  0 11G22G08G27G23G24G21G10G18G31G01G32
 -17426017.54247  -8608669.78945  21765849.9694                   21765839.3754
        47.2504         35.7504
  -7810566.49346  -6042532.90245  23862689.3984                   23862684.4924
        36.0004         34.0004
  -7195993.88346  -5337645.46945  24249894.7424                   24249887.5474
        37.5004         32.2504
 -10804841.38547 -12905591.87445  22092499.7504                   22092489.7424
        46.5004         35.7504
 -10235461.79946  -8483837.68044  23044972.0314                   23044963.4304
        38.2504         26.7504
 -12164171.29347  -9178510.06445  23365786.4534                   23365774.6884
        43.5004         30.0004
 -27086340.93948 -20971655.61049  20567175.0084                   20567166.5234
        51.5004         54.7504
   2881225.72246  -4271725.48043  24663282.2274                   24663272.4534
        38.7504         22.2504
  -4456880.74646  -3444706.18046  24460676.3134                   24460665.2504
        38.7504         36.0004
  -3146562.91045  -1477879.66243  24743849.2894                   24743842.0944
        32.2504         18.2504
 -24128303.47948 -20448368.88749  20575387.4454                   20575379.3134
        52.2504         55.0004
 23  1 11  0  5 30.0000000  0 11G22G08G27G23G24G21G10G18G31G01G32
 -17490586.26747  -8658983.07646  21753563.1644                   21753552.0434
        47.2504         36.0004
  -7756815.14746  -6000648.79945  23872918.9144                   23872912.2464
        37.0004         33.5004
  -7105666.00446  -5267260.11345  24267084.8754                   24267076.0394
        39.0004         33.0004
 -10737312.88847 -12852972.28145  22105350.4384                   22105340.0204
        46.5004         35.5004
 -10159621.08046  -8424741.02544  23059403.8984                   23059396.1174
        37.5004         26.2504
 -12233572.48947  -9232588.92144  23352580.9144                   23352568.3284
        43.7504         29.2504
 -27072912.50448 -20961191.90149  20569730.2974                   20569721.8134
        51.5004         55.0004
   2996788.76746  -4181676.34544  24685271.9614                   24685263.7114
        37.0004         24.7504
  -4576336.44146  -3537788.57845  24437945.5314                   24437933.4144
        38.7504         35.7504
  -3256474.62445  -1563525.21643  24722934.3984                   24722926.4414
        34.0004         19.0004
 -24145992.47048 -20462152.51349  20572020.5314                   20572012.5744
        52.2504         55.0004
 23  1 11  0  6  0.0000000  0 11G22G08G27G23G24G21G10G18G31G01G32
 -17554832.03147  -8709044.67645  21741337.1174                   21741326.6414
        47.0004         35.0004
  -7702672.50546  -5958459.71645  23883224.7734                   23883215.5274
        39.5004         34.5004
  -7015209.13846  -5196774.28545  24284298.6024                   24284290.5274
        39.0004         33.7504
 -10669553.86447 -12800173.06245  22118244.6564                   22118233.8874
        46.2504         35.5004
 -10083307.77346  -8365276.13444  23073925.7344                   23073916.8404
        37.5004         25.7504
 -12302680.76747  -9286439.51644  23339428.5784                   23339417.1054
        42.5004         28.5004
 -27059179.30748 -20950490.71249  20572343.4774                   20572335.4614
        52.0004         55.0004
   3112432.01546  -4091564.73643  24707277.9774                   24707269.8444
        37.5004         22.7504
  -4695783.14046  -3630863.96145  24415214.0554                   24415203.6954
        38.7504         35.5004
  -3366245.32445  -1649060.79442  24702044.0704                   24702037.4614
        31.7504         17.2504
 -24163274.85348 -20475619.29149  20568731.7584                   20568722.8634
        52.2504         54.7504
 23  1 11  0  6 30.0000000  0 11G22G08G27G23G24G21G10G18G31G01G32
 -17618754.86047  -8758854.65045  21729173.2894                   21729162.4024
        47.7504         35.5004
  -7648141.04946  -5915967.66845  23893599.8204                   23893592.7424
        37.7504         34.0004
  -6924626.50446  -5126190.42545  24301534.2814                   24301527.1454
        39.5004         33.2504
 -10601564.67147 -12747194.48745  22131182.3834                   22131172.0824
        46.5004         35.5004
 -10006524.67146  -8305445.12644  23088537.1564                   23088528.7894
        37.7504         27.0004
 -12371494.55947  -9340060.64144  23326334.2894                   23326322.2894
        43.2504         28.2504
 -27045140.98048 -20939551.75649  20575015.2194                   20575005.9734
        51.5004         55.0004
   3228153.20546  -4001392.40743  24729301.1174                   24729290.2304
        39.2504         22.0004
  -4815218.06146  -3723930.16345  24392485.7734                   24392476.1174
        38.0004         35.5004
  -3475872.39746  -1734484.51143  24681185.7504                   24681176.2114
        36.0004         18.2504
 -24180151.24248 -20488769.70949  20565520.2974                   20565511.4614
        53.0004         54.7504
 23  1 11  0  7  0.0000000  0 11G22G08G27G23G24G21G10G18G31G01G32
 -17682352.99347  -8808411.61845  21717070.6804                   21717059.7934
        46.5004         35.7504
  -7593222.35045  -5873173.95345  23904048.1724                   23904043.7344
        35.0004         33.0004
  -6833920.17846  -5055510.14445  24318794.8914                   24318787.9304
        38.5004         33.7504
 -10533344.59947 -12694036.01645  22144164.3674                   22144154.1254
        46.5004         35.5004
  -9929273.27246  -8245249.22944  23103236.8524                   23103229.4224
        37.5004         27.0004
 -12440010.32847  -9393449.57744  23313296.0554                   23313284.8754
        42.7504         28.5004
 -27030795.72748 -20928373.64649  20577744.8054                   20577735.9694
        51.5004         54.7504
   3343951.09246  -3911160.28343  24751336.3834                   24751326.1994
        38.2504         23.0004
  -4934637.50446  -3816984.29345  24369761.4454                   24369750.7344
        37.5004         34.7504
  -3585352.26645  -1819793.51142  24660349.9064                   24660343.1214
        31.7504         17.7504
 -24196621.07248 -20501603.33649  20562386.1484                   20562377.7234
        52.0004         55.0004
 23  1 11  0  7 30.0000000  0 11G22G08G27G23G24G21G10G18G31G01G32
 -17745627.08147  -8857716.08545  21705029.7424                   21705019.3244
        46.5004         35.7504
  -7537919.58946  -5830080.95245  23914575.5314                   23914566.8714
        38.5004         32.5004
  -6743094.18546  -4984736.69045  24336079.8674                   24336072.0864
        39.0004         34.0004
 -10464894.94147 -12640698.63745  22157190.1254                   22157179.8834
        46.5004         35.2504
  -9851557.07746  -8184691.19044  23118027.9224                   23118018.0314
        39.5004         26.2504
 -12508227.44547  -9446605.73844  23300314.3524                   23300302.8204
        42.5004         28.5004
 -27016144.29548 -20916956.94449  20580533.0314                   20580524.4884
        52.0004         54.7504
   3459822.65346  -3820870.75243  24773384.8754                   24773375.6884
        37.0004         21.5004
  -5054039.48346  -3910024.83245  24347039.8364                   24347029.5944
        38.0004         35.0004
  -3694683.19545  -1904986.44743  24639546.6484                   24639538.0474
        35.7504         19.7504
 -24212685.74348 -20514121.26249  20559328.9614                   20559320.5944
        52.2504         55.0004
 23  1 11  0  8  0.0000000  0 11G22G08G27G23G24G21G10G18G31G01G32
 -17808576.75347  -8906767.75445  21693050.6174                   21693040.5514
        46.5004         35.2504
  -7482236.53946  -5786691.53945  23925171.2894                   23925162.5704
        38.7504         33.0004
  -6652152.12046  -4913872.73545  24353384.7114                   24353377.2234
        38.7504         33.7504
 -10396216.51047 -12587183.01545  22170258.6174                   22170248.5514
        46.0004         35.7504
  -9773379.31546  -8123773.42844  23132902.7424                   23132894.6684
        37.5004         25.2504
 -12576144.78847  -9499528.34344  23287390.2504                   23287378.2504
        43.0004         28.0004
 -27001186.60948 -20905301.60549  20583379.3364                   20583370.8524
        51.7504         55.0004
   3575765.16546  -3730525.97043  24795449.5864                   24795439.1684
        38.7504         23.0004
  -5173421.69646  -4003049.95545  24324323.6254                   24324312.1524
        38.5004         35.5004
  -3803863.02245  -1990061.59743  24618767.4844                   24618762.2814
        33.5004         19.0004
 -24228346.25348 -20526324.24249  20556349.0944                   20556340.3164
        52.7504         54.7504
 23  1 11  0  8 30.0000000  0 11G22G08G27G23G24G21G10G18G31G01G32
 -17871200.56247  -8955565.49846  21681134.1254                   21681123.7664
        46.5004         36.0004
  -7426173.93345  -5743006.39345  23935837.2344                   23935831.4454
        33.7504         31.7504
  -6561095.81346  -4842919.77745  24370712.3984                   24370705.2034
        37.7504         33.7504
 -10327308.19847 -12533488.22945  22183371.9144                   22183361.1454
        46.5004         35.5004
  -9694741.11846  -8062496.93544  23147868.9224                   23147859.8524
        39.5004         27.2504
 -12643758.75547  -9552214.54644  23274523.9384                   23274512.1134
        42.7504         29.2504
 -26985920.88248 -20893406.23949  20586284.1804                   20586275.6374
        51.7504         55.0004
   3691777.81545  -3640126.49243  24817524.6484                   24817515.2854
        35.5004         22.0004
  -5292779.86946  -4096056.39945  24301609.0474                   24301598.8634
        37.0004         35.5004
  -3912887.75746  -2075015.91643  24598023.9774                   24598015.3164
        36.0004         19.7504
 -24243601.74248 -20538211.62949  20553445.8834                   20553437.3404
        52.0004         55.0004
 23  1 11  0  9  0.0000000  0 11G22G08G27G23G24G21G10G18G31G01G32
 -17933498.35147  -9004109.21445  21669279.1804                   21669268.3524
        45.7504         35.5004
  -7369734.79645  -5699027.96145  23946578.1094                   23946572.4384
        34.5004         31.7504
  -6469928.93146  -4771880.64245  24388061.1884                   24388053.1724
        37.5004         33.2504
 -10258171.04647 -12479615.12645  22196528.3284                   22196517.6764
        46.0004         35.0004
  -9615645.88646  -8000864.29444  23162918.9224                   23162910.2624
        39.2504         25.7504
 -12711067.54247  -9604662.94444  23261715.5004                   23261703.9694
        43.0004         29.5004
 -26970347.07348 -20881270.80649  20589247.7344                   20589239.6604
        51.5004         54.7504
   3807857.81246  -3549674.53043  24839615.2034                   24839604.4924
        37.5004         22.0004
  -5412111.91246  -4189042.42845  24278901.5234                   24278890.9884
        36.5004         35.0004
  -4021755.31345  -2159847.82043  24577305.1644                   24577297.3834
        34.7504         19.2504
 -24258453.37248 -20549784.31649  20550619.7894                   20550610.9534
        52.0004         54.7504
 23  1 11  0  9 30.0000000  0 11G22G08G27G23G24G21G10G18G31G01G32
 -17995469.60547  -9052398.48146  21657486.3834                   21657475.7894
        46.2504         36.0004
  -7312922.22546  -5654758.41645  23957391.0864                   23957382.7774
        37.2504         32.5004
  -6378654.42046  -4700757.64445  24405431.2814                   24405422.2704
        38.0004         33.7504
 -10188805.19947 -12425563.83645  22209727.5554                   22209717.8984
        45.5004         35.2504
  -9536096.00246  -7938877.36844  23178057.2664                   23178048.4884
        39.0004         26.5004
 -12778070.26747  -9656872.84744  23248965.3054                   23248953.0124
        42.7504         29.2504
 -26954464.79248 -20868895.00649  20592270.3834                   20592261.7234
        51.7504         55.2504
   3924003.13346  -3459171.71643  24861716.2114                   24861705.9694
        36.7504         22.0004
  -5531414.67946  -4282005.63045  24256198.4844                   24256188.0084
        36.2504         35.2504
  -4130462.95946  -2244555.02143  24556619.9534                   24556611.5864
        36.5004         19.7504
 -24272901.46848 -20561042.56649  20547870.4774                   20547861.6414
        52.5004         54.7504
 23  1 11  0 10  0.0000000  0 11G22G08G27G23G24G21G10G18G31G01G32
 -18057114.59747  -9100433.52445  21645756.2974                   21645745.0594
        46.2504         35.7504
  -7255738.71045  -5610199.81645  23968271.3444                   23968263.4454
        35.2504         31.7504
  -6287276.12046  -4629553.77045  24422818.8984                   24422811.5274
        37.7504         33.5004
 -10119211.74447 -12371335.19746  22222971.1254                   22222960.7664
        46.0004         36.0004
  -9456094.94646  -7876538.91444  23193280.3594                   23193272.1684
        39.5004         26.5004
 -12844765.08747  -9708842.84244  23236273.5164                   23236261.8094
        43.2504         29.5004
 -26938274.13248 -20856278.91749  20595351.2034                   20595342.4844
        52.0004         54.7504
   4040210.74845  -3368620.31143  24883827.7894                   24883820.2424
        34.5004         21.7504
  -5650686.18046  -4374944.51045  24233502.8674                   24233492.0394
        37.5004         34.5004
  -4239008.71145  -2329136.10143  24535962.2274                   24535956.4384
        34.7504         18.2504
 -24286947.30948 -20571987.36649  20545197.6954                   20545189.0354
        52.5004         54.7504
 23  1 11  0 10 30.0000000  0 11G22G08G27G23G24G21G10G18G31G01G32
 -18118431.79847  -9148213.14945  21634087.2424                   21634076.6484
        46.0004         35.5004
  -7198185.82545  -5565353.47345  23979222.3524                   23979216.0354
        33.5004         31.0004
  -6195795.59946  -4558270.26745  24440228.2344                   24440219.1644
        38.5004         33.5004
 -10049389.46547 -12316928.23445  22236258.2114                   22236247.6174
        46.2504         35.0004
  -9375643.77546  -7813849.68544  23208590.0634                   23208581.2274
        39.5004         26.0004
 -12911148.06447  -9760569.82645  23223641.7344                   23223629.9694
        44.0004         30.5004
 -26921773.31448 -20843421.13549  20598491.1254                   20598482.5824
        52.2504         55.0004
   4156480.15045  -3278020.79743  24905954.3524                   24905945.5744
        35.5004         21.5004
  -5769921.86246  -4467855.42145  24210811.6254                   24210801.6764
        36.7504         34.5004
  -4347388.44946  -2413587.81243  24515340.8364                   24515332.3524
        36.7504         20.5004
 -24300589.94648 -20582617.98149  20542601.5784                   20542593.0354
        53.2504         55.0004
 23  1 11  0 11  0.0000000  0 11G22G08G27G23G24G21G10G18G31G01G32
 -18179422.02147  -9195737.98146  21622481.1094                   21622470.6334
        46.2504         36.2504
  -7140268.11745  -5520222.84545  23990246.1024                   23990238.3794
        35.5004         32.7504
  -6104217.62346  -4486910.79045  24457653.5864                   24457645.4534
        36.7504         32.7504
  -9979340.42747 -12262344.58345  22249588.1414                   22249577.4304
        45.5004         34.7504
  -9294746.95446  -7750813.21944  23223984.5314                   23223975.8714
        40.0004         27.5004
 -12977219.65647  -9812054.18845  23211068.5944                   23211056.3014
        45.0004         30.7504
 -26904963.22548 -20830322.36549  20601690.3524                   20601681.5164
        52.7504         54.7504
   4272807.32746  -3187376.20443  24928091.8834                   24928081.2304
        36.0004         21.0004
  -5889120.61746  -4560737.59045  24188129.9064                   24188119.0204
        36.7504         34.7504
  -4455601.02845  -2497909.30143  24494746.4384                   24494739.6524
        35.0004         19.7504
 -24313831.54948 -20592936.10549  20540081.7194                   20540073.0594
        52.7504         55.0004
 23  1 11  0 11 30.0000000  0 11G22G08G27G23G24G21G10G18G31G01G32
 -18240083.30147  -9243006.48846  21610937.7814                   21610927.4804
        46.5004         36.0004
  -7081987.13945  -5474809.11045  24001335.6094                   24001328.6484
        35.0004         33.2504
  -6012544.20846  -4415476.94945  24475099.2814                   24475091.5004
        38.2504         33.2504
  -9909063.84847 -12207583.63845  22262960.8284                   22262950.8204
        45.5004         35.0004
  -9213405.94846  -7687430.64144  23239462.9924                   23239455.2704
        39.7504         26.0004
 -13042977.38847  -9863293.97045  23198555.3444                   23198543.3444
        44.0004         30.0004
 -26887842.57148 -20816981.60249  20604947.9694                   20604939.2504
        52.2504         55.2504
   4389191.37346  -3096687.35943  24950239.0394                   24950228.7384
        37.5004         21.7504
  -6008278.34646  -4653587.81245  24165454.2034                   24165444.0784
        36.5004         34.7504
  -4563642.79046  -2582097.62443  24474188.4694                   24474179.8674
        38.7504         20.0004
 -24326671.61948 -20602941.34849  20537638.2504                   20537629.7074
        52.5004         55.0004
 23  1 11  0 12  0.0000000  0 11G22G08G27G23G24G21G10G18G31G01G32
 -18300416.68947  -9290019.49546  21599456.2664                   21599446.1414
        46.2504         36.0004
  -7023345.89445  -5429114.67645  24012493.2194                   24012487.0204
        33.5004         31.0004
  -5920779.42446  -4343971.94945  24492560.3134                   24492552.7074
        36.7504         32.2504
  -9838561.07347 -12152646.42745  22276377.3594                   22276367.1764
        46.0004         35.2504
  -9131624.55046  -7623704.86944  23255026.0394                   23255016.7344
        40.5004         25.2504
 -13108419.05647  -9914287.49645  23186102.5944                   23186090.7114
        44.5004         30.5004
 -26870411.89348 -20803399.26149  20608265.3674                   20608256.2974
        52.2504         55.2504
   4505628.88645  -3005956.80543  24972394.7974                   24972386.2544
        33.5004         21.5004
  -6127393.45046  -4746404.75745  24142786.9694                   24142776.9614
        37.7504         34.5004
  -4671511.90246  -2666151.46843  24453660.3674                   24453653.6414
        36.7504         20.2504
 -24339111.71648 -20612634.92449  20535270.9844                   20535262.5594
        53.5004         55.0004
 23  1 11  0 12 30.0000000  0 11G22G08G27G23G24G21G10G18G31G01G32
 -18360420.15647  -9336775.43146  21588038.5084                   21588027.6804
        46.5004         36.5004
  -6964345.78545  -5383140.65145  24023720.9144                   24023714.0704
        34.5004         30.0004
  -5828924.62046  -4272396.75145  24510040.0084                   24510032.6954
        36.7504         34.0004
  -9767830.77047 -12097531.92345  22289837.1334                   22289826.8914
        45.7504         34.7504
  -9049403.72146  -7559636.69044  23270670.7504                   23270663.3204
        39.0004         25.5004
 -13173541.80247  -9965032.44645  23173709.3914                   23173697.5664
        43.2504         30.5004
 -26852668.96448 -20789573.60249  20611641.4534                   20611632.9104
        52.5004         55.0004
   4622119.59846  -2915184.84643  24994563.7194                   24994553.2424
        36.5004         20.5004
  -6246461.20546  -4839184.87745  24120129.5004                   24120119.2584
        37.5004         35.5004
  -4779204.12346  -2750067.41643  24433168.5004                   24433160.0164
        39.0004         20.5004
 -24351150.70748 -20622015.95349  20532979.9534                   20532971.2934
        52.7504         55.0004
 23  1 11  0 13  0.0000000  0 11G22G08G27G23G24G21G10G18G31G01G32
 -18420095.03047  -9383275.31146  21576682.4064                   21576672.3984
        47.5004         36.0004
  -6904991.51146  -5336890.53145  24035018.1804                   24035009.4614
        36.5004         32.0004
  -5736984.95946  -4200755.48645  24527535.7504                   24527528.4384
        37.0004         32.5004
  -9696875.24247 -12042241.91745  22303338.7894                   22303328.7814
        45.2504         34.7504
  -8966748.20846  -7495229.82644  23286400.6954                   23286391.9774
        40.2504         26.0004
 -13238345.83547 -10015529.12245  23161378.5554                   23161365.9104
        45.0004         31.5004
 -26834615.31548 -20775505.82549  20615077.0704                   20615068.1764
        52.0004         55.2504
   4738659.17945  -2824374.78543  25016739.9454                   25016730.1724
        35.5004         21.5004
  -6365480.53745  -4931927.22245  24097480.3284                   24097471.3754
        35.5004         34.7504
  -4886718.67146  -2833844.97643  24412708.5554                   24412699.6604
        36.7504         19.2504
 -24362791.15048 -20631086.41349  20530764.8364                   20530756.2344
        52.5004         55.0004
 23  1 11  0 13 30.0000000  0 11G22G08G27G23G24G21G10G18G31G01G32
 -18479439.96847  -9429518.10646  21565390.2344                   21565378.9384
        47.7504         36.5004
  -6845284.20645  -5290365.41745  24046378.4534                   24046371.3754
        34.0004         30.2504
  -5644962.11546  -4129049.35545  24545046.5784                   24545038.7974
        36.2504         31.5004
  -9625693.67347 -11986775.78445  22316885.4844                   22316874.7734
        46.0004         35.5004
  -8883659.42646  -7430485.33044  23302212.0474                   23302202.9774
        39.5004         26.0004
 -13302827.78347 -10065774.80345  23149106.6094                   23149095.7814
        43.5004         30.7504
 -26816249.43748 -20761194.75349  20618571.7974                   20618563.0784
        52.0004         55.0004
   4855246.73645  -2733527.28743  25038925.1414                   25038916.0124
        33.5004         21.7504
  -6484447.33046  -5024628.61946  24074843.2344                   24074832.2304
        38.5004         36.7504
  -4994051.61846  -2917480.98243  24392283.8134                   24392275.6804
        39.2504         20.5004
 -24374032.47348 -20639845.88349  20528625.8284                   20528617.1094
        52.7504         54.7504
 23  1 11  0 14  0.0000000  0 11G22G08G27G23G24G21G10G18G31G01G32
 -18538454.53547  -9475503.47246  21554159.3364                   21554148.9184
        47.0004         37.0004
  -6785226.60145  -5243567.36545  24057807.7034                   24057799.4534
        34.7504         30.7504
  -5552859.56846  -4057281.11945  24562574.2504                   24562566.3524
        37.5004         32.0004
  -9554286.65447 -11931133.95245  22330473.5474                   22330462.0744
        45.5004         34.5004
  -8800140.39846  -7365405.53944  23318104.4924                   23318096.4184
        38.7504         26.0004
 -13366986.18547 -10115768.33645  23136898.3834                   23136886.3834
        44.5004         31.0004
 -26797570.82848 -20746639.99049  20622126.4144                   20622117.3444
        52.0004         55.2504
   4971879.94246  -2642644.30943  25061120.0474                   25061111.1524
        36.0004         20.7504
  -6603359.01446  -5117287.09946  24052213.9694                   24052203.9614
        37.5004         36.0004
  -5101200.42446  -3000973.53243  24371893.0004                   24371885.6884
        36.7504         19.5004
 -24384875.42848 -20648294.92749  20526562.3984                   20526553.7384
        52.5004         55.0004
 23  1 11  0 14 30.0000000  0 11G22G08G27G23G24G21G10G18G31G01G32
 -18597138.17947  -9521230.96646  21542992.4144                   21542981.7034
        47.2504         36.2504
  -6724822.19145  -5196498.98545  24069304.1024                   24069294.3874
        35.7504         32.0004
  -5460680.26446  -3985453.13545  24580114.6804                   24580107.0164
        37.0004         31.0004
  -9482654.51447 -11875316.72345  22344104.7584                   22344094.0474
        45.5004         34.5004
  -8716193.86746  -7299992.71244  23334079.3134                   23334071.0634
        39.0004         26.2504
 -13430819.13947 -10165508.30645  23124751.9844                   23124739.3984
        44.0004         31.5004
 -26778578.97248 -20731841.13849  20625740.3914                   20625731.7304
        52.5004         55.2504
   5088556.33046  -2551727.72443  25083325.7034                   25083314.2304
        39.7504         20.5004
  -6722212.86646  -5209900.49546  24029597.0164                   24029586.7734
        38.2504         36.5004
  -5208162.53546  -3084320.61043  24351541.1644                   24351530.8054
        40.2504         20.5004
 -24395320.74548 -20656434.12749  20524574.6804                   20524566.2544
        52.5004         54.7504
 23  1 11  0 15  0.0000000  0 11G22G08G27G23G24G21G10G18G31G01G32
 -18655491.13547  -9566700.79246  21531888.5314                   21531877.3524
        46.7504         36.7504
  -6664072.84945  -5149161.87345  24080860.3594                   24080854.8054
        32.5004         30.7504
  -5368427.42746  -3913567.75545  24597669.2504                   24597661.5864
        36.0004         30.7504
  -9410797.64547 -11819324.36245  22357777.5004                   22357767.6684
        46.5004         34.7504
  -8631822.69746  -7234248.91644  23350134.8524                   23350126.6604
        39.7504         24.7504
 -13494324.91847 -10214993.31145  23112666.1334                   23112654.6604
        43.5004         32.0004
 -26759273.67948 -20716798.05349  20629414.0234                   20629405.3634
        51.5004         54.7504
   5205273.81345  -2460778.90943  25105532.7274                   25105525.4734
        33.0004         18.5004
  -6841005.69446  -5302466.36046  24006992.4384                   24006981.6684
        39.0004         37.0004
  -5314935.07546  -3167519.98343  24331221.5944                   24331214.0474
        37.2504         20.7504
 -24405368.98248 -20664263.91149  20522662.4454                   20522653.8444
        53.0004         54.7504
 23  1 11  0 15 30.0000000  0 11G22G08G27G23G24G21G10G18G31G01G32
 -18713512.31947  -9611912.08846  21520847.0164                   21520836.3634
        47.0004         36.5004
 -11329241.66955  -8784358.43555  24092489.5234                   24092480.1024
        34.2504         31.5004
  -5276103.36045  -3841626.95145  24615237.8674                   24615231.3754
        35.0004         31.0004
  -9338715.88447 -11763156.75545  22371496.6884                   22371483.9264
        46.0004         34.5004
  -8547028.88146  -7168175.82944  23366270.7664                   23366261.9304
        39.7504         26.2504
 -13557501.26947 -10264221.64045  23100645.5394                   23100633.5984
        45.5004         31.7504
 -26739653.98048 -20701509.98649  20633147.5314                   20633138.6374
        52.0004         54.7504
   5322031.13046  -2369799.21643  25127751.4694                   25127743.9224
        36.0004         21.5004
  -6959734.18046  -5394982.06546  23984398.1484                   23984387.9064
        37.5004         36.7504
  -5421514.89846  -3250569.13443  24310941.0554                   24310931.9844
        39.2504         19.7504
 -24415020.21248 -20671784.34449  20520826.1564                   20520817.2034
        53.0004         55.0004
 23  1 11  0 16  0.0000000  0 11G22G08G27G23G24G21G10G18G31G01G32
 -18771202.60547  -9656865.54046  21509869.4774                   21509858.4734
        46.7504         37.2504
 -11267812.37245  -8736491.51245  24104177.6804                   24104169.7814
        35.2504         31.7504
  -5183712.62246  -3769634.17145  24632821.2194                   24632812.9694
        37.7504         30.5004
  -9266410.87747 -11706815.20745  22385254.0314                   22385243.3794
        46.0004         34.5004
  -8461816.63246  -7101776.64444  23382485.1484                   23382477.1914
        38.5004         24.0004
 -13620347.22647 -10313192.52945  23088685.2584                   23088673.2584
        43.2504         30.7504
 -26719720.44348 -20685977.35249  20636940.6484                   20636932.1644
        51.0004         55.0004
   5438824.34246  -2278791.63643  25149977.9534                   25149968.8244
        36.2504         19.0004
  -7078396.66246  -5487446.36446  23961817.3754                   23961807.4264
        39.0004         37.5004
  -5527900.33446  -3333466.91943  24290694.4304                   24290687.6454
        37.5004         21.5004
 -24424276.37748 -20678996.93449  20519064.6024                   20519056.2934
        52.2504         54.7504
 23  1 11  0 16 30.0000000  0 11G22G08G27G23G24G21G10G18G31G01G32
 -18828560.72247  -9701560.15546  21498954.2344                   21498943.3484
        47.0004         38.0004
 -11206046.26945  -8688362.08945  24115928.6254                   24115923.7194
        33.0004         30.2504
  -5091257.42245  -3697591.12045  24650411.8204                   24650404.9774
        34.2504         30.0004
  -9193882.37147 -11650299.50945  22399056.0314                   22399045.9064
        46.2504         34.0004
  -8376187.95546  -7035053.01344  23398779.4774                   23398771.9884
        38.0004         24.5004
 -13682860.31047 -10361903.99945  23076789.0864                   23076777.2624
        43.7504         31.0004
 -26699472.07248 -20670199.40149  20640793.8134                   20640784.9774
        51.0004         55.0004
   5555652.16846  -2187756.92243  25172212.0164                   25172199.9574
        39.0004         20.5004
  -7196989.68546  -5579856.54546  23939250.3834                   23939239.9064
        38.2504         38.2504
  -5634088.18246  -3416210.64743  24270490.2344                   24270480.9304
        39.0004         21.2504
 -24433137.47748 -20685901.67649  20517378.6254                   20517369.9064
        52.0004         55.0004
 23  1 11  0 17  0.0000000  0 11G22G08G27G23G24G21G10G18G31G01G32
 -18885585.94147  -9745995.38946  21488102.6954                   21488091.8094
        47.0004         38.0004
 -11143946.19455  -8639972.51755  24127748.7344                   24127740.6024
        34.5004         31.0004
  -4998740.17245  -3625499.76545  24668019.1024                   24668012.3164
        35.7504         30.7504
  -9121129.99747 -11593609.36345  22412900.2584                   22412889.4884
        45.5004         34.5004
  -8290144.91846  -6968006.51344  23415153.2814                   23415145.3834
        38.0004         25.5004
 -13745037.91947 -10410354.09545  23064958.3594                   23064946.5354
        44.5004         32.5004
 -26678908.13248 -20654175.54849  20644707.0084                   20644698.2894
        51.2504         55.0004
   5672513.11945  -2096696.38543  25194446.4304                   25194438.1214
        34.5004         19.5004
  -7315509.29946  -5672209.48446  23916697.7584                   23916686.6954
        39.0004         38.5004
  -5740074.86846  -3498797.70843  24250320.0784                   24250311.7114
        36.5004         21.0004
 -24441603.38448 -20692498.48449  20515767.7504                   20515759.0904
        52.5004         55.0004
 23  1 11  0 17 30.0000000  0 11G22G08G27G23G24G21G10G18G31G01G32
 -18942279.09747  -9790171.85146  21477314.0394                   21477303.3874
        46.5004         37.2504
 -11081515.95945  -8591325.62845  24139629.0864                   24139620.4264
        33.0004         30.5004
  -4906165.02646  -3553363.30344  24685635.5864                   24685626.8094
        36.0004         28.0004
  -9048155.31247 -11536745.98945  22426786.5394                   22426776.1214
        45.0004         33.5004
  -8203691.66746  -6900640.33044  23431605.6094                   23431597.2424
        39.0004         25.5004
 -13806879.68647 -10458542.48545  23053188.6414                   23053177.5204
        43.5004         31.5004
 -26658028.82348 -20637905.95249  20648680.1334                   20648671.7074
        51.2504         55.2504
   5789403.77046  -2005612.83443  25216693.1484                   25216680.7384
        38.2504         19.5004
  -7433954.07246  -5764504.11646  23894159.2114                   23894147.3874
        39.7504         39.0004
  -5845858.86546  -3581226.77943  24230191.2194                   24230182.1484
        39.5004         21.5004
 -24449676.01748 -20698788.84249  20514231.4384                   20514222.3674
        52.2504         55.2504
 23  1 11  0 18  0.0000000  0 11G22G08G27G23G24G21G10G18G31G01G32
 -18998638.53347  -9834088.29246  21466589.8204                   21466578.6994
        47.0004         37.0004
 -11018757.23045  -8542422.73745  24151569.7274                   24151563.0594
        32.2504         30.7504
  -4813533.96946  -3481183.24944  24703263.2114                   24703254.7274
        37.0004         28.7504
  -8974957.56047 -11479708.77745  22440715.9924                   22440705.1054
        45.5004         34.2504
  -8116829.58746  -6832955.61344  23448134.7344                   23448126.7774
        38.2504         24.2504
 -13868382.54747 -10506466.77345  23041485.7504                   23041473.5164
        43.5004         31.5004
 -26636832.60348 -20621389.42049  20652713.6334                   20652704.9144
        51.0004         55.2504
   5906323.04344  -1928681.83353  25238936.7424                   25238929.9574
        29.5004         21.7504
  -7552319.81346  -5856737.18546  23871633.9614                   23871622.7814
        39.5004         38.7504
  -5951436.23245  -3663494.87643  24210097.1884                   24210091.6334
        35.7504         22.0004
 -24457354.90548 -20704772.38649  20512770.1724                   20512761.3954
        52.2504         55.0004
 23  1 11  0 18 30.0000000  0 11G22G08G27G23G24G21G10G18G31G01G32
 -19054664.90847  -9877745.19446  21455927.4774                   21455917.4104
        46.7504         37.0004
 -10955673.06045  -8493266.30745  24163576.5944                   24163568.0514
        34.7504         31.5004
  -4720850.81145  -3408962.62144  24720900.8754                   24720891.8054
        35.7504         29.5004
  -8901537.98947 -11422498.73345  22454686.9304                   22454676.9224
        45.2504         34.0004
  -8029562.51246  -6764955.29844  23464741.1644                   23464732.7974
        38.2504         26.0004
 -13929545.79547 -10554126.46745  23029847.2814                   23029835.2814
        44.0004         32.0004
 -26615319.98648 -20604626.34549  20656807.2194                   20656798.6764
        50.0004         55.2504
                                  25261197.3524                   25261185.2934
        37.2504         20.0004
  -7670604.00746  -5948906.69446  23849125.7584                   23849114.3444
        40.5004         40.0004
  -6056805.06046  -3745600.44243  24190049.5394                   24190039.7664
        39.5004         20.2504
 -24464641.47948 -20710450.22649  20511383.2424                   20511374.8164
        51.7504         55.0004
 23  1 11  0 19  0.0000000  0 11G22G08G27G23G24G21G10G18G31G01G32
 -19110358.45847  -9921142.74746  21445330.0004                   21445319.1724
        47.2504         37.5004
 -10892266.77445  -8443858.85645  24175642.4384                   24175634.5984
        33.7504         31.0004
  -4628118.94245  -3336704.00044  24738545.4614                   24738537.4454
        33.5004         27.2504
  -8827897.28447 -11365116.39545  22468700.7194                   22468690.2424
        45.2504         33.5004
  -7941893.42246  -6696641.71044  23481424.1884                   23481415.2344
        38.5004         24.5004
 -13990367.43047 -10601519.92945  23018271.7344                   23018261.1414
        42.5004         30.7504
 -26593491.06848 -20587616.80049  20660961.1724                   20660952.6884
        49.5004         55.0004
  -4887703.27145 -10353246.56253  25283449.3054                   25283443.7504
        31.7504         19.7504
  -7788804.38546  -6041010.88246  23826632.3284                   23826621.7344
        40.0004         39.5004
  -6161962.86645  -3827541.59543  24170036.4304                   24170029.5274
        35.5004         22.0004
 -24471536.80248 -20715823.19849  20510071.3284                   20510062.7274
        51.2504         55.0004
 23  1 11  0 19 30.0000000  0 11G22G08G27G23G24G21G10G18G31G01G32
 -19165717.23947  -9964279.44446  21434795.4304                   21434784.7194
        47.0004         37.5004
 -10828539.84345  -8394201.54645  24187766.9304                   24187760.4964
        31.7504         30.5004
  -4535339.90245  -3264408.64044  24756202.3204                   24756192.1954
        35.7504         28.5004
  -8754034.48347 -11307560.97945  22482756.3754                   22482745.7234
        45.0004         33.5004
  -7853823.80946  -6628016.02944  23498182.8914                   23498174.8164
        38.0004         24.5004
 -14050844.17847 -10648644.66445  23006765.5084                   23006751.9844
        44.7504         32.2504
 -26571343.95148 -20570359.31049  20665175.5084                   20665167.1414
        50.7504         55.5004
  -4770712.41045 -10262084.81643  25305716.8364                   25305705.3054
        35.5004         19.5004
  -7906916.63146  -6133046.42546  23804155.7734                   23804145.5904
        40.5004         40.5004
  -6266905.54646  -3909315.08943  24150068.6414                   24150059.9224
        38.5004         22.2504
 -24478040.17448 -20720890.74849  20508833.6484                   20508824.8714
        52.0004         55.0004
 23  1 11  0 20  0.0000000  0 11G22G08G27G23G24G21G10G18G31G01G32
 -19220742.13747 -10007155.97246  21424324.9384                   21424313.8164
        47.5004         37.5004
 -10764496.42345  -8344297.67345  24199957.0704                   24199947.7664
        33.0004         30.5004
  -4442517.94645  -3192079.85344  24773865.5944                   24773857.8134
        35.7504         28.7504
  -8679951.02447 -11249833.61645  22496854.0554                   22496843.2854
        45.0004         33.7504
  -7765357.59846  -6559081.33544  23515018.0634                   23515008.6994
        39.0004         26.0004
 -14110975.66847 -10695500.39045  22995321.8524                   22995309.9104
        43.5004         32.0004
 -26548879.16948 -20552854.28449  20669450.6644                   20669441.8874
        50.7504         55.0004
  -4653702.16755 -10170908.11653  25327978.2894                   25327971.8554
        30.5004         18.5004
  -8024938.82446  -6225011.75346  23781697.3364                   23781686.9184
        40.5004         40.2504
  -6371631.31246  -3990919.61743  24130139.1954                   24130131.2974
        37.0004         22.0004
 -24484153.40348 -20725654.30949  20507670.5164                   20507661.5044
        52.2504         55.0004
 23  1 11  0 20 30.0000000  0 11G22G08G27G23G24G21G10G18G31G01G32
 -19275432.33247 -10049771.69846  21413917.0554                   21413906.7544
        47.0004         37.7504
 -10700138.73945  -8294148.87145  24212204.5554                   24212195.3094
        35.0004         32.0004
  -4349655.37445  -3119719.37744  24791536.2034                   24791526.8404
        33.7504         28.0004
  -8605646.76947 -11191934.21645  22510993.1484                   22510983.3754
        45.0004         33.0004
  -7676496.98446  -6489839.31244  23531927.5554                   23531919.0124
        38.5004         26.0004
 -14170759.48347 -10742085.15045  22983944.8754                   22983933.4024
        43.5004         32.0004
 -26526095.52948 -20535100.80249  20673786.1724                   20673777.2194
        51.0004         55.0004
  -4536674.36345 -10079717.45843  25350249.7734                   25350241.6414
        33.0004         18.2504
  -8142867.41346  -6316904.17946  23759256.6954                   23759245.2234
        41.2504         41.0004
  -6476136.94146  -4072352.52943  24110251.7424                   24110244.2544
        38.0004         21.5004
 -24489876.58248 -20730113.92349  20506581.4614                   20506572.5664
        52.0004         54.7504
 23  1 11  0 21  0.0000000  0 11G22G08G27G23G24G21G10G18G31G01G32
 -19329788.08947 -10092126.81746  21403573.4614                   21403563.2194
        46.7504         37.5004
 -10635470.04245  -8243757.67445  24224507.3524                   24224501.9144
        31.5004         30.0004
  -4256755.81345  -3047330.07444  24809214.1094                   24809205.4494
        33.7504         28.0004
  -8531122.75947 -11133863.56845  22525174.6954                   22525164.6884
        44.5004         34.0004
  -7587245.44146  -6420292.63844  23548911.0784                   23548902.1844
        38.5004         25.0004
 -14230194.27047 -10788397.97145  22972636.1804                   22972623.1844
        44.7504         32.2504
 -26502993.55548 -20517099.26849  20678182.1644                   20678173.7384
        50.0004         55.0004
  -4419631.54345 -10004891.42653  25372524.6564                   25372512.5394
        34.7504         20.2504
  -8260700.22347  -6408721.94446  23736834.1564                   23736822.8014
        42.5004         41.2504
  -6580420.10546  -4153612.14743  24090407.2274                   24090399.9144
        36.7504         20.5004
 -24495211.05448 -20734270.64849  20505566.3444                   20505557.6844
        51.5004         55.2504
 23  1 11  0 21 30.0000000  0 11G22G08G27G23G24G21G10G18G31G01G32
 -19383808.05447 -10134220.28746  21393294.1484                   21393283.1454
        46.7504         37.5004
 -10570491.66655  -8193125.30055  24236874.3204                   24236866.0124
        32.7504         30.0004
  -4163821.23346  -2974913.56544  24826901.5944                   24826891.0594
        36.7504         28.5004
  -8456378.20347 -11075621.06945  22539398.2194                   22539388.4454
        44.0004         34.2504
  -7497604.57446  -6350442.61644  23565969.1414                   23565960.1294
        38.0004         24.5004
 -14289277.64747 -10834436.97145  22961391.7034                   22961379.9964
        43.5004         32.5004
