     2.10           OBSERVATION DATA    G (GPS)             RINEX VERSION / TYPE
teqc  2004Apr5                          20041208 15:58:19UTCPGM / RUN BY / DATE
OBSERVATION MODE: Permanent                                 COMMENT
CHUM Chumysh (CHUM)                                         MARKER NAME
25601M001                                                   MARKER NUMBER
T136                ROGUE SNR-8000       3.20               REC # / TYPE / VERS
113                 AOAD/M_T        NONE                    ANT # / TYPE
        0.0900        0.0000        0.0000                  ANTENNA: DELTA H/E/N
  1228950.8680  4508079.8965  4327868.4941                  APPROX POSITION XYZ
  74.75109759  42.99850106  716.3303  LonLatAlt  S/W        COMMENT
Linux 2.0.36|Pentium II|gcc -static|Linux|486/DX+           COMMENT
BIT 2 OF LLI FLAGS DATA COLLECTED UNDER A/S CONDITION       COMMENT
Konovalov           IVTAN                                   OBSERVER / AGENCY
     1     1                                                WAVELENGTH FACT L1/2
     5    L1    L2    C1    P2    P1                        # / TYPES OF OBSERV
    30.0000                                                 INTERVAL
    P1 =    P1  TurboRogue; =    Y1  Benchmark              COMMENT
    L1 = L1(P1) TurboRogue; = L1(Y1) Benchmark              COMMENT
    P2 =    P2  TurboRogue; =    Y2  Benchmark              COMMENT
    L2 = L2(P2) TurboRogue; = L2(Y2) Benchmark              COMMENT
 SNR is mapped to RINEX snr flag value [1,4-9]              COMMENT
    SNR:  >=316 >=100 >=31.6 >=10 >=3.2    >0 bad=0         COMMENT
L1 & L2:      9     8     7     6     5     4     1         COMMENT
  2002     1     8     0     0    0.0000000     GPS         TIME OF FIRST OBS
  2002     1     8    23    59   30.0000000     GPS         TIME OF LAST OBS
                                                            END OF HEADER
 02  1  8  0  0  0.0000000  0  8G20G29G22G11G 1G14G30G25
 -20523793.76449 -15992562.42346  21465168.137    21465167.563
 -10749933.04949  -8376569.53646  21751744.221    21751743.965
 -10256941.59148  -7992421.96045  22913627.494    22913628.487
 -11149026.11948  -8687554.06544  23229722.180    23229720.797
  -7751572.08648  -6040182.49045  23618034.654    23618036.942
  -2723630.99648  -2122309.76145  23128691.265    23128690.637
   1938082.48948   1510192.66544  23832154.937    23832157.562
 -23566901.41149 -18363810.38847  20594137.927    20594137.611
 02  1  8  0  0 30.0000000  0  8G20G29G22G11G 1G14G30G25
 -20590080.19449 -16044214.18346  21452553.962    21452553.329
 -10692791.13749  -8332043.38346  21762618.151    21762618.518
 -10366068.57748  -8077455.97845  22892861.136    22892861.474
 -11078480.52948  -8632583.50044  23243146.104    23243144.630
  -7831084.47148  -6102140.15045  23602903.689    23602905.923
  -2646534.03848  -2062234.22745  23143363.236    23143362.760
   2000167.05848   1558570.20244  23843969.275    23843970.059
 -23541829.48849 -18344273.82547  20598908.941    20598908.613
 02  1  8  0  1  0.0000000  0  8G20G29G22G11G 1G14G30G25
 -20655955.03649 -16095545.22446  21440018.059    21440017.490
 -10635447.15449  -8287359.77446  21773530.262    21773530.632
 -10475009.65848  -8162345.13845  22872130.982    22872131.187
 -11007626.69648  -8577372.70944  23256628.787    23256629.204
  -7910514.99348  -6164034.01745  23587789.505    23587790.871
  -2569304.76448  -2002055.58245  23158059.141    23158058.374
   2062747.87448   1607334.48644  23855877.905    23855879.740
 -23516348.47649 -18324418.49147  20603758.005    20603757.566
 02  1  8  0  1 30.0000000  0  8G20G29G22G11G 1G14G30G25
 -20721414.85649 -16146552.86846  21427561.492    21427561.182
 -10577900.31549  -8242518.09446  21784481.163    21784481.099
 -10583760.64948  -8247086.15945  22851436.032    22851436.446
 -10936466.87548  -8521923.55144  23270170.789    23270170.403
  -7989862.53148  -6225863.24045  23572690.817    23572692.344
  -2491942.89848  -1941773.63645  23172780.047    23172779.634
   2125823.88848   1656484.60244  23867880.690    23867880.415
 -23490458.67049 -18304244.61847  20608684.501    20608683.947
 02  1  8  0  2  0.0000000  0  8G20G29G22G11G 1G14G30G25
 -20786468.22849 -16197243.80446  21415182.326    21415182.070
 -10520161.80449  -8197527.06246  21795468.492    21795468.811
 -10692329.09548  -8331684.95545  22830776.070    22830775.953
 -10865014.24948  -8466246.22144  23283767.752    23283768.101
  -8069137.57848  -6287635.98445  23557602.696    23557604.147
  -2414459.49848  -1881397.00545  23187525.545    23187524.926
   2189382.29848   1706010.63844  23879976.034    23879978.108
 -23464172.46149 -18283761.86047  20613686.615    20613686.160
 02  1  8  0  2 30.0000000  0  8G20G29G22G11G 1G14G30G25
 -20851116.51549 -16247619.08646  21402880.065    21402879.718
 -10462235.31349  -8152389.54846  21806491.555    21806491.731
 -10800715.28648  -8416141.72545  22810151.002    22810152.461
 -10793275.71148  -8410346.08144  23297418.446    23297417.926
  -8148343.34348  -6349354.69345  23542532.187    23542532.611
  -2336858.60248  -1820928.77945  23202292.399    23202291.933
   2253417.25548   1755908.01344  23892161.128    23892162.749
 -23437494.95849 -18262974.19847  20618763.247    20618762.776
 02  1  8  0  3  0.0000000  0  8G20G29G22G11G 1G14G30G25
 -20915370.27849 -16297686.95046  21390653.029    21390652.687
 -10404133.90849  -8107115.73246  21817548.104    21817547.711
 -10908929.08448  -8500464.16645  22789558.374    22789558.676
 -10721266.68348  -8354235.18544  23311122.302    23311119.368
  -8227492.30148  -6411029.19245  23527471.073    23527473.815
  -2259153.44448  -1760379.33445  23217078.826    23217078.299
   2317913.81848   1806165.02644  23904434.153    23904435.541
 -23410440.19649 -18241892.56847  20623911.725    20623911.331
 02  1  8  0  3 30.0000000  0  8G20G29G22G11G 1G14G30G25
 -20979205.95749 -16347429.03346  21378505.452    21378505.022
 -10345836.60149  -8061689.26946  21828641.604    21828641.348
 -11016945.82348  -8584633.04045  22769003.339    22769003.837
 -10648968.80248  -8297899.19444  23324880.140    23324877.620
  -8306562.92448  -6472642.61845  23512423.579    23512424.097
  -2181323.03848  -1699732.29045  23231890.158    23231890.269
   2382891.18548   1856796.75944  23916799.116    23916800.662
 -23382988.38249 -18220501.54747  20629135.558    20629135.139
 02  1  8  0  4  0.0000000  0  8G20G29G22G11G 1G14G30G25
 -21042627.20749 -16396848.18646  21366436.704    21366436.314
 -10287349.75749  -8016115.12346  21839771.215    21839771.562
 -11124768.27748  -8668650.53645  22748485.434    22748486.338
 -10576391.27248  -8241345.27744  23338690.925    23338692.279
  -8385560.90248  -6534199.44945  23497391.789    23497392.814
  -2103374.12148  -1638992.89145  23246723.023    23246723.130
   2448341.03148   1907796.64544  23929253.691    23929254.207
 -23355147.14349 -18198807.07947  20634433.346    20634432.846
 02  1  8  0  4 30.0000000  0  8G20G29G22G11G 1G14G30G25
 -21105622.09749 -16445935.10946  21354449.686    21354449.470
 -10228663.74249  -7970385.77946  21850939.074    21850939.204
 -11232383.52248  -8752506.57745  22728006.975    22728008.401
 -10503527.04148  -8184567.97044  23352557.332    23352557.353
  -8464476.16248  -6595691.82745  23482373.848    23482375.410
  -2025297.29548  -1578153.82945  23261580.852    23261579.583
   2514271.16348   1959170.73844  23941799.898    23941800.216
 -23326908.25949 -18176802.75947  20639807.304    20639806.803
 02  1  8  0  5  0.0000000  0  8G20G29G22G11G 1G14G30G25
 -21168187.63949 -16494687.47546  21342543.706    21342543.308
 -10169778.40149  -7924501.10346  21862144.211    21862144.310
 -11339787.79048  -8836198.22545  22707568.981    22707569.525
 -10430378.58648  -8127569.17544  23366476.527    23366477.325
  -8543307.81348  -6657119.04745  23467373.048    23467375.326
  -1947092.39948  -1517214.97845  23276462.562    23276461.533
   2580679.77848   2010917.69044  23954437.223    23954438.731
 -23298272.63449 -18154489.28947  20645256.551    20645256.093
 02  1  8  0  5 30.0000000  0  8G20G29G22G11G 1G14G30G25
 -21230327.91749 -16543108.47046  21330718.175    21330718.142
 -10110699.91349  -7878465.92846  21873386.647    21873386.332
 -11446984.01048  -8919727.74545  22687169.737    22687170.177
 -10356955.11048  -8070356.15344  23380448.365    23380449.400
  -8622061.45648  -6718485.48145  23452387.179    23452387.969
  -1868766.14848  -1456181.57245  23291367.147    23291366.433
   2647558.54748   2063031.01644  23967163.093    23967163.671
 -23269248.08249 -18131872.76047  20650779.744    20650779.175
 02  1  8  0  6  0.0000000  0  8G20G29G22G11G 1G14G30G25
 -21292042.29249 -16591197.59346  21318974.811    21318974.439
 -10051430.15149  -7832281.70846  21884665.505    21884665.196
 -11553970.54348  -9003093.86945  22666811.374    22666813.661
 -10283261.16648  -8012932.28944  23394471.919    23394472.570
  -8700738.58248  -6779792.29645  23437414.678    23437417.189
  -1790320.21448  -1395054.88645  23306295.494    23306295.554
   2714903.58648   2115507.65344  23979978.311    23979979.818
 -23239837.41049 -18108955.36047  20656376.591    20656376.075
 02  1  8  0  6 30.0000000  0  8G20G29G22G11G 1G14G30G25
 -21353327.29149 -16638952.13146  21307312.809    21307312.409
  -9991968.27249  -7785947.79046  21895980.760    21895980.492
 -11660743.01948  -9086293.19945  22646493.027    22646493.074
 -10209298.18948  -7955298.83344  23408547.090    23408547.637
  -8779337.62748  -6841038.27145  23422458.080    23422459.483
  -1711754.03648  -1333834.51045  23321246.318    23321245.758
   2782713.93848   2168346.87444  23992883.521    23992882.551
 -23210041.20549 -18085737.54147  20662046.568    20662046.053
 02  1  8  0  7  0.0000000  0  8G20G29G22G11G 1G14G30G25
 -21414192.13349 -16686379.28046  21295729.981    21295729.574
  -9932325.90249  -7739473.23446  21907330.259    21907330.172
 -11767309.48748  -9169331.99845  22626213.214    22626215.023
 -10135080.63848  -7897467.01344  23422669.795    23422667.376
  -8857869.64548  -6902232.02445  23407514.266    23407514.241
  -1633079.38448  -1272529.61045  23336216.811    23336216.527
   2850976.02348   2221538.10344  24005872.456    24005874.771
 -23179871.96049 -18062229.04447  20667787.425    20667786.967
 02  1  8  0  7 30.0000000  0  8G20G29G22G11G 1G14G30G25
 -21474620.40749 -16733466.24746  21284231.219    21284230.699
  -9872489.16549  -7692847.21046  21918716.687    21918716.599
 -11873652.59048  -9252196.75445  22605977.733    22605978.832
 -10060597.35448  -7839428.10244  23436842.980    23436843.013
  -8936320.12148  -6963362.23745  23392585.607    23392587.179
  -1554282.62148  -1211129.56445  23351212.067    23351211.352
   2919701.63448   2275090.50644  24018950.540    24018949.547
 -23149317.24349 -18038420.17947  20673601.931    20673601.466
 02  1  8  0  8  0.0000000  0  8G20G29G22G11G 1G14G30G25
 -21534611.69749 -16780212.70547  21272815.514    21272815.212
  -9812459.93849  -7646071.20146  21930139.796    21930139.508
 -11979770.72748  -9334886.22245  22585783.631    22585784.899
  -9985853.05948  -7781185.82944  23451066.630    23451064.855
  -9014690.32448  -7024429.88645  23377672.284    23377673.839
  -1475365.83248  -1149635.97745  23366229.532    23366227.778
   2988886.71448   2329000.96644  24032116.215    24032114.727
 -23118380.34149 -18014313.50647  20679488.989    20679488.468
 02  1  8  0  8 30.0000000  0  8G20G29G22G11G 1G14G30G25
 -21594174.91549 -16826625.60047  21261481.033    21261480.590
  -9752249.92649  -7599154.32546  21941597.603    21941597.716
 -12085672.14648  -9417406.78945  22565631.647    22565632.240
  -9910862.09648  -7722751.34944  23465337.278    23465338.987
  -9092991.32248  -7085443.64145  23362771.748    23362773.558
  -1396340.78448  -1088058.05245  23381267.160    23381266.748
   3058517.72448   2383258.87644  24045365.427    24045366.583
 -23087074.31049 -17989919.19847  20685446.193    20685445.721
 02  1  8  0  9  0.0000000  0  8G20G29G22G11G 1G14G30G25
 -21653305.37849 -16872701.27847  21250228.617    21250228.039
  -9691856.65749  -7552094.65046  21953090.194    21953090.569
 -12191350.87148  -9499753.84745  22545522.190    22545521.830
  -9835624.82348  -7664124.90744  23479654.269    23479653.073
  -9171219.99748  -7146401.00745  23347884.794    23347885.286
  -1317205.28748  -1026394.04945  23396326.034    23396325.610
   3128595.02348   2437864.55344  24058702.668    24058701.232
 -23055397.95749 -17965236.32747  20691473.924    20691473.659
 02  1  8  0  9 30.0000000  0  8G20G29G22G11G 1G14G30G25
 -21711995.00449 -16918433.45547  21239060.285    21239059.900
  -9631274.59449  -7504887.85546  21964618.161    21964618.664
 -12296797.97048  -9581920.41445  22525456.017    22525456.673
  -9760138.22948  -7605304.23144  23494019.058    23494021.371
  -9249370.16548  -7207297.20845  23333013.887    23333014.966
  -1237954.05248   -964639.87445  23411407.331    23411406.447
   3199122.11148   2492820.73244  24072122.355    24072123.995
 -23023346.43449 -17940261.11847  20697573.176    20697572.882
 02  1  8  0 10  0.0000000  0  8G20G29G22G11G 1G14G30G25
 -21770241.07049 -16963819.99547  21227976.529    21227976.123
  -9570503.31549  -7457533.61946  21976182.647    21976182.754
 -12402009.54348  -9663903.44145  22505434.798    22505436.437
  -9684404.95948  -7546291.35144  23508430.748    23508429.838
  -9327441.12148  -7268131.70245  23318157.473    23318156.481
  -1158586.90248   -902795.35945  23426510.323    23426510.367
   3270097.15448   2548125.93144  24085629.303    24085628.885
 -22990921.38549 -17914994.84747  20703743.398    20703743.054
 02  1  8  0 10 30.0000000  0  8G20G29G22G11G 1G14G30G25
 -21828040.91149 -17008858.82747  21216977.702    21216977.271
  -9509542.70349  -7410031.85746  21987783.264    21987782.935
 -12506981.76348  -9745699.97845  22485459.088    22485459.993
  -9608427.14548  -7487087.83244  23522887.801    23522886.207
  -9405431.83248  -7328903.65045  23303315.897    23303317.133
  -1079103.63348   -840860.37745  23441635.538    23441636.003
   3341518.36548   2603778.83444  24099219.843    24099218.606
 -22958123.75649 -17889438.25547  20709984.561    20709984.330
 02  1  8  0 11  0.0000000  0  8G20G29G22G11G 1G14G30G25
 -21885394.72049 -17053550.10147  21206063.523    21206063.185
  -9448395.34249  -7362384.57446  21999418.825    21999419.228
 -12611713.95048  -9827309.47945  22465528.760    22465530.873
  -9532210.33848                  23537392.212
  -9483344.13648  -7389614.50045  23288489.937    23288492.120
   -999506.98448   -778837.04345  23456781.776    23456781.728
   3413381.12048   2659775.74144  24112894.698    24112896.543
 -22924957.11149 -17863594.11947  20716296.131    20716295.815
 02  1  8  0 11 30.0000000  0  8G20G29G22G11G 1G14G30G25
 -21942291.98049 -17097885.62447  21195236.370    21195236.055
  -9387052.90049  -7314585.28746  22011092.065    22011092.200
 -12716194.42148  -9908722.82245  22445647.166    22445648.530
  -9455749.24948                  23551941.678
  -9561169.25948  -7450257.43745  23273680.343    23273681.361
   -919789.12448   -716719.25045  23471952.735    23471951.917
   3485691.25148   2716121.28244  24126654.993    24126654.305
 -22891414.93149 -17837457.35547  20722678.883    20722678.671
 02  1  8  0 12  0.0000000  0  8G20G29G22G11G 1G14G30G25
 -21998724.41849 -17141858.94747  21184497.749    21184497.463
  -9325509.47949  -7266629.38246  22022803.545    22022803.501
 -12820413.73349  -9989932.67145  22425815.086    22425815.923
  -9379040.45248  -7308345.00944  23566539.778    23566538.562
  -9638900.70948  -7510827.37545  23258888.590    23258889.530
   -839944.14748   -654502.40845  23487145.624    23487144.546
   3558452.69048   2772818.54744  24140500.097    24140503.500
 -22857492.67449 -17811024.42547  20729133.533    20729133.237
 02  1  8  0 12 30.0000000  0  8G20G29G22G11G 1G14G30G25
 -22054704.81149 -17185480.02847  21173844.747    21173844.447
  -9263780.63549  -7218528.99346  22034549.761    22034550.109
 -12924383.74848 -10070948.25245  22406029.872    22406031.081
  -9302102.34948                  23581178.848
  -9716553.22548  -7571335.80445  23244111.233    23244112.273
   -759987.72648   -592198.72145  23502361.564    23502361.630
   3631647.74348   2829853.61144  24154429.481    24154429.926
 -22823206.90249 -17784308.23847  20735658.143    20735657.872
 02  1  8  0 13  0.0000000  0  8G20G29G22G11G 1G14G30G25
 -22110225.73149 -17228743.07847  21163279.546    21163279.109
  -9201861.02149  -7170279.95646  22046333.064    22046333.475
 -13028095.90149 -10151762.92145  22386294.498    22386295.096
  -9224932.14948                  23595864.960
  -9794121.22448  -7631778.36845  23229350.680    23229353.005
   -679914.85248   -529804.32845  23517598.765    23517598.228
   3705279.63948   2887229.13544  24168440.756    24168440.246
 -22788553.82549 -17757305.83947  20742252.677    20742252.256
 02  1  8  0 13 30.0000000  0  8G20G29G22G11G 1G14G30G25
 -22165287.37849 -17271648.25347  21152801.670    21152801.284
  -9139753.48549  -7121884.48246  22058151.951    22058152.133
 -13131549.28749 -10232375.93545  22366607.708    22366608.420
  -9147535.50248                  23610591.688
  -9871606.42748  -7692156.41345  23214606.151    23214606.570
   -599728.41948   -467321.41745  23532857.685    23532857.227
   3779343.56148   2944941.26944  24182535.064    24182538.119
 -22753537.44649 -17730020.34647  20748915.908    20748915.716
 02  1  8  0 14  0.0000000  0  8G20G29G22G11G 1G14G30G25
 -22219890.99149 -17314196.51947  21142410.979    21142410.545
  -9077461.16549  -7073345.03146  22070005.547    22070005.459
 -13234743.70349 -10312787.16645  22346970.561    22346971.014
  -9069918.32048                  23625362.040
  -9949011.68348  -7752472.17845  23199876.561    23199876.352
   -519431.88048   -404752.71645  23548137.911    23548137.690
   3853833.89348   3002985.67344  24196709.471    24196713.338
 -22718162.51249 -17702455.45847  20755647.573    20755647.260
 02  1  8  0 14 30.0000000  0  8G20G29G22G11G 1G14G30G25
 -22274029.21349 -17356382.14147  21132108.945    21132108.578
  -9014979.45749  -7024658.00146  22081895.321    22081895.641
 -13337670.99049 -10392990.24745  22327383.784    22327384.899
  -8992078.73848  -7006816.51344  23640176.168    23640178.047
 -10026331.45848  -7812721.32245  23185162.500    23185164.118
   -439020.56848   -342094.57145  23563439.589    23563439.187
   3928753.36048   3061364.44144  24210965.917    24210971.268
 -22682425.58849 -17674608.50047  20762448.397    20762448.071
 02  1  8  0 15  0.0000000  0  8G20G29G22G11G 1G14G30G25
 -22327698.44249 -17398202.31847  21121895.877    21121895.441
  -8952306.76849  -6975822.14546  22093821.783    22093822.348
 -13440326.24149 -10472981.35045  22307849.445    22307850.597
  -8914018.09448                  23655029.821
 -10103563.83148  -7872902.36245  23170466.497    23170467.948
   -358493.32348   -279346.11945  23578763.707    23578763.417
   4004100.85248   3120076.77344  24225305.949    24225304.738
 -22646326.68249 -17646479.47647  20769317.686    20769317.462
 02  1  8  0 15 30.0000000  0  8G20G29G22G11G 1G14G30G25
 -22380900.70549 -17439658.62147  21111772.162    21111771.855
  -8889448.04149  -6926841.33546  22105783.203    22105783.473
 -13542710.68749 -10552761.42845  22288366.359    22288366.948
  -8835743.66348                  23669925.580
 -10180712.53548  -7933018.21345  23155784.972    23155785.435
   -277854.92448   -216511.02545  23594108.005    23594107.928
   4079869.92148   3179117.61044  24239723.573    24239726.827
 -22609871.30649 -17618072.68147  20776254.767    20776254.677
 02  1  8  0 16  0.0000000  0  8G20G29G22G11G 1G14G30G25
 -22433630.06249 -17480746.43147  21101737.981    21101737.685
  -8826399.08249  -6877712.28746  22117781.279    22117780.939
 -13644816.92049 -10632324.72545  22268935.834    22268937.154
  -8757254.65948                  23684860.293
 -10257773.28948  -7993065.53545  23141120.453    23141122.614
   -197101.62148   -153586.41345  23609474.962    23609474.413
   4156061.86448   3238487.93944  24254223.243    24254222.933
 -22573057.22249 -17589386.37647  20783260.529    20783260.194
 02  1  8  0 16 30.0000000  0  8G20G29G22G11G 1G14G30G25
 -22485889.07849 -17521467.73947  21091793.117    21091792.768
  -8763164.83949  -6828438.86446  22129814.204    22129814.194
 -13746646.33949 -10711672.31545  22249558.694    22249559.708
  -8678558.40248                  23699837.210
 -10334750.25548  -8053047.56345  23126472.947    23126472.843
   -116238.43448    -90576.16045  23624863.438    23624861.332
   4232669.75948   3298182.40844  24268800.476    24268800.261
 -22535890.71449 -17560425.45547  20790332.954    20790332.658
 02  1  8  0 17  0.0000000  0  8G20G29G22G11G 1G14G30G25
 -22537666.72949 -17561813.96047  21081940.220    21081939.831
  -8699736.71249  -6779014.35946  22141884.085    22141884.034
 -13848186.91349 -10790794.84545  22230236.159    22230237.243
  -8599649.07048                  23714853.222
 -10411634.12448  -8112957.06345  23111841.675    23111842.505
    -35256.83348    -27473.64645  23640273.126    23640273.549
   4309700.02848   3358206.01244  24283459.215    24283462.430
 -22498364.57549 -17531184.30247  20797473.963    20797473.816
 02  1  8  0 17 30.0000000  0  8G20G29G22G11G 1G14G30G25
 -22588982.63749 -17601800.38047  21072175.167    21072174.771
  -8636136.53149  -6729455.79446  22153986.892    22153986.548
 -13949457.07449 -10869706.66745  22210964.859    22210966.161
  -8520551.30748                  23729905.251
 -10488446.05148  -8172810.51145  23097225.303    23097227.197
     45821.03148     35703.86745  23655701.886    23655700.397
   4387128.31148   3418539.71044  24298193.833    24298193.458
 -22460501.93149 -17501680.93647  20804679.188    20804678.924
 02  1  8  0 18  0.0000000  0  8G20G29G22G11G 1G14G30G25
 -22639821.51949 -17641415.09047  21062500.944    21062500.443
  -8572351.43649  -6679753.14546  22166125.105    22166125.522
 -14050440.40349 -10948394.95745  22191748.653    22191749.993
  -8441255.09948                  23744993.870
 -10565172.27849  -8232597.16545  23082625.209    23082626.422
    127007.70448     98966.19945  23671151.798    23671148.884
   4464965.61948   3479192.15244  24313004.685    24313005.307
 -22422290.87849 -17471906.08447  20811950.026    20811949.799
 02  1  8  0 18 30.0000000  0  8G20G29G22G11G 1G14G30G25
 -22690170.99449 -17680648.44547  21052919.470    21052919.357
  -8508371.16949  -6629898.41046  22178299.931    22178300.061
 -14151123.03849 -11026848.96046  22172589.364    22172590.568
  -8361753.01948                  23760123.564
 -10641802.08348  -8292308.68745  23068041.863    23068043.295
    208313.45648    162321.30545  23686622.946    23686623.141
   4543219.66048   3540169.34344  24327896.984    24327896.021
 -22383723.04749 -17441853.22247  20819289.323    20819289.171
 02  1  8  0 19  0.0000000  0  8G20G29G22G11G 1G14G30G25
 -22740034.27249 -17719502.94547  21043431.051    21043430.698
  -8444201.46249  -6579896.05646  22190510.939    22190510.425
 -14251507.14649 -11105070.33946  22153487.170    22153488.938
  -8282053.42248  -6453550.19544  23775290.594    23775289.156
 -10718340.13648  -8351948.71645  23053477.612    23053477.686
    289732.52848    225764.69345  23702116.276    23702116.994
   4621882.68848   3601465.19444  24342865.646    24342868.018
 -22344805.20549 -17411527.62747  20826694.843    20826694.877
 02  1  8  0 19 30.0000000  0  8G20G29G22G11G 1G14G30G25
 -22789418.54349 -17757984.19347  21034033.567    21034033.256
  -8379851.30449  -6529753.09146  22202756.792    22202756.876
 -14351598.53849 -11183063.62946  22134440.328    22134441.499
  -8202168.14348                  23790490.541
 -10794795.20949  -8411524.10045  23038928.867    23038929.430
    371255.53448    289289.09145  23717630.650    23717629.706
   4700943.12248   3663070.73344  24357909.691    24357912.985
 -22305548.14249 -17380937.70247  20834165.694    20834165.420
 02  1  8  0 20  0.0000000  0  8G20G29G22G11G 1G14G30G25
 -22838320.67049 -17796089.74747  21024727.422    21024727.246
  -8315320.15349  -6479469.09346  22215036.520    22215036.092
 -14451393.11749 -11260825.63546  22115449.642    22115450.230
  -8122099.31248                  23805729.069
 -10871165.88648  -8471033.69645  23024395.700    23024397.200
    452882.82148    352894.73845  23733163.584    23733163.211
   4780399.41148   3724984.72544  24373030.282    24373030.586
 -22265952.53749 -17350083.98247  20841700.172    20841699.999
 02  1  8  0 20 30.0000000  0  8G20G29G22G11G 1G14G30G25
 -22886730.29249 -17833811.52947  21015515.620    21015515.390
  -8250599.68449  -6429037.58446  22227351.825    22227352.305
 -14550879.16249 -11338347.21546  22096518.152    22096520.086
  -8041841.47548                  23821000.237
 -10947443.21749  -8530470.57345  23009882.069    23009881.634
    534622.57448    416588.02045  23748717.751    23748718.093
   4860257.47748   3787211.76844  24388227.128    24388229.601
 -22226011.40649 -17318961.01747  20849300.597    20849300.380
 02  1  8  0 21  0.0000000  0  8G20G29G22G11G 1G14G30G25
 -22934648.70249 -17871150.54747  21006397.314    21006397.045
  -8185693.47649  -6378461.34446  22239703.887    22239703.631
 -14650056.99249 -11415628.63646  22077645.164    22077645.962
  -7961401.03348                  23836308.468
 -11023629.92548  -8589836.85645  22995382.815    22995383.750
    616471.21448    480366.16045  23764293.774    23764292.778
   4940511.29748   3849747.18144  24403499.708    24403497.784
 -22185729.79949 -17287572.75047  20856966.005    20856965.699
 02  1  8  0 21 30.0000000  0  8G20G29G22G11G 1G14G30G25
 -22982059.21649 -17908093.80247  20997375.368    20997375.047
  -8120587.20149  -6327729.19746  22252093.056    22252093.485
 -14748908.35149 -11492655.66346  22058834.601    22058835.250
  -7880766.33848                  23851651.481
 -11099710.86249  -8649120.67545  22980905.534    22980906.713
    698443.00648    544240.26345  23779891.534    23779891.737
   5021173.14148   3912600.59444  24418847.617    24418849.985
 -22145094.35249 -17255908.76147  20864698.735    20864698.443
 02  1  8  0 22  0.0000000  0  8G20G29G22G11G 1G14G30G25
 -23028981.54749 -17944656.65947  20988446.172    20988446.026
  -8055302.75049  -6276858.20746  22264516.157    22264515.711
 -14847451.91049 -11569442.85846  22040082.477    22040083.331
  -7799961.93548                  23867028.695
 -11175707.26549  -8708338.65045  22966444.637    22966444.387
    780515.68948    608192.96445  23795510.156    23795510.939
   5102218.84248   3975753.07344  24434270.455    24434269.137
 -22104128.88049 -17223987.61447  20872494.251    20872493.956
 02  1  8  0 22 30.0000000  0  8G20G29G22G11G 1G14G30G25
 -23075401.07549 -17980827.72147  20979612.925    20979612.524
  -7989827.27849  -6225838.37546  22276975.628    22276975.547
 -14945671.56249 -11645977.63446  22021392.229    22021392.981
  -7718978.08147                  23882437.503
 -11251605.77448  -8767480.34645  22951999.701    22952001.227
    862701.75248    672234.01945  23811149.952    23811150.030
   5183658.64248   4039212.64144  24449768.449    24449767.381
 -22062821.60049 -17191800.12147  20880354.943    20880354.504
 02  1  8  0 23  0.0000000  0  8G20G29G22G11G 1G14G30G25
 -23121323.82149 -18016611.68047  20970874.137    20970873.859
  -7924169.52749  -6174676.52246  22289470.238    22289470.148
 -15043572.21749 -11722263.85146  22002761.730    22002763.460
  -7637825.78947                  23897882.156
 -11327414.19449  -8826551.80745  22937575.395    22937575.982
    944992.86148    736356.91845  23826808.841    23826809.135
   5265481.70048   4102970.88944  24465338.280    24465339.757
 -22021182.49849 -17159354.06747  20888278.655    20888278.345
 02  1  8  0 23 30.0000000  0  8G20G29G22G11G 1G14G30G25
 -23166744.43849 -18052004.36547  20962230.756    20962230.477
  -7858326.13449  -6123369.99546  22301999.486    22301999.367
 -15141147.28049 -11798296.36346  21984193.953    21984195.051
  -7556504.65647                  23913356.273
 -11403128.38948  -8885549.86945  22923166.768    22923167.529
   1027391.96548    800563.97545  23842489.042    23842490.694
   5347688.92348                  24480982.125
 -21979210.18649 -17126648.37147  20896265.787    20896265.362
 02  1  8  0 24  0.0000000  0  7G29G22G 1G20G14G30G25
  -7792304.40249  -6071924.51546  22314563.013    22314563.171
 -15238400.72949 -11874078.26246  21965687.258    21965688.124
 -11478755.17648  -8944479.79945  22908775.221    22908776.501
 -23211668.37549 -18087010.03047  20953682.171    20953681.810
   1109891.19548    864849.06945  23858188.501    23858187.497
   5430270.49648   4231377.75244  24496696.939    24496696.948
 -21936913.41149 -17093689.84947  20904314.536    20904314.074
 02  1  8  0 24 30.0000000  0  7G20G29G22G 1G14G30G25
 -23256075.15249 -18121612.71647  20945231.668    20945231.237
  -7726086.05249  -6020325.81446  22327164.281    22327164.777
 -15335310.59049 -11949592.43946  21947245.357    21947246.763
 -11554275.20349  -9003326.56945  22894405.876    22894405.573
   1192509.01348    929226.56245  23873909.580    23873910.141
   5513242.38948   4296031.12544  24512485.999    24512486.830
 -21894274.78049 -17060464.94047  20912428.311    20912427.958
 02  1  8  0 25  0.0000000  0  8G20G29G22G11G 1G14G30G25
 -23299985.08149 -18155828.24447  20936875.880    20936875.704
  -7659693.75749  -5968591.57546  22339797.426    22339798.052
 -15431896.41949 -12024854.11746  21928866.482    21928866.765
         -.38357                  23959965.805
 -11629710.39048  -9062107.20045  22880048.759    22880051.865
   1275222.60748    993678.65945  23889649.401    23889649.961
   5596579.68148   4360969.27844  24528344.599    24528344.537
 -21851318.16249 -17026992.25447  20920602.711    20920602.263
 02  1  8  0 25 30.0000000  0  8G20G29G22G11G 1G14G30G25
 -23343380.81249 -18189643.09847  20928618.057    20928617.780
  -7593112.21749  -5916709.87946  22352468.143    22352468.687
 -15528139.19549 -12099848.47646  21910551.204    21910552.437
     81963.24747                  23975562.734
 -11705044.85248  -9120809.35545  22865714.298    22865714.433
   1358046.96148   1058217.08045  23905410.697    23905409.263
   5680295.27048   4426202.15644  24544274.403    24544276.703
 -21808030.26149 -16993261.42447  20928840.202    20928839.917
 02  1  8  0 26  0.0000000  0  8G20G29G22G11G 1G14G30G25
 -23386274.23649 -18223066.54347  20920455.564    20920455.618
  -7526355.26749  -5864691.49246  22365172.363    22365172.252
 -15624049.59449 -12174583.84646  21892301.004    21892301.941
    164071.37547                  23991187.792
 -11780291.46349  -9179443.06145  22851396.233    22851395.869
   1440968.27148   1122831.06445  23921190.220    23921188.027
   5764372.93248   4491717.24544  24560274.387    24560272.112
 -21764425.92349 -16959284.02047  20937137.995    20937137.630
 02  1  8  0 26 30.0000000  0  8G20G29G22G11G 1G14G30G25
 -23428657.53049 -18256092.48747  20912390.575    20912390.171
  -7459417.27849  -5812532.04246  22377908.817    22377909.291
 -15719618.54749 -12249053.15846  21874114.130    21874115.973
    246327.04347                  24006841.064
 -11855443.93948  -9238003.39945  22837093.012    22837094.562
   1523991.92948   1187524.78945  23936988.507    23936989.887
   5848815.87548   4557516.92744  24576343.300    24576341.928
 -21720501.16449 -16925056.93847  20945496.347    20945496.024
 02  1  8  0 27  0.0000000  0  8G20G29G22G11G 1G14G30G25
 -23470528.74749 -18288719.40947  20904422.645    20904422.334
  -7392298.32549  -5760231.57946  22390681.589    22390682.015
 -15814842.61549 -12323253.71646  21855994.201    21855995.729
    328727.34248                  24022521.288
 -11930501.36949  -9296489.68446  22822811.680    22822812.369
   1607117.73048   1252298.08845  23952807.874    23952808.318
   5933621.68448   4623599.32744  24592480.752    24592481.250
 -21676257.42049 -16890581.29747  20953915.457    20953915.201
 02  1  8  0 27 30.0000000  0  8G20G29G22G11G 1G14G30G25
 -23511882.94249 -18320943.45547  20896553.174    20896552.789
  -7324995.29249  -5707787.68346  22403489.377    22403489.667
 -15909715.26049 -12397180.44446  21837939.955    21837940.850
    411272.45648                  24038229.149
 -12005460.37649  -9354899.28445  22808547.428    22808547.714
   1690348.28548   1317153.05245  23968646.128    23968645.371
   6018790.86748   4689964.90544  24608689.041    24608688.716
 -21631693.24749 -16855855.97247  20962395.864    20962395.686
 02  1  8  0 28  0.0000000  0  8G20G29G22G11G 1G14G30G25
 -23552714.11349 -18352759.95347  20888783.155    20888782.802
  -7257504.67549  -5655197.60546  22416331.918    22416333.135
 -16004229.31349 -12470827.74446  21819954.927    21819955.737
    493963.51148                  24053964.677
 -12080316.25448  -9413228.51346  22794301.318    22794302.535
   1773687.53248   1382092.66545  23984504.132    23984502.896
   6104324.85248   4756614.79244  24624964.738    24624966.884
 -21586806.06849 -16820878.95447  20970937.606    20970937.383
 02  1  8  0 28 30.0000000  0  8G20G29G22G11G 1G14G30G25
 -23593026.12249 -18384171.90447  20881111.848    20881111.508
  -7189832.26349  -5602465.86746  22429209.614    22429209.584
 -16098387.50949 -12544197.75646  21802037.137    21802038.702
    576791.95348                  24069727.725
 -12155074.11349  -9471481.37345  22780077.157    22780077.421
   1857129.34748   1447112.23245  24000383.127    24000382.684
   6190215.38948   4823542.40644  24641309.312    24641308.800
 -21541603.19849 -16785655.94247  20979539.409    20979539.068
 02  1  8  0 29  0.0000000  0  8G20G29G22G11G 1G14G30G25
 -23632811.82149 -18415173.74547  20873541.184    20873540.827
  -7121972.63749  -5549588.26646  22442122.887    22442124.133
 -16192180.93249 -12617283.52646  21784188.809    21784189.691
    659760.13148                  24085515.692
 -12229727.79348  -9529653.04746  22765869.596    22765871.407
   1940678.79648   1512215.65945  24016282.289    24016283.080
   6276465.28848   4890750.19044  24657722.350    24657721.733
 -21496080.49249 -16750183.70947  20988201.907    20988201.624
 02  1  8  0 29 30.0000000  0  8G20G29G22G11G 1G14G30G25
 -23672073.48249 -18445767.24647  20866070.007    20866069.569
  -7053930.07549  -5496568.10646  22455071.253    22455070.816
 -16285610.44949 -12690085.74146  21766410.001    21766410.600
    742861.00448                  24101327.811
 -12304280.77548  -9587746.25646  22751681.745    22751682.545
   2024331.48248   1577399.50744  24032200.589    24032200.331
   6363067.86648   4958232.65344  24674201.941    24674203.333
 -21450244.09849 -16714467.04447  20996924.397    20996924.013
 02  1  8  0 30  0.0000000  0  8G20G29G22G11G 1G14G30G25
 -23710808.05249 -18475950.02647  20858698.916    20858698.666
  -6985703.87649  -5443404.84745  22468054.026    22468053.602
 -16378671.87949 -12762601.12446  21748700.459    21748701.545
    826092.78248                  24117167.428
 -12378731.17249  -9645759.52846  22737517.076    22737517.233
   2108088.09148   1642664.37444  24048138.401    24048138.573
   6450021.49848   5025988.73444  24690748.974    24690751.279
 -21404094.30249 -16678506.17047  21005706.414    21005706.066
 02  1  8  0 30 30.0000000  0  8G20G29G22G11G 1G14G30G25
 -23749021.71149 -18505726.90147  20851426.934    20851426.850
  -6917301.94549  -5390104.65945  22481070.413    22481070.771
 -16471370.02749 -12834833.43646  21731061.262    21731061.980
    909444.58148    708657.20244  24133029.830    24133029.088
 -12453086.35348  -9703698.60446  22723365.231    22723367.093
   2191940.37348   1708003.80045  24064095.874    24064095.607
   6537315.70348   5094010.14344  24707359.976    24707363.128
 -21357640.77849 -16642308.62347  21014546.217    21014545.805
 02  1  8  0 31  0.0000000  0  8G20G29G22G11G 1G14G30G25
 -23786694.78949 -18535082.54547  20844258.095    20844257.653
  -6848706.72149  -5336653.85445  22494124.121    22494124.071
 -16563683.78149 -12906766.21946  21713493.942    21713495.391
    992931.61648                  24148914.841
 -12527327.86849  -9761549.10946  22709238.479    22709239.787
   2275905.94648   1773431.44444  24080073.822    24080074.160
   6624965.98648   5162309.08144  24724040.097    24724037.633
 -21310866.73449 -16605861.32147  21023447.317    21023446.855
 02  1  8  0 31 30.0000000  0  8G20G29G22G11G 1G14G30G25
 -23823829.12449 -18564018.39247  20837191.707    20837191.343
  -6779921.74149  -5283055.19945  22507213.261    22507213.418
 -16655613.42749 -12978399.69746  21696000.885    21696001.722
   1076547.11248                  24164827.914
 -12601458.45449  -9819313.18146  22695132.897    22695133.200
   2359980.93248   1838944.38545  24096072.255    24096071.666
   6712966.02948                  24740785.004
 -21263777.42049 -16569168.35347  21032408.132    21032407.635
 02  1  8  0 32  0.0000000  0  8G20G29G22G11G 1G14G30G25
 -23860428.04649 -18592537.03047  20830227.079    20830226.692
  -6710952.58949  -5229313.01245  22520337.346    22520337.672
 -16747161.00349 -13049735.45646  21678579.587    21678580.259
   1160282.91748                  24180760.936
 -12675482.82749  -9876994.49146  22681044.854    22681046.225
   2444159.97548   1904538.40345  24112091.713    24112090.544
   6801307.97348   5299718.41244  24757596.132    24757596.869
 -21216379.52349 -16532234.93147  21041427.573    21041427.153
 02  1  8  0 32 30.0000000  0  8G20G29G22G11G 1G14G30G25
 -23896499.64249 -18620644.76947  20823362.791    20823362.356
  -6641809.08849  -5175434.99645  22533495.517    22533494.994
 -16838333.02449 -13120778.58046  21661230.365    21661231.036
   1244126.58248                  24196717.582
 -12749410.05349  -9934600.09646  22666978.260    22666978.594
   2528432.73748   1970205.44744  24128128.263    24128125.174
   6889979.55448   5368813.17644  24774470.204    24774468.463
 -21168684.36749 -16495069.87947  21050503.709    21050503.160
 02  1  8  0 33  0.0000000  0  7G20G29G22G 1G14G30G25
 -23932040.64049 -18648339.05247  20816599.469    20816599.220
  -6572489.96549  -5121420.10145  22546686.450    22546686.007
 -16929124.91349 -13191525.48346  21643952.798    21643953.816
 -12823237.97649  -9992128.33746  22652928.860    22652929.953
   2612800.44748   2035946.49244  24144182.505    24144181.207
   6978979.41448                  24791405.366
 -21120692.53349 -16457673.65047  21059636.096    21059635.624
 02  1  8  0 33 30.0000000  0  8G20G29G22G 4G 1G14G30G25
 -23967043.42149 -18675613.94547  20809938.823    20809938.414
  -6502989.31449  -5067263.77245  22559911.384    22559911.637
 -17019527.47949 -13261969.03946  21626750.351    21626750.962
         -.30858                  25326142.959
 -12896959.75749 -10049573.86146  22638899.662    22638900.774
   2697268.76048   2101765.90644  24160256.937    24160256.493
   7068311.28348                  24808405.236
 -21072399.15949 -16420042.45347  21068826.019    21068825.443
 02  1  8  0 34  0.0000000  0  8G20G29G22G 4G 1G14G30G25
 -24001507.48449 -18702469.05847  20803380.605    20803380.176
  -6433308.48049  -5012967.04045  22573171.814    22573171.614
 -17109538.34749 -13332107.37446  21609621.035    21609622.157
    -53303.62548                  25315999.603
 -12970575.72549 -10106936.93246  22624891.677    22624892.102
   2781836.35448   2167662.67144  24176348.767    24176348.245
   7157971.08748   5577637.72644  24825468.104    24825467.718
 -21023806.94149 -16382178.39247  21078072.798    21078072.219
 02  1  8  0 34 30.0000000  0  8G20G29G22G 4G 1G14G30G25
 -24035434.03649 -18728905.33347  20796924.591    20796924.346
  -6363450.74349  -4958532.46445  22586464.916    22586465.176
 -17199158.00949 -13401940.85846  21592567.561    21592568.391
   -106156.03648                  25305942.680
 -13044088.47349 -10164219.58046  22610902.235    22610902.308
   2866499.79048   2233634.13744  24192460.140    24192461.576
   7247953.29048   5647753.73944  24842589.894    24842592.787
 -20974920.73349 -16344085.24947  21087375.556    21087374.974
 02  1  8  0 35  0.0000000  0  8G20G29G22G 4G 1G14G30G25
 -24068822.12249 -18754922.02147  20790570.873    20790570.743
  -6293416.90549  -4903960.65845  22599792.014    22599792.612
 -17288383.38049 -13471467.11346  21575587.976    21575588.994
   -158556.47048                  25295971.766
 -13117497.88249 -10221421.69346  22596932.071    22596932.921
   2951258.11048   2299679.52644  24208589.287    24208589.890
   7338254.67748   5718118.37444  24859774.379    24859776.739
 -20925742.59149 -16305764.62747  21096733.810    21096733.381
 02  1  8  0 35 30.0000000  0  8G20G29G22G 4G 1G14G30G25
 -24101660.14349 -18780510.08947  20784322.216    20784321.863
  -6223197.25549  -4849244.07345  22613154.788    22613155.382
 -17377201.63849 -13540676.14146  21558686.922    21558687.913
   -210493.48648                  25286087.532
 -13190793.25449 -10278534.95446  22582985.639    22582985.802
   3036120.97148   2365806.39344  24224737.827    24224738.036
   7428882.38348   5788737.46344  24877019.806    24877020.565
 -20876264.14349 -16267209.99847  21106149.383    21106148.902
 02  1  8  0 36  0.0000000  0  8G20G29G22G 4G 1G14G30G25
 -24133935.72749 -18805659.89447  20778180.649    20778180.356
  -6152781.09648  -4794374.36845  22626553.981    22626553.852
 -17465598.92149 -13609557.12946  21541865.201    21541866.177
   -261954.73748                  25276295.053
 -13263963.10649 -10335550.40146  22569061.201    22569061.822
   3121098.77648   2432022.80944  24240909.029    24240907.776
   7519844.62748   5859617.15544  24894328.816    24894329.465
 -20826476.40149 -16228414.35947  21115623.599    21115623.127
 02  1  8  0 36 30.0000000  0  8G20G29G22G 4G 1G14G30G25
 -24165669.01549 -18830387.13247  20772142.100    20772141.775
  -6082190.49349  -4739368.70645  22639987.415    22639987.311
 -17553593.94149 -13678124.66446  21525120.166    21525121.187
   -312960.25348                  25266589.862
 -13337028.42549 -10392484.39446  22555157.459    22555158.629
   3206169.35148   2498311.54544  24257096.919    24257095.802
   7611116.93748                  24911698.157
 -20776402.57049 -16189395.79747  21125152.059    21125151.734
 02  1  8  0 37  0.0000000  0  8G20G29G22G 4G 1G14G30G25
 -24196865.04349 -18854695.72547  20766205.464    20766204.947
  -6011432.05748  -4684232.31345  22653452.213    22653452.930
 -17641189.86149 -13746381.21846  21508451.496    21508452.361
   -363514.72148                  25256969.631
 -13409994.87749 -10449341.35646  22541272.790    22541273.017
   3291325.92448   2564667.27844  24273301.736    24273302.312
   7702690.29548                  24929123.987
 -20726050.67149 -16150160.55447  21134734.073    21134733.600
 02  1  8  0 37 30.0000000  0  8G20G29G22G 4G 1G14G30G25
 -24227506.82749 -18878572.43847  20760374.338    20760373.993
  -5940490.74748  -4628953.37445  22666951.736    22666952.799
 -17728368.54249 -13814312.64546  21491861.575    21491862.589
   -413601.53348                  25247437.499
 -13482846.67649 -10506108.97446  22527408.967    22527409.757
   3376583.41548   2631101.62244  24289526.270    24289523.093
   7794577.23748                  24946609.753
 -20675407.16649 -16110698.08547  21144371.225    21144370.840
 02  1  8  0 38  0.0000000  0  8G20G29G22G 4G 1G14G30G25
 -24257596.85049 -18902019.21047  20754648.409    20754647.935
  -5869370.70748  -4573535.18045  22680485.758    22680485.488
 -17815130.74349 -13881919.54846  21475351.637    21475352.697
   -463222.94548                  25237995.121
 -13555586.88349 -10562789.63346  22513567.450    22513568.697
   3461937.41848   2697611.17644  24305768.410    24305768.841
   7886771.18548   6145533.86044  24964153.874    24964153.016
 -20624477.56649 -16071012.69047  21154062.521    21154062.168
 02  1  8  0 38 30.0000000  0  8G20G29G22G 4G 1G14G30G25
 -24287130.76949 -18925032.65447  20749028.261    20749027.931
  -5798069.43748  -4517975.76245  22694053.796    22694053.670
 -17901470.75549 -13949197.46146  21458921.428    21458922.497
   -512374.88648                  25228642.209
 -13628212.24049 -10619380.80546  22499747.533    22499747.500
   3547390.31848   2764197.80544  24322029.521    24322027.784
   7979272.15748   6217612.53244  24981755.958    24981759.155
 -20573260.72049 -16031103.46247  21163808.857    21163808.591
 02  1  8  0 39  0.0000000  0  8G20G29G22G 4G 1G14G30G25
 -24316116.36649 -18947618.83747  20743512.749    20743512.310
  -5726596.26848  -4462282.41045  22707654.680    22707654.943
 -17987394.71449 -14016151.19246  21442571.117    21442571.743
   -561064.66448                  25219376.684
 -13700731.13349 -10675889.00246  22485946.552    22485947.789
   3632932.82248   2830854.24344  24338307.634    24338303.908
   8072068.25248   6289921.27644  24999414.085    24999415.130
 -20521767.13949 -15990978.59547  21173607.767    21173607.445
 02  1  8  0 39 30.0000000  0  8G20G29G22G 4G 1G14G30G25
 -24344542.84549 -18969769.33847  20738103.333    20738102.785
  -5654942.24248  -4406448.13645  22721289.845    22721290.662
 -18072889.89149 -14082770.79546  21426301.548    21426302.782
   -609281.61548                  25210199.918
 -13773133.47049 -10732306.39846  22472169.711    22472170.244
   3718573.71648   2897587.36644  24354604.936    24354602.898
   8165166.20248                  25017130.196
 -20469989.10749 -15950632.07947  21183460.426    21183460.194
 02  1  8  0 40  0.0000000  0  8G20G29G22G 4G 1G14G30G25
 -24372415.87449 -18991488.58447  20732799.063    20732798.745
  -5583114.62248  -4350478.58645  22734958.005    22734958.448
 -18157960.77349 -14149059.78246  21410113.107    21410113.737
   -657031.43748                  25201114.605
 -13845425.62149 -10788637.92446  22458412.891    22458413.246
   3804305.61348   2964391.39144  24370918.810    24370920.858
   8258556.05048   6435236.39844  25034901.929    25034901.616
 -20417935.67249 -15910070.96147  21193365.892    21193365.645
 02  1  8  0 40 30.0000000  0  8G20G29G22G 4G 1G14G30G25
 -24399724.70349 -19012768.19447  20727602.495    20727602.096
  -5511104.42048  -4294366.76445  22748661.029    22748662.227
 -18242595.12249 -14215008.61446  21394007.919    21394008.566
   -704303.23348                  25192119.433
 -13917597.74649 -10844875.93346  22444678.421    22444678.858
   3890137.11848   3031273.03044  24387251.746    24387253.336
   8352244.27048   6508240.20844  25052730.245    25052728.241
 -20365599.03049 -15869289.16747  21203325.429    21203325.285
 02  1  8  0 41  0.0000000  0  8G20G29G22G 4G 1G14G30G25
 -24426472.73849 -19033610.81947  20722512.487    20722512.154
  -5438916.57348  -4238116.50645  22762398.345    22762397.564
 -18326794.59449 -14280618.57946  21377985.195    21377985.766
   -751100.58948                  25183213.629
 -13989653.63449 -10901023.34946  22430966.936    22430967.483
   3976063.45848   3098228.52844  24403603.933    24403602.500
   8446223.75548   6581471.00344  25070613.774    25070614.552
 -20312985.09749 -15828291.29647  21213337.460    21213337.312
 02  1  8  0 41 30.0000000  0  8G20G29G22G 4G 1G14G30G25
 -24452651.29349 -19054009.69747  20717530.639    20717530.307
  -5366544.17248  -4181722.45545  22776170.060    22776170.818
 -18410549.11449 -14345881.83046  21362047.105    21362047.817
   -797414.57948                  25174400.528
 -14061585.50149 -10957074.14446  22417279.311    22417279.434
   4062091.35948   3165263.19544  24419973.981    24419973.471
   8540498.86848   6654932.11344  25088553.784    25088550.559
 -20260088.95349 -15787073.52647  21223403.372    21223403.292
 02  1  8  0 42  0.0000000  0  8G20G29G22G 4G 1G14G30G25
 -24478268.72349 -19073971.33347  20712655.650    20712655.651
  -5293997.15148  -4125192.34545  22789975.470    22789975.771
 -18493865.05349 -14410803.32646  21346192.713    21346193.852
   -843253.44748                  25165677.690
 -14133402.13549 -11013035.14146  22403611.908    22403612.431
   4148210.75648   3232369.15444  24436361.860    24436360.942
   8635057.30248                  25106547.679
 -20206921.26849 -15745644.15747  21233521.022    21233520.821
 02  1  8  0 42 30.0000000  0  8G20G29G22G 4G 1G14G30G25
 -24503319.52649 -19093491.43947  20707888.772    20707888.754
  -5221271.49948  -4068523.02245  22803814.988    22803815.464
 -18576735.25949 -14475377.49746  21330422.995    21330423.960
   -888611.69448   -692424.29344  25157046.230    25157045.154
 -14205098.62049 -11068902.51046  22389969.273    22389969.579
   4234425.59848   3299549.46344  24452768.219    24452769.892
   8729900.35547                  25124595.693
 -20153479.69149 -15704001.37047  21243690.348    21243690.409
 02  1  8  0 43  0.0000000  0  7G29G20G22G 4G 1G14G25
  -5148367.75948  -4011714.95145  22817687.778    22817688.084
 -24527802.72549 -19112569.25847  20703229.787    20703229.709
 -18659157.35049 -14539602.48546  21314738.492    21314739.167
   -933488.09548                  25148505.927
 -14276674.52949 -11124675.93446  22376348.764    22376349.489
   4320734.90748   3366803.42644  24469192.774    24469191.979
 -20099766.41249 -15662146.86547  21253911.994    21253911.631
 02  1  8  0 43 30.0000000  0  7G20G29G22G 4G 1G14G25
 -24551705.68349 -19131194.94247  20698681.306    20698681.209
  -5075274.95548  -3954759.54845  22831596.500    22831598.041
 -18741117.06849 -14603467.19146  21299141.946    21299143.038
   -977870.26048                  25140060.303
 -14348117.84749 -11180346.03246  22362752.805    22362753.407
   4407149.72148   3434139.58844  24485635.981    24485634.934
 -20045771.72149 -15620073.07747  21264186.715    21264186.414
 02  1  8  0 44  0.0000000  0  7G29G20G22G 4G 1G14G25
  -5002005.70848  -3897666.66445  22845540.080    22845541.497
 -24575039.44649 -19149377.09847  20694241.174    20694241.093
 -18822623.40049 -14666978.59946  21283632.204    21283633.102
  -1021768.88248                  25131707.523
 -14419440.16649 -11235921.84946  22349181.207    22349181.817
   4493657.32148   3501548.02344  24502099.271    24502100.443
 -19991509.11049 -15577790.52247  21274512.451    21274512.396
 02  1  8  0 44 30.0000000  0  7G20G29G22G 4G 1G14G25
 -24597812.88349 -19167122.63547  20689907.507    20689907.372
  -4928570.48448  -3840444.44045  22859514.437    22859513.874
 -18903684.03649 -14730142.71846  21268206.616    21268207.545
  -1065193.25048                  25123442.908
 -14490650.93949 -11291410.74946  22335630.041    22335630.515
   4580247.12348   3569020.54644  24518576.281    24518575.567
 -19936990.37649 -15535308.39047  21284887.041    21284886.807
 02  1  8  0 45  0.0000000  0  7G20G29G22G 4G 1G14G25
 -24620016.65249 -19184424.27647  20685682.113    20685682.056
  -4854961.36648  -3783086.71745  22873520.755    22873521.090
 -18984288.08849 -14792951.05746  21252868.367    21252869.197
  -1108133.85248                  25115272.081
 -14561741.27049 -11346805.79346  22322101.589    22322102.580
   4666926.66148   3636562.97144  24535069.877    24535069.970
 -19882209.16249 -15492621.72747  21295311.614    21295311.195
 02  1  8  0 45 30.0000000  0  7G20G29G22G 4G 1G14G25
 -24641649.27249 -19201280.86547  20681565.637    20681565.468
  -4781178.37248  -3725593.51245  22887561.980    22887563.793
 -19064431.80949 -14855400.69346  21237617.443    21237618.199
  -1150588.79148                  25107192.962
 -14632709.90749 -11402106.01446  22308597.747    22308598.140
   4753696.08848   3704175.38844  24551582.407    24551587.861
 -19827166.87649 -15449731.63047  21305785.678    21305785.599
 02  1  8  0 46  0.0000000  0  7G20G29G22G 4G 1G14G25
 -24662703.11149 -19217686.45747  20677559.452    20677559.219
  -4707215.30848  -3667959.98445  22901636.474    22901636.785
 -19144106.45449 -14917484.81946  21222455.658    21222456.577
  -1192550.63748                  25099208.557
 -14703549.74049 -11457305.87746  22295116.847    22295117.620
   4840561.44448   3771862.64644  24568112.257    24568116.395
 -19771858.67849 -15406634.33247  21316310.608    21316310.305
 02  1  8  0 46 30.0000000  0  7G20G29G22G 4G 1G14G25
 -24683173.22949 -19233637.20147  20673664.342    20673664.216
  -4633068.53448  -3610183.31445  22915746.544    22915747.240
 -19223304.98349 -14979197.94346  21207384.898    21207385.655
  -1234014.22948                  25091317.191
 -14774256.00549 -11512401.64946  22281661.654    22281662.035
   4927525.91248                  24584660.954
 -19716282.23849 -15363328.01647  21326886.605    21326886.412
 02  1  8  0 47  0.0000000  0  7G29G20G22G 4G 1G14G25
  -4558736.12148  -3552261.97245  22929891.447    22929892.081
 -24703055.82849 -19249130.13747  20669880.400    20669880.397
 -19302022.07149 -15040535.92546  21192405.342    21192406.262
  -1274976.02048                  25083522.580
 -14844825.72149 -11567391.02646  22268233.479    22268233.808
   5014591.69348   3907470.47544  24601229.638    24601230.121
 -19660436.71649 -15319812.02647  21337513.495    21337513.335
 02  1  8  0 47 30.0000000  0  7G29G20G22G 4G 1G14G25
  -4484240.78648  -3494213.71545  22944066.890    22944067.254
 -24722372.52749 -19264182.11247  20666204.254    20666204.173
 -19380277.65149 -15101514.28046  21177514.174    21177515.053
  -1315457.20248                  25075819.185
 -14915280.69549 -11622290.98346  22254825.966    22254826.595
   5101735.82948   3975374.86144  24617811.845    24617811.057
 -19604345.91649 -15276104.90947  21348187.453    21348187.070
 02  1  8  0 48  0.0000000  0  7G20G29G22G 4G 1G14G25
 -24741123.46449 -19278793.23647  20662636.264    20662635.928
  -4409584.16548  -3436039.74645  22958273.960    22958274.401
 -19458070.45549 -15162132.03346  21162709.955    21162711.001
  -1355458.22548                  25068207.687
 -14985621.43149 -11677101.93146  22241440.220    22241440.690
   5188956.51048   4043338.95444  24634410.024    24634410.780
 -19548013.15749 -15232209.25147  21358907.030    21358906.950
 02  1  8  0 48 30.0000000  0  7G29G20G22G 4G 1G14G25
  -4334757.11248  -3377732.98945  22972513.169    22972513.616
 -24759297.92549 -19292955.15247  20659178.030    20659177.816
 -19535388.14949 -15222379.57346  21147997.510    21147998.273
  -1394968.15148                  25060689.263
 -15055837.45349 -11731815.70646  22228079.392    22228079.733
   5276263.17848   4111370.01244  24651024.691    24651024.626
 -19491430.55749 -15188118.91347  21369674.064    21369674.357
 02  1  8  0 49  0.0000000  0  7G20G29G22G 4G 1G14G25
 -24776889.86349 -19306663.16147  20655830.131    20655829.871
  -4259754.62448  -3319289.53245  22986785.482    22986786.597
 -19612222.45249 -15282250.44246  21133375.804    21133377.052
  -1433980.54948                  25053265.909
 -15125922.79149 -11786427.64546  22214741.723    22214742.834
   5363660.28548   4179471.60244  24667655.354    24667655.765
 -19434594.28449 -15143830.90947  21380490.022    21380489.843
 02  1  8  0 49 30.0000000  0  7G20G29G22G 4G 1G14G25
 -24793904.31849 -19319921.17947  20652592.111    20652592.013
  -4184583.13548  -3260714.36445  23001090.633    23001090.721
 -19688577.10549 -15341747.56046  21118846.651    21118847.519
  -1472500.90848                  25045934.548
 -15195882.82849 -11840941.93946  22201428.732    22201429.119
   5451141.32648   4247638.57544  24684302.655    24684304.515
 -19377512.23049 -15099351.39047  21391352.243    21391352.065
 02  1  8  0 50  0.0000000  0  7G20G29G22G 4G 1G14G25
 -24810325.11149 -19332716.60447  20649467.349    20649467.233
  -4109227.87648  -3201996.02745  23015430.474    23015431.066
 -19764434.13749 -15400856.92246  21104411.161    21104411.862
  -1510512.37548                  25038701.825
 -15265701.51049 -11895346.10346  22188143.028    22188143.044
   5538720.97348   4315882.31644  24700968.223    24700969.731
 -19320170.79649 -15054669.75747  21402263.748    21402263.935
 02  1  8  0 50 30.0000000  0  7G20G29G22G 4G 1G14G25
 -24826155.65749 -19345052.09847  20646455.205    20646455.036
  -4033693.57148  -3143138.16345  23029803.300    23029803.902
 -19839794.94549 -15459579.61546  21090070.266    21090071.178
  -1548018.80348  -1206247.94444  25031565.040    25031565.218
 -15335382.57949 -11949643.03146  22174882.645    22174883.640
   5626394.25748   4384199.07244  24717651.811    24717653.808
 -19262575.84349 -15009790.57647  21413223.932    21413223.518
 02  1  8  0 51  0.0000000  0  7G29G20G22G 4G 1G14G25
  -3957992.29148  -3084150.19445  23044209.456    23044209.218
 -24841406.57649 -19356935.93447  20643553.036    20643552.706
 -19914668.77249 -15517922.84146  21075822.929    21075823.402
  -1585030.40648                  25024521.356
 -15404936.68949 -12003841.01946  22161647.157    22161647.579
   5714149.21048   4452579.41444  24734351.400    24734353.402
 -19204740.83549 -14964724.33647  21424229.650    21424229.342
 02  1  8  0 51 30.0000000  0  8G29G20G22G 4G 1G14G13G25
  -3882117.05648  -3025026.65645  23058648.350    23058649.101
 -24856069.97949 -19368361.96347  20640762.923    20640762.692
 -19989045.75049 -15575878.91946  21061669.121    21061669.623
  -1621539.36048                  25017574.567
 -15474356.06349 -12057934.03146  22148437.931    22148437.599
   5801992.31348   4521028.49644  24751067.230    24751066.250
         -.05358                  25021178.377
 -19146659.95649 -14919466.51047  21435281.924    21435281.694
 02  1  8  0 52  0.0000000  0  8G29G20G22G 4G 1G14G13G25
  -3806075.23448  -2965773.32145  23073118.263    23073119.875
 -24870151.65349 -19379334.69847  20638083.143    20638082.952
 -20062930.09149 -15633451.11646  21047609.349    21047610.107
  -1657551.34048                  25010721.826
 -15543646.83349 -12111926.82946  22135251.029    22135251.373
   5889916.60148   4589540.80544  24767799.205    24767795.492
    -91881.49048                  25003693.239
 -19088341.87649 -14874023.85247  21446379.674    21446379.215
 02  1  8  0 52 30.0000000  0  8G29G20G22G 4G 1G14G13G25
  -3729858.77348  -2906383.91645  23087621.782    23087622.343
 -24883642.50049 -19389847.04847  20635516.165    20635515.916
 -20136310.73249 -15690630.81946  21033645.236    21033645.835
  -1693057.17848  -1319264.86044  25003965.419    25003964.907
 -15612799.65849 -12165812.13046  22122092.229    22122092.876
   5977929.66548   4658122.32744  24784547.329    24784547.769
   -183770.29148                  24986206.579
 -19029779.83949 -14828391.09647  21457523.701    21457523.371
 02  1  8  0 53  0.0000000  0  8G29G20G22G 4G 1G14G13G25
  -3653460.42048  -2846852.76645  23102159.593    23102160.578
 -24896534.21549 -19399892.53847  20633062.801    20633062.556
 -20209177.44549 -15747410.06446  21019779.581    21019779.822
  -1728048.31948                  24997307.007
 -15681806.16549 -12219583.42746  22108961.574    22108961.973
