     2.11           OBSERVATION DATA    G (GPS)             RINEX VERSION / TYPE
teqc  2019Feb25     Salamtina Y.M.      20230920 03:20:32UTCPGM / RUN BY / DATE
OBSERVATION MODE: Permanent                                 COMMENT
CHUM Chumysh (CHUM)                                         MARKER NAME
25601M001                                                   MARKER NUMBER
4549261325          TRIMBLE NETRS        1.3-2              REC # / TYPE / VERS
237                 AOAD/M_T        NONE                    ANT # / TYPE
        0.0900        0.0000        0.0000                  ANTENNA: DELTA H/E/N
  1228950.3089  4508080.0063  4327868.5384                  APPROX POSITION XYZ
  74.75110456  42.99850161  716.3305  LonLatAlt  S/W        COMMENT
ANT ADDED FROM RCV_ANT.txt                                  COMMENT
Linux 2.6.32-573.12.1.x86_64|x86_64|gcc|Linux 64|=+         COMMENT
BIT 2 OF LLI FLAGS DATA COLLECTED UNDER A/S CONDITION       COMMENT
Konovalov S.M.      RS_RAS                                  OBSERVER / AGENCY
     1     1                                                WAVELENGTH FACT L1/2
     7    L1    L2    C1    P1    P2    S1    S2            # / TYPES OF OBSERV
    30.0000                                                 INTERVAL
    18                                                      LEAP SECONDS
TIME: 2023.01.04                                            COMMENT
TOUR: cont                                                  COMMENT
RSET: RAS02                                                 COMMENT
ASET: DS24                                                  COMMENT
OPER: skon (Konovalov S.M.)                                 COMMENT
SOUR: chum202301040000d.dat                                 COMMENT
SUPP: chum202301040000d.eph                                 COMMENT
SUPP: chum202301040000d.ion                                 COMMENT
SUPP: chum202301040000d.mes                                 COMMENT
Forced Modulo Decimation to 30 seconds                      COMMENT
 SNR is mapped to RINEX snr flag value [0-9]                COMMENT
  L1 & L2: min(max(int(snr_dBHz/6), 0), 9)                  COMMENT
  2023     1     4     0     0    0.0000000     GPS         TIME OF FIRST OBS
  2023     1     4    23    59   30.0000000     GPS         TIME OF LAST OBS
                                                            END OF HEADER
 23  1  4  0  0  0.0000000  0  9G23G24G22G27G08G10G21G18G32
 -14367749.70947 -13366150.23646  21327475.3364                   21327464.2734
        46.7504         39.7504
 -16577230.96447 -12877727.70747  22297583.4774                   22297574.6994
        43.0004         44.0004
 -14775894.03546  -5356569.56244  22703229.5704                   22703219.2704
        41.0004         27.0004
 -12331920.18547  -9582149.35346  23179587.8594                   23179579.3754
        42.2504         40.7504
  -9866516.90546  -7661692.94946  23370348.5164                   23370340.2074
        39.7504         40.5004
 -27426543.70548 -21996200.28049  20521818.3594                   20521809.5824
        52.2504         55.0004
  -7903643.78646  -5212605.15443  24367715.4774                   24367704.0044
        38.7504         21.5004
 -14568379.67046 -11075971.05944  23247225.6804                   23247214.9694
        41.0004         29.0004
 -25994893.08748 -19868575.85449  20976856.9454                   20976847.6994
        52.2504         55.0004
 23  1  4  0  0 30.0000000  0  9G23G24G22G27G08G10G21G18G32
 -14316453.76047 -13326179.37546  21337236.3984                   21337226.0984
        46.5004         40.2504
 -16538527.24547 -12847568.96347  22304948.8594                   22304940.3164
        43.7504         44.0004
 -14860160.24146  -5422231.54444  22687195.1644                   22687184.3954
        41.5004         26.0004
 -12257512.20847  -9524169.12246  23193747.9384                   23193739.3954
        42.0004         40.7504
  -9844327.89646  -7644402.81546  23374571.0634                   23374562.4614
        39.7504         40.2504
 -27432385.93648 -22000752.66549  20520707.2814                   20520697.8014
        52.5004         55.0004
  -7988348.94446  -5278609.17043  24351597.0474                   24351585.5744
        39.5004         20.7504
 -14463087.22046 -10993924.99544  23267261.8364                   23267251.7114
        40.7504         29.2504
 -26040364.21548 -19904007.89249  20968203.6724                   20968195.0124
        51.7504         54.7504
 23  1  4  0  1  0.0000000  0  9G23G24G22G27G08G10G21G18G32
 -14264905.56547 -13286011.95946  21347045.9694                   21347035.0824
        47.0004         39.7504
 -16499209.22147 -12816931.53947  22312430.7584                   22312422.2154
        43.0004         44.0004
 -14944155.58846  -5487682.45644  22671211.5784                   22671200.5744
        40.7504         24.7504
 -12182761.89547  -9465922.12246  23207972.8364                   23207964.0004
        42.5004         40.7504
  -9821608.05546  -7626699.06346  23378893.3134                   23378885.7664
        39.0004         40.0004
 -27437952.08248 -22005089.91449  20519647.7274                   20519638.6564
        52.0004         54.7504
  -8072888.30646  -5344483.99943  24335510.1884                   24335498.0704
        39.2504         21.2504
 -14357568.86446 -10911702.91944  23287341.5944                   23287331.1764
        41.0004         27.7504
 -26085418.15948 -19939114.84449  20959630.2664                   20959621.3134
        51.5004         55.0004
 23  1  4  0  1 30.0000000  0  9G23G24G22G27G08G10G21G18G32
 -14213109.33347 -13245651.25946  21356902.3674                   21356891.8914
        46.5004         40.0004
 -16459282.21547 -12785819.57347  22320029.1884                   22320020.4104
        44.0004         44.0004
 -15027882.84346  -5552924.46644  22655278.7424                   22655267.3284
        40.7504         26.5004
 -12107676.05647  -9407413.68946  23222259.8364                   23222252.1134
        42.5004         40.2504
  -9798362.99246  -7608586.03046  23383316.9224                   23383309.0824
        39.5004         40.2504
 -27443245.72048 -22009214.83149  20518640.3594                   20518631.2304
        51.7504         54.7504
  -8157264.25146  -5410231.46543  24319454.3674                   24319442.1334
        39.5004         20.7504
 -14251830.48146 -10829309.36645  23307463.3754                   23307452.5474
        41.5004         30.2504
 -26130058.55848 -19973899.55849  20951135.7114                   20951126.5234
        51.7504         54.7504
 23  1  4  0  2  0.0000000  0  9G23G24G22G27G08G10G21G18G32
 -14161065.88347 -13205097.93446  21366806.3984                   21366795.6294
        47.0004         40.0004
 -16418748.25447 -12754234.66247  22327742.5864                   22327733.6334
        43.0004         44.2504
 -15111341.22846  -5617956.95644  22639396.6804                   22639386.3204
        41.2504         26.0004
 -12032258.48547  -9348646.75646  23236613.0784                   23236603.4224
        42.2504         40.0004
  -9774594.65946  -7590065.24346  23387840.2344                   23387832.1024
        39.0004         40.0004
 -27448267.05648 -22013127.54849  20517684.9224                   20517675.6174
        53.2504         54.7504
  -8241475.69346  -5475850.77443  24303428.6724                   24303416.7894
        39.5004         21.5004
 -14145874.75346 -10746746.47444  23327624.8914                   23327614.9414
        40.7504         28.5004
 -26174285.82648 -20008362.34649  20942719.4224                   20942710.1764
        52.0004         55.0004
 23  1  4  0  2 30.0000000  0  9G23G24G22G27G08G10G21G18G32
 -14108774.81447 -13164351.64846  21376756.3364                   21376746.0354
        47.0004         39.5004
 -16377608.02147 -12722177.33747  22335571.0164                   22335561.9454
        43.7504         44.0004
 -15194529.40447  -5682778.90044  22623566.5164                   22623555.5704
        42.0004         26.2504
 -11956511.43846  -9289623.08946  23251025.3284                   23251018.0744
        41.0004         39.2504
  -9750303.71346  -7571137.24346  23392463.0084                   23392454.5824
        40.7504         40.5004
 -27453014.80448 -22016827.09949  20516781.4774                   20516772.0554
        52.7504         55.0004
  -8325519.58746  -5541339.53043  24287435.8054                   24287423.6294
        40.0004         21.5004
 -14039703.07746 -10664015.30544  23347829.4774                   23347818.7074
        41.0004         29.2504
 -26218099.00248 -20042502.47149  20934382.0864                   20934373.0164
        51.5004         54.7504
 23  1  4  0  3  0.0000000  0  9G23G24G22G27G08G10G21G18G32
 -14056236.83347 -13123412.97146  21386754.2424                   21386743.6484
        47.0004         39.5004
 -16335863.57547 -12689649.19547  22343514.6254                   22343505.8484
        43.2504         44.0004
 -15277446.44546  -5747389.57744  22607787.8594                   22607777.2074
        41.5004         27.0004
 -11880438.47246  -9230345.48046  23265502.6094                   23265494.0664
        41.7504         39.2504
  -9725492.29746  -7551803.68746  23397184.0634                   23397176.1054
        41.0004         40.7504
 -27457488.89448 -22020313.39849  20515929.8984                   20515920.7114
        53.0004         54.7504
  -8409394.80746  -5606696.85143  24271475.4144                   24271462.9454
        40.7504         22.0004
 -13933317.98546 -10581117.81844  23368072.8984                   23368063.7704
        39.7504         29.0004
 -26261498.29848 -20076320.09549  20926123.2734                   20926114.0274
        52.0004         54.7504
 23  1  4  0  3 30.0000000  0  9G23G24G22G27G08G10G21G18G32
 -14003451.68647 -13082281.69446  21396799.1804                   21396788.1174
        46.0004         39.5004
 -16293515.79247 -12656650.92347  22351572.7664                   22351564.6334
        42.2504         44.2504
 -15360090.82946  -5811787.78144  22592061.2584                   22592050.6054
        41.0004         26.5004
 -11804042.09047  -9170815.82246  23280040.7584                   23280031.8634
        42.0004         39.7504
  -9700161.11946  -7532065.12646  23402006.0474                   23401996.5084
        41.2504         40.0004
 -27461688.50648 -22023585.81749  20515130.8204                   20515121.5164
        52.2504         55.0004
  -8493099.14746  -5671921.00343  24255546.5554                   24255534.9064
        40.5004         21.2504
 -13826720.89546 -10498055.18544  23388358.5944                   23388348.4104
        40.2504         29.7504
 -26304483.06148 -20109814.69549  20917943.5164                   20917934.6804
        51.5004         54.7504
 23  1  4  0  4  0.0000000  0  9G23G24G22G27G08G10G21G18G32
 -13950420.15747 -13040958.43746  21406890.7034                   21406879.6414
        46.7504         39.2504
 -16250566.74847 -12623184.13147  22359746.5944                   22359737.2894
        43.2504         44.0004
 -15442462.24446  -5875973.28044  22576386.2194                   22576375.8014
        41.0004         26.5004
 -11727325.93546  -9111037.03146  23294638.3754                   23294630.3594
        40.5004         39.0004
  -9674312.28446  -7511923.18146  23406924.4614                   23406915.2734
        41.2504         40.2504
 -27465613.76648 -22026644.45849  20514383.7274                   20514374.8324
        52.2504         55.0004
  -8576630.92046  -5737010.69343  24239651.8524                   24239639.2664
        40.5004         23.0004
 -13719914.51646 -10414829.43944  23408683.6484                   23408673.1724
        40.5004         28.0004
 -26347053.53148 -20142986.48949  20909843.1644                   20909833.9184
        52.5004         55.0004
 23  1  4  0  4 30.0000000  0  9G23G24G22G27G08G10G21G18G32
 -13897141.59247 -12999442.67746  21417029.3364                   21417018.0394
        46.7504         39.5004
 -16207017.05147 -12589249.30247  22368033.2274                   22368024.1564
        42.5004         43.7504
 -15524558.28447  -5939944.20744  22560763.9384                   22560753.4614
        42.0004         26.5004
 -11650292.11247  -9051010.67646  23309298.3204                   23309289.4844
        42.0004         39.5004
  -9647946.91446  -7491378.73846  23411941.0234                   23411932.5984
        41.2504         39.7504
 -27469263.35848 -22029488.29249  20513689.3134                   20513680.1844
        52.7504         54.7504
  -8659987.58746  -5801963.93243  24223788.6724                   24223776.6134
        40.0004         22.5004
 -13612899.86846 -10331441.39344  23429046.6094                   23429036.7774
        39.5004         27.7504
 -26389208.68048 -20175834.63749  20901820.4144                   20901811.8714
        51.7504         55.0004
 23  1  4  0  5  0.0000000  0  9G23G24G22G27G08G10G21G18G32
 -13843616.62247 -12957734.91646  21427215.1254                   21427203.9454
        46.5004         39.5004
 -16162868.63347 -12554847.93247  22376434.1724                   22376425.8054
        42.2504         43.5004
 -15606378.58747  -6003700.24244  22545193.9694                   22545183.3754
        42.0004         26.0004
 -11572944.13346  -8990739.52946  23324016.0944                   23324008.1374
        40.5004         38.7504
  -9621066.66646  -7470433.10246  23417056.0634                   23417047.8134
        40.7504         39.7504
 -27472637.09248 -22032117.17649  20513047.1414                   20513038.4224
        52.0004         55.0004
  -8743167.30346  -5866779.29043  24207960.5784                   24207948.1684
        40.2504         22.5004
 -13505679.52946 -10247893.09644  23449451.8984                   23449440.7774
        40.0004         27.5004
 -26430948.66748 -20208359.29149  20893877.7974                   20893869.0204
        51.5004         54.7504
 23  1  4  0  5 30.0000000  0  9G23G24G22G27G08G10G21G18G32
 -13789845.33247 -12915835.22246  21437447.4224                   21437436.3594
        46.0004         39.5004
 -16118122.94647 -12519981.15747  22384948.6174                   22384940.1914
        42.2504         44.0004
 -15687921.78846  -6067240.37644  22529677.1174                   22529666.3484
        41.7504         26.5004
 -11495284.84646  -8930225.83346  23338795.2424                   23338786.6994
        40.2504         39.0004
  -9593672.60246  -7449087.09246  23422268.2194                   23422260.4964
        40.0004         40.0004
 -27475734.40448 -22034530.66549  20512457.8364                   20512448.8244
        52.0004         54.7504
  -8826168.15546  -5931455.25443  24192166.1724                   24192154.3484
        41.0004         22.5004
 -13398255.36746 -10164185.94844  23469892.2344                   23469882.5204
        38.2504         28.2504
 -26472273.22148 -20240560.23449  20886014.1334                   20886005.2974
        52.5004         55.0004
 23  1  4  0  6  0.0000000  0  9G23G24G22G27G08G10G21G18G32
 -13735828.09047 -12873743.86946  21447726.2114                   21447715.6764
        46.5004         39.2504
 -16072781.69747 -12484650.32447  22393577.2734                   22393568.6134
        42.0004         43.5004
 -15769187.08446  -6130563.94044  22514212.2034                   22514201.8444
        41.2504         27.2504
 -11417317.54446  -8869472.09046  23353631.0004                   23353623.1024
        40.2504         38.7504
  -9565767.12146  -7427342.57946  23427578.0784                   23427570.8244
        39.5004         40.2504
 -27478554.97148 -22036728.51149  20511921.1644                   20511911.9774
        52.2504         54.7504
  -8908988.41046  -5995990.50043  24176405.7424                   24176393.5084
        40.0004         22.7504
 -13290629.59946 -10080321.73044  23490372.5554                   23490363.1334
        39.0004         28.5004
 -26513182.24748 -20272437.37849  20878229.2584                   20878220.8914
        51.7504         54.7504
 23  1  4  0  6 30.0000000  0  9G23G24G22G27G08G10G21G18G32
 -13681565.85647 -12831461.62346  21458051.9064                   21458041.1374
        47.2504         39.2504
 -16026847.14846 -12448857.17047  22402318.1804                   22402309.6954
        41.5004         43.5004
 -15850174.02547  -6193670.64344  22498801.2034                   22498790.6094
        42.0004         27.7504
 -11339045.84946  -8808481.17846  23368525.8674                   23368517.2074
        39.0004         38.2504
  -9537351.74346  -7405200.74146  23432986.4614                   23432978.1524
        39.5004         39.7504
 -27481099.12548 -22038710.96849  20511436.9224                   20511427.9694
        52.7504         55.0004
  -8991626.75246  -6060384.00343  24160680.2504                   24160668.2504
        39.0004         22.5004
 -13182804.87946  -9996302.45644  23510891.9614                   23510881.6024
        39.0004         26.7504
 -26553676.29148 -20303991.16549  20870523.5314                   20870514.7544
        51.7504         55.0004
 23  1  4  0  7  0.0000000  0  9G23G24G22G27G08G10G21G18G32
 -13627057.74647 -12788987.77746  21468424.4694                   21468413.6994
        46.5004         39.0004
 -15980319.88046 -12412602.15047  22411172.5394                   22411163.3524
        41.5004         43.5004
 -15930880.55146  -6256558.80844  22483443.4924                   22483432.8404
        41.2504         27.5004
 -11260471.85146  -8747254.69446  23383478.2664                   23383470.3094
        40.0004         38.7504
  -9508427.68346  -7382662.52146  23438490.4924                   23438482.4184
        39.5004         39.5004
 -27483365.19548 -22040476.73649  20511005.7894                   20510996.6024
        52.0004         55.2504
  -9074080.39446  -6124633.57043  24144989.9534                   24144977.7774
        40.2504         22.0004
 -13074782.27546  -9912129.00144  23531447.7194                   23531437.5354
        38.0004         28.0004
 -26593754.11448 -20335220.62149  20862896.6484                   20862888.1054
        51.2504         54.7504
 23  1  4  0  7 30.0000000  0  9G23G24G22G27G08G10G21G18G32
 -13572304.96747 -12746323.28546  21478843.6724                   21478833.0204
        46.7504         38.7504
 -15933202.49846 -12375887.29647  22420137.8134                   22420129.6804
        41.0004         43.2504
 -16011306.37347  -6319228.25344  22468139.1804                   22468128.1174
        43.2504         27.5004
 -11181599.57646  -8685795.78546  23398487.2974                   23398478.8714
        40.5004         38.7504
  -9478997.19446  -7359729.69046  23444091.0394                   23444082.9064
        39.7504         39.5004
 -27485353.60948 -22042026.15549  20510627.5234                   20510618.4534
        52.5004         55.0004
  -9156348.30846  -6188738.43543  24129334.8134                   24129322.6374
        40.0004         22.0004
 -12966564.72546  -9827803.66044  23552041.4144                   23552030.5274
        39.0004         28.5004
 -26633416.56648 -20366126.41649  20855349.4384                   20855340.7194
        51.7504         54.7504
 23  1  4  0  8  0.0000000  0  9G23G24G22G27G08G10G21G18G32
 -13517306.84947 -12703467.62746  21489309.0944                   21489298.6174
        45.7504         39.0004
 -15885495.71046 -12338713.20647  22429216.0554                   22429207.9224
        40.7504         43.0004
 -16091449.64247  -6381677.54744  22452887.8054                   22452877.0944
        42.0004         28.2504
 -11102431.10246  -8624106.08246  23413552.4694                   23413543.7504
        39.5004         38.2504
  -9449060.94846  -7336402.76746  23449788.3134                   23449779.2424
        40.2504         39.7504
 -27487062.92948 -22043358.09849  20510302.3284                   20510292.9064
        53.5004         55.0004
  -9238427.36846  -6252696.12743  24113714.9224                   24113703.2734
        40.5004         22.5004
 -12858153.50446  -9743327.36444  23572670.9844                   23572660.5664
        38.2504         27.5004
 -26672662.57448 -20396707.71249  20847881.4384                   20847872.3674
        52.0004         54.7504
 23  1  4  0  8 30.0000000  0  9G23G24G22G27G08G10G21G18G32
 -13462063.81847 -12660421.13046  21499821.5634                   21499811.0274
        46.5004         39.0004
 -15837201.50546 -12301081.34047  22438406.7664                   22438397.9304
        41.0004         42.7504
 -16171309.56247  -6443906.03144  22437690.7664                   22437680.6414
        42.5004         28.5004
 -11022969.87046  -8562188.24346  23428673.6334                   23428665.5004
        40.7504         38.5004
  -9418621.09646  -7312683.41646  23455580.2424                   23455572.2274
        40.5004         39.5004
 -27488493.19148 -22044472.59049  20510030.2034                   20510020.9574
        52.7504         55.0004
  -9320316.17046  -6316505.57043  24098133.0164                   24098120.5474
        40.5004         22.5004
 -12749550.77046  -9658701.85844  23593336.2344                   23593326.6954
        37.7504         26.2504
 -26711492.25348 -20426964.60049  20840492.4064                   20840483.3954
        52.0004         55.0004
 23  1  4  0  9  0.0000000  0  9G23G24G22G27G08G10G21G18G32
 -13406576.36247 -12617184.16146  21510380.8444                   21510370.1914
        46.2504         38.5004
 -15788321.72446 -12262993.21647  22447707.6254                   22447699.3164
        40.0004         42.5004
 -16250885.56747  -6505913.28844  22422548.3054                   22422537.1844
        43.0004         28.2504
 -10943219.06246  -8500044.76446  23443849.9614                   23443841.4184
        40.0004         38.5004
  -9387679.36346  -7288573.00346  23461467.6644                   23461459.8244
        39.2504         39.7504
 -27489643.81148 -22045369.18449  20509811.0004                   20509801.9304
        53.0004         54.7504
  -9402012.86446  -6380165.31843  24082585.6644                   24082573.7234
        39.5004         21.5004
 -12640758.84846  -9573928.95144  23614040.2344                   23614029.5234
        39.5004         27.2504
 -26749905.68948 -20456897.13649  20833182.5394                   20833173.4104
        51.7504         54.7504
 23  1  4  0  9 30.0000000  0  9G23G24G22G27G08G10G21G18G32
 -13350844.11247 -12573756.43046  21520986.5234                   21520975.2854
        46.2504         38.7504
 -15738857.60146 -12224449.71747  22457121.0474                   22457112.2704
        40.2504         42.5004
 -16330175.95347  -6567697.98544  22407459.4924                   22407448.8404
        42.5004         28.5004
 -10863181.22946  -8437677.63546  23459080.1724                   23459071.4534
        39.0004         38.5004
  -9356237.20746  -7264072.64046  23467451.2424                   23467442.9924
        40.0004         39.2504
 -27490514.03048 -22046047.27649  20509645.4844                   20509636.3554
        53.5004         55.0004
  -9483514.78446  -6443673.29943  24067077.3444                   24067064.7584
        39.0004         22.5004
 -12531779.27946  -9489009.81944  23634778.0704                   23634767.4184
        39.0004         27.0004
 -26787902.26348 -20486504.85149  20825951.8524                   20825942.8984
        51.0004         54.7504
 23  1  4  0 10  0.0000000  0  9G23G24G22G27G08G10G21G18G32
 -13294868.09447 -12530138.75446  21531637.9534                   21531627.1254
        45.7504         38.5004
 -15688811.62146 -12185452.87647  22466643.0864                   22466635.7734
        39.5004         42.7504
 -16409180.60247  -6629260.04444  22392425.3754                   22392414.7814
        42.5004         26.5004
 -10782860.31646  -8375089.91046  23474365.2504                   23474356.7074
        40.0004         39.0004
  -9324296.76846  -7239184.00546  23473528.8914                   23473521.7544
        40.0004         39.5004
 -27491103.73648 -22046506.79249  20509533.3444                   20509524.2734
        53.2504         55.0004
  -9564820.93146  -6507028.71943  24051604.7734                   24051592.6564
        40.0004         22.7504
 -12422614.90446  -9403946.65044  23655550.6254                   23655540.6764
        37.7504         26.5004
 -26825482.63248 -20515788.24049  20818800.5864                   20818791.5744
        51.5004         55.0004
 23  1  4  0 10 30.0000000  0  9G23G24G22G27G08G10G21G18G32
 -13238648.20047 -12486331.04446  21542336.5164                   21542325.6884
        45.7504         38.5004
 -15638185.25746 -12146003.74247  22476278.5084                   22476269.6134
        40.5004         42.7504
 -16487898.12647  -6690598.36044  22377446.4064                   22377435.2274
        42.7504         28.2504
 -10702258.97246  -8312283.67446  23489702.2344                   23489694.5704
        39.0004         39.0004
  -9291859.55146  -7213908.27246  23479701.8054                   23479693.7894
        40.5004         39.2504
 -27491412.42548 -22046747.32849  20509474.5704                   20509465.5004
        53.5004         54.7504
  -9645929.12146  -6570229.87443  24036170.9304                   24036158.4024
        40.5004         22.5004
 -12313267.49246  -9318740.90444  23676359.3984                   23676348.6294
        38.5004         27.0004
 -26862646.39148 -20544747.00849  20811728.7034                   20811719.5744
        51.0004         54.7504
 23  1  4  0 11  0.0000000  0  9G23G24G22G27G08G10G21G18G32
 -13182184.96247 -12442333.73046  21553081.0634                   21553070.5864
        46.0004         38.5004
 -15586980.59646 -12106104.00447  22486021.4064                   22486013.3324
        39.2504         42.2504
 -16566327.44647  -6751712.10444  22362521.8444                   22362510.7234
        43.7504         27.5004
 -10621380.66346  -8249261.62746  23505093.5164                   23505084.7974
        40.2504         38.5004
  -9258927.67746  -7188247.10146  23485968.4064                   23485960.6844
        39.7504         39.0004
 -27491440.02048 -22046768.83949  20509469.4534                   20509460.2664
        53.5004         54.7504
  -9726837.52546  -6633275.39043  24020773.7194                   24020762.0124
        40.2504         22.7504
 -12203739.43646  -9233394.35044  23697200.6094                   23697191.2464
        38.2504         26.7504
 -26899393.78748 -20573381.34049  20804735.5784                   20804726.5664
        52.0004         54.7504
 23  1  4  0 11 30.0000000  0  9G23G24G22G27G08G10G21G18G32
 -13125478.05947 -12398146.54246  21563871.6954                   21563861.3954
        45.7504         38.2504
 -15535198.86846 -12065754.60447  22495876.0864                   22495867.1914
        40.2504         42.5004
 -16644467.39047  -6812600.36544  22347651.5944                   22347640.7074
        42.7504         28.2504
 -10540227.91546  -8186025.72246  23520536.3594                   23520528.0514
        39.0004         38.5004
  -9225502.49046  -7162201.52446  23492329.5704                   23492321.0864
        40.7504         39.0004
 -27491185.13748 -22046570.22549  20509517.5474                   20509508.4774
        53.5004         54.7504
  -9807543.69446  -6696163.30243  24005416.8054                   24005404.1024
        41.0004         23.5004
 -12094032.14546  -9147908.16144  23718077.5554                   23718067.4884
        38.7504         25.0004
 -26935724.21348 -20601690.75249  20797822.2274                   20797813.3914
        51.2504         54.7504
 23  1  4  0 12  0.0000000  0  9G23G24G22G27G08G10G21G18G32
 -13068528.26147 -12353770.08546  21574709.2974                   21574698.6454
        45.5004         38.5004
 -15482842.41446 -12024957.38147  22505838.7424                   22505830.4344
        40.7504         42.7504
 -16722317.36547  -6873262.65844  22332838.6174                   22332826.9104
        43.0004         28.2504
 -10458804.36246  -8122578.80646  23536030.2344                   23536022.1604
        39.2504         38.7504
  -9191586.11946  -7135773.20646  23498783.2584                   23498775.4184
        39.5004         39.5004
 -27490648.13348 -22046151.78949  20509619.9924                   20509610.8054
        52.0004         55.0004
  -9888046.14046  -6758892.45744  23990096.7274                   23990085.0784
        41.0004         25.0004
 -11984148.38246  -9062284.45744  23738988.3914                   23738977.8554
        39.5004         26.5004
 -26971638.10348 -20629675.59049  20790988.2734                   20790979.0864
        51.5004         55.0004
 23  1  4  0 12 30.0000000  0  9G23G24G22G27G08G10G21G18G32
 -13011335.60247 -12309204.38546  21585592.8204                   21585581.9924
        45.5004         38.5004
 -15429913.02446 -11983713.69147  22515911.3054                   22515902.7034
        41.2504         42.2504
 -16799876.51147  -6933698.35744  22318078.6024                   22318067.7734
        42.5004         28.2504
 -10377112.95646  -8058923.16246  23551576.1884                   23551567.7624
        39.0004         38.5004
  -9157180.12646  -7108963.37146  23505331.1254                   23505322.7584
        40.2504         39.5004
 -27489827.93748 -22045512.67549  20509776.0004                   20509767.1054
        53.7504         54.7504
  -9968343.05346  -6821461.45844  23974816.9924                   23974804.9344
        40.0004         25.0004
 -11874089.95546  -8976524.64244  23759931.8914                   23759921.3554
        39.7504         24.0004
 -27007135.34848 -20657335.77149  20784233.0784                   20784223.8914
        51.7504         55.0004
 23  1  4  0 13  0.0000000  0  9G23G24G22G27G08G10G21G18G32
 -12953900.06747 -12264449.43446  21596522.0944                   21596511.3834
        45.5004         38.5004
 -15376412.14146 -11942024.70347  22526091.7344                   22526082.8984
        39.7504         42.2504
 -16877143.50347  -6993906.37744  22303375.5704                   22303364.2734
        43.2504         28.5004
 -10295156.43646  -7995060.95446  23567171.6724                   23567163.3634
        39.0004         37.7504
  -9122286.57246  -7081773.60946  23511970.8284                   23511962.6954
        40.0004         39.0004
 -27488724.12948 -22044652.56849  20509985.7974                   20509976.7274
        53.2504         55.0004
 -10048431.96946  -6883868.41544  23959577.1884                   23959564.4844
        41.0004         25.2504
 -11763858.76546  -8890630.23244  23780907.9144                   23780897.7304
        38.7504         25.2504
 -27042215.58748 -20684671.00949  20777557.5864                   20777548.6914
        51.7504         54.7504
 23  1  4  0 13 30.0000000  0  9G23G24G22G27G08G10G21G18G32
 -12896222.11747 -12219505.58846  21607497.9614                   21607487.0164
        46.5004         38.5004
 -15322342.03446 -11899892.13447  22536380.9844                   22536372.3244
        39.7504         42.0004
 -16954117.53747  -7053886.12944  22288727.1024                   22288716.5084
        42.7504         28.0004
 -10212938.25146  -7930994.84146  23582818.7504                   23582808.8594
        40.2504         37.0004
  -9086906.93246  -7054205.08646  23518702.9774                   23518695.0784
        41.2504         39.0004
 -27487336.39148 -22043571.21949  20510249.9304                   20510241.2114
        53.0004         55.0004
 -10128311.17346  -6946111.92344  23944375.9224                   23944364.2154
        41.2504         26.0004
 -11653457.11746  -8804602.97944  23801916.0474                   23801906.3914
        38.2504         24.5004
 -27076879.04948 -20711681.49049  20770961.4774                   20770952.2304
        51.5004         54.7504
 23  1  4  0 14  0.0000000  0  9G23G24G22G27G08G10G21G18G32
 -12838301.60347 -12174372.72146  21618520.0634                   21618509.0004
        46.0004         38.2504
 -15267704.15746 -11857317.16546  22546777.5554                   22546769.7734
        40.0004         41.7504
 -17030797.28447  -7113636.55544  22274136.1174                   22274125.2894
        44.0004         29.7504
 -10130461.07146  -7866726.91346  23598511.5634                   23598503.6644
        38.7504         37.2504
  -9051042.84546  -7026259.08046  23525527.7344                   23525520.1884
        41.5004         38.7504
 -27485663.64848 -22042267.78649  20510568.3834                   20510559.4304
        53.0004         54.7504
 -10207978.09047  -7008190.05144  23929216.2814                   23929204.0474
        42.2504         25.5004
 -11542886.74946  -8718444.23544  23822957.1334                   23822947.4774
        38.2504         25.5004
 -27111125.37648 -20738366.93849  20764444.6954                   20764435.4494
        51.5004         55.0004
 23  1  4  0 14 30.0000000  0  9G23G24G22G27G08G10G21G18G32
 -12780139.04147 -12129051.26446  21629587.9614                   21629577.1334
        45.7504         37.7504
 -15212500.75646 -11814301.54346  22557283.2504                   22557274.8834
        39.2504         41.7504
 -17107182.26547  -7173157.31344  22259600.2894                   22259589.6374
        44.2504         29.5004
 -10047728.38346  -7802259.88346  23614255.4614                   23614247.6214
        38.2504         36.5004
  -9014696.73847  -6997937.45746  23532445.0234                   23532436.6564
        43.0004         39.0004
 -27483705.80648 -22040742.18949  20510940.8834                   20510931.7544
        52.5004         54.7504
 -10287431.31546  -7070101.65144  23914096.6334                   23914084.3984
        41.5004         24.7504
 -11432150.01346  -8632155.88243  23844030.0704                   23844019.6524
        38.2504         22.5004
 -27144954.90148 -20764727.58949  20758006.7974                   20757997.6684
        51.7504         55.0004
 23  1  4  0 15  0.0000000  0 10G23G24G22G27G08G10G21G18G31G32
 -12721735.15447 -12083541.75546  21640701.9924                   21640691.2814
        45.5004         38.0004
 -15156734.26846 -11770847.13247  22567895.1954                   22567886.5354
        39.5004         42.0004
 -17183271.80947  -7232447.84744  22245120.6884                   22245110.0354
        43.7504         29.7504
  -9964743.64146  -7737596.45446  23630046.0234                   23630038.3594
        37.5004         36.0004
  -8977871.17847  -6969242.23646  23539452.3204                   23539444.1884
        42.5004         39.2504
 -27481462.85448 -22038994.44249  20511367.5164                   20511358.9144
        51.5004         54.7504
 -10366669.57947  -7131845.73844  23899018.8524                   23899006.3244
        42.0004         26.0004
 -11321249.49146  -8545739.89143  23865132.9694                   23865123.2544
        37.0004         23.0004
    682842.15055    562417.88255  25317006.3984                   25316995.2194
        35.5004         31.7504
 -27178368.06348 -20790763.81749  20751648.5474                   20751639.5944
        51.5004         55.0004
 23  1  4  0 15 30.0000000  0 10G23G24G22G27G08G10G21G18G31G32
 -12663093.40047 -12037846.87846  21651861.0634                   21651850.5274
        45.7504         38.2504
 -15100409.84346 -11726957.96146  22578612.9844                   22578604.5594
        40.0004         41.5004
 -17259068.33247  -7291510.05144  22230697.5784                   22230686.6334
        44.5004         29.7504
  -9881513.39346  -7672741.73046  23645885.9774                   23645877.0234
        39.5004         36.0004
  -8940570.64947  -6940176.91646  23546550.2114                   23546542.4304
        42.2504         39.5004
 -27478937.59048 -22037026.69849  20511848.4064                   20511839.3364
        53.0004         54.7504
 -10445693.83146  -7193423.07344  23883979.7734                   23883968.1844
        41.5004         25.2504
 -11210190.58246  -8459200.51243  23886266.8524                   23886257.1954
        37.0004         23.0004
    565030.12545    470616.34744  25294587.8524                   25294576.3794
        34.7504         28.5004
 -27211368.20948 -20816478.20049  20745368.7664                   20745359.8134
        51.7504         54.7504
 23  1  4  0 16  0.0000000  0 10G23G24G22G27G08G10G21G18G31G32
 -12604206.35147 -11991960.87046  21663066.7814                   21663056.1294
        45.7504         38.0004
 -15043521.85646 -11682629.66346  22589438.2664                   22589429.9574
        38.7504         41.5004
 -17334563.29847  -7350337.27345  22216331.1484                   22216321.0824
        44.0004         30.5004
  -9798032.92146  -7607692.01646  23661772.2114                   23661763.0234
        38.7504         36.2504
  -8902790.17947  -6910737.61346  23553739.4924                   23553731.4774
        42.0004         38.7504
 -27476121.76048 -22034832.54249  20512384.1414                   20512375.3054
        53.2504         55.2504
 -10524494.50247  -7254826.20444  23868985.1024                   23868972.6914
        42.0004         27.0004
 -11098967.69746  -8372533.31443  23907432.3284                   23907422.6134
        36.7504         21.7504
    447129.32145    378745.59645  25272151.9614                   25272140.8984
        35.2504         30.0004
 -27243947.66548 -20841864.78049  20739169.3134                   20739160.2424
        51.0004         54.7504
 23  1  4  0 16 30.0000000  0 10G23G24G22G27G08G10G21G18G31G32
 -12545077.67347 -11945886.58346  21674319.0944                   21674308.0904
        45.7504         38.2504
 -14986075.73346 -11637866.47346  22600370.4614                   22600362.2704
        40.2504         41.5004
 -17409759.46747  -7408931.66645  22202022.1884                   22202011.4184
        44.5004         30.2504
  -9714308.74946  -7542452.40245  23677703.2034                   23677694.8364
        38.7504         35.2504
  -8864535.14047  -6880928.51246  23561019.3364                   23561011.3794
        42.5004         39.0004
 -27473018.20848 -22032414.19749  20512974.7424                   20512966.0824
        52.2504         54.7504
 -10603073.17346  -7316056.33744  23854031.6094                   23854020.6054
        40.5004         27.0004
 -10987586.28146  -8285742.63143  23928627.3914                   23928617.5594
        37.5004         22.7504
    329138.71645    286804.92844  25249696.4384                   25249687.7774
        33.5004         29.2504
 -27276109.86848 -20866926.22649  20733049.0314                   20733039.9614
        51.5004         54.7504
 23  1  4  0 17  0.0000000  0 10G23G24G22G27G08G10G21G18G31G32
 -12485708.64147 -11899625.00746  21685616.4694                   21685605.4064
        46.2504         38.0004
 -14928074.55546 -11592670.74546  22611408.4064                   22611398.9264
        41.0004         41.7504
 -17484656.77347  -7467293.17545  22187769.2504                   22187758.6564
        44.2504         32.2504
  -9630345.20546  -7477026.25945  23693681.4224                   23693673.0554
        38.2504         35.5004
  -8825808.13446  -6850751.66746  23568388.4844                   23568380.9964
        41.7504         38.5004
 -27469627.37948 -22029771.98949  20513619.8204                   20513610.8674
        53.2504         54.7504
 -10681428.64846  -7377112.53744  23839121.4694                   23839109.2934
        41.0004         26.7504
 -10876049.64646  -8198830.96543  23949852.6254                   23949842.3244
        38.0004         23.2504
    211060.00646    194795.56445  25227230.9534                   25227217.4304
        37.5004         30.2504
 -27307856.01648 -20891663.47549  20727007.7584                   20726998.5124
        52.0004         55.0004
 23  1  4  0 17 30.0000000  0 10G23G24G22G27G08G10G21G18G31G32
 -12426098.95147 -11853175.90246  21696960.0634                   21696948.5904
        45.7504         37.7504
 -14869519.74746 -11547043.61646  22622549.7424                   22622541.6684
        39.7504         41.0004
 -17559253.67647  -7525420.60745  22173573.9384                   22173562.9924
        45.0004         30.2504
  -9546144.74046  -7411415.54145  23709704.5394                   23709695.1764
        38.2504         34.5004
  -8786610.69747  -6820208.23846  23575847.5784                   23575840.0314
        42.2504         38.7504
 -27465948.28748 -22026905.16149  20514320.0704                   20514311.2344
        52.0004         55.0004
 -10759558.44546  -7437992.90244  23824253.6174                   23824241.2664
        40.7504         25.5004
 -10764359.27246  -8111799.48543  23971106.1094                   23971096.1604
        37.2504         22.0004
  -1482523.76655  -1124880.10255  25204744.3984                   25204733.1604
        35.2504         31.5004
 -27339185.59648 -20916076.12949  20721046.0234                   20721036.7774
        52.0004         55.0004
 23  1  4  0 18  0.0000000  0 10G23G24G22G27G08G10G21G18G31G32
 -12366245.70847 -11806537.01846  21708349.0784                   21708338.1334
        46.0004         37.5004
 -14810410.25646 -11500984.26846  22633798.2194                   22633789.6764
        39.0004         41.5004
 -17633546.14247  -7583310.80845  22159436.3834                   22159425.9064
        45.2504         30.2504
  -9461707.39946  -7345620.19445  23725772.3834                   23725763.7814
        38.5004         34.5004
  -8746941.45747  -6789297.16446  23583396.5944                   23583388.6374
        42.5004         38.7504
 -27461977.51748 -22023811.05449  20515075.6174                   20515066.3714
        53.5004         54.7504
 -10837457.27946  -7498693.28344  23809429.6024                   23809418.7734
        40.5004         25.7504
 -10652514.11945  -8024647.42944  23992389.2734                   23992379.9104
        35.5004         24.2504
                                  25182244.5084                   25182231.1604
        37.0004         30.2504
 -27370095.58148 -20940161.81849  20715164.0704                   20715155.0004
        52.5004         54.7504
 23  1  4  0 18 30.0000000  0 10G23G24G22G27G08G10G21G18G31G32
 -12306158.96547 -11759716.18546  21719783.4924                   21719772.7234
        46.5004         37.5004
 -14750758.08346 -11454502.07146  22645150.0004                   22645141.4574
        39.7504         41.5004
 -17707543.97147  -7640971.43445  22145354.9384                   22145344.6374
        45.0004         30.7504
  -9377046.14346  -7279650.41345  23741882.2344                   23741874.0434
        37.7504         34.0004
  -8706812.54447  -6758027.90646  23591032.9224                   23591025.1414
        43.0004         38.2504
 -27457724.33249 -22020496.88849  20515885.1254                   20515875.9384
        54.0004         54.7504
 -10915133.27646  -7559220.02744  23794648.5004                   23794636.9694
        40.0004         24.5004
 -10540526.26646  -7937384.14343  24013700.6094                   24013690.2504
        38.2504         23.2504
  -1719096.46446  -1309222.37745  25159727.0634                   25159713.8914
        37.5004         30.2504
 -27400595.93548 -20963928.32749  20709359.9224                   20709351.1454
        52.5004         55.0004
 23  1  4  0 19  0.0000000  0 10G23G24G22G27G08G10G21G18G31G32
 -12245829.73347 -11712706.38846  21731264.1804                   21731252.4734
        45.7504         37.5004
 -14690555.98246 -11407591.33746  22656605.5234                   22656597.2734
        38.7504         41.0004
 -17781236.10547  -7698393.86245  22131332.0554                   22131321.2274
        45.0004         31.0004
  -9292154.82046  -7213501.32545  23758037.2114                   23758028.3754
        38.5004         34.2504
  -8666216.71047  -6726394.80946  23598758.3834                   23598750.1334
        42.5004         38.2504
 -27453178.62748 -22016954.77449  20516749.8364                   20516741.0594
        52.2504         54.7504
 -10992575.28146  -7619564.43544  23779912.3444                   23779900.5784
        41.0004         25.0004
 -10428388.42046  -7850004.03844  24035040.3674                   24035029.4804
        38.7504         25.0004
  -1837500.64344  -1401485.46545  25137192.0394                   25137183.4384
        29.7504         30.5004
 -27430677.49248 -20987368.49049  20703635.5084                   20703626.4384
        52.0004         55.0004
 23  1  4  0 19 30.0000000  0 11G23G24G22G27G08G10G21G18G31G01G32
 -12185260.66247 -11665509.72446  21742789.4304                   21742778.8954
        45.7504         37.5004
 -14629808.51646 -11360255.66546  22668165.2504                   22668157.0594
        39.0004         40.7504
 -17854624.27447  -7755579.42845  22117366.4534                   22117356.0354
        45.0004         31.5004
  -9207038.95546  -7147177.28445  23774233.0784                   23774224.9454
        37.5004         34.5004
  -8625158.63847  -6694401.51746  23606571.5784                   23606562.9184
        42.2504         39.0004
 -27448342.56448 -22013186.41849  20517670.0164                   20517661.1214
        53.0004         54.7504
 -11069783.68446  -7679726.82544  23765221.2114                   23765208.9774
        40.7504         24.7504
 -10316105.23646  -7762510.66043  24056407.2194                   24056395.8634
        39.5004         22.7504
  -1955979.40755  -1493806.52555  25114648.4454                   25114637.6174
        35.0004         31.7504
   -880318.95415                  25348556.523
        33.250
 -27460342.75448 -21010484.27049  20697990.7274                   20697981.3054
        51.7504         54.7504
 23  1  4  0 20  0.0000000  0 11G23G24G22G27G08G10G21G18G31G01G32
 -12124451.90247 -11618126.28346  21754361.1564                   21754350.1524
        46.2504         38.0004
 -14568517.74446 -11312496.60046  22679829.0864                   22679820.4844
        39.5004         41.0004
 -17927707.45447  -7812527.34045  22103459.7894                   22103448.9024
        44.7504         31.2504
  -9121701.58846  -7080680.64845  23790473.2734                   23790464.7894
        38.2504         34.5004
  -8583640.02647  -6662049.37446  23614471.9144                   23614463.7814
        43.0004         38.5004
 -27443215.63948 -22009191.41849  20518645.9384                   20518637.1604
        52.5004         55.0004
 -11146756.52446  -7739705.65244  23750572.5864                   23750559.7664
        41.0004         25.5004
 -10203678.69846  -7674905.56744  24077801.2194                   24077790.0984
        39.2504         25.0004
  -2074529.74446  -1586183.32745  25092090.7974                   25092076.7464
        37.2504         30.5004
   -993195.10354   -641537.48752  25327077.1644                   25327069.9104
        29.5004         17.2504
 -27489591.81148 -21033275.73349  20692424.5004                   20692415.2544
        51.5004         54.7504
 23  1  4  0 20 30.0000000  0 11G23G24G22G27G08G10G21G18G31G01G32
 -12063404.67047 -11570557.02446  21765978.3984                   21765967.3364
        46.0004         38.0004
 -14506686.71146 -11264316.59946  22691595.3524                   22691586.6914
        39.0004         40.5004
 -18000486.13447  -7869237.99845  22089610.0474                   22089599.2774
        45.0004         31.2504
  -9036146.87546  -7014014.64145  23806752.0944                   23806744.4884
        37.5004         33.5004
  -8541663.93447  -6629340.76946  23622459.9614                   23622452.3554
        43.2504         38.0004
 -27437798.26348 -22004970.08549  20519676.8594                   20519667.9654
        53.2504         55.0004
 -11223492.67646  -7799500.04644  23735969.5004                   23735957.9104
        40.0004         25.5004
 -10091111.91946  -7587191.21044  24099221.8754                   24099211.2234
        39.5004         24.2504
  -2193150.28145  -1678614.87145  25069515.6644                   25069504.0744
        35.2504         31.5004
  -1106000.29654   -729437.59252  25305610.0554                   25305604.4414
        28.5004         15.5004
 -27518425.74048 -21055743.72749  20686937.8134                   20686928.9184
        51.0004         55.0004
 23  1  4  0 21  0.0000000  0 11G23G24G22G27G08G10G21G18G31G01G32
 -12002117.59847 -11522800.86846  21777640.4614                   21777629.8094
        45.7504         37.5004
 -14444316.01746 -11215716.04946  22703463.9454                   22703455.5204
        39.2504         40.7504
 -18072957.91947  -7925709.50845  22075819.4844                   22075808.6564
        44.5004         32.2504
  -8950376.30246  -6947180.42445  23823074.8444                   23823067.1214
        38.0004         34.2504
  -8499231.31447  -6596276.40346  23630533.1484                   23630526.6564
        43.0004         38.2504
 -27432088.12848 -22000520.63949  20520763.4774                   20520754.2894
        53.0004         55.0004
 -11299988.36546  -7859107.04644  23721413.5704                   23721401.8054
        41.2504         25.7504
  -9978405.40946  -7499367.97644  24120669.1414                   24120658.4304
        39.0004         24.7504
  -2311836.82145  -1771097.85245  25046928.5864                   25046919.4574
        33.7504         31.5004
                                  25284158.9064                   25284152.3554
        30.0004         13.7504
 -27546843.09048 -21077887.10549  20681530.2034                   20681520.8984
        52.5004         54.7504
 23  1  4  0 21 30.0000000  0 11G23G24G22G27G08G10G21G18G31G01G32
 -11940595.34747 -11474861.46646  21789347.8914                   21789337.1804
        46.0004         37.5004
 -14381412.30946 -11166700.18746  22715433.7584                   22715425.2154
        39.2504         40.7504
 -18145126.49947  -7981944.74945  22062085.7344                   22062074.9064
        44.7504         31.0004
  -8864397.37946  -6880183.89445  23839434.8594                   23839427.8404
        37.0004         34.0004
  -8456348.53647  -6562861.26446  23638694.0474                   23638686.9104
        43.2504         37.5004
 -27426089.19048 -21995846.13849  20521904.9064                   20521896.0704
        52.2504         54.7504
 -11376246.55447  -7918529.00644  23706902.0634                   23706889.6524
        42.2504         26.5004
  -9865565.72846  -7411440.93344  24142141.9534                   24142131.1254
        39.7504         24.7504
  -2430590.93345  -1863633.50545  25024330.1254                   25024320.5274
        33.7504         30.0004
  -1331388.50155   -905064.80052  25262720.7504                   25262714.4924
        32.5004         16.2504
 -27574848.53548 -21099709.53049  20676201.0864                   20676191.6644
        51.7504         54.7504
 23  1  4  0 22  0.0000000  0 11G23G24G22G27G08G10G21G18G31G01G32
 -11878830.48547 -11426732.99846  21801101.0474                   21801090.4534
        45.5004         38.0004
 -14317970.02246 -11117264.63446  22727506.4304                   22727498.2974
        39.0004         40.7504
 -18216983.15147  -8037936.94045  22048411.8674                   22048401.2734
        44.7504         30.7504
  -8778205.61046  -6813021.49445  23855838.9694                   23855829.4884
        38.5004         34.0004
  -8413009.49147  -6529090.60346  23646941.9924                   23646933.6844
        43.0004         37.5004
 -27419793.35248 -21990940.29149  20523103.2584                   20523094.1884
        52.7504         54.7504
 -11452257.21446  -7977758.08744  23692437.0554                   23692425.4064
        41.5004         25.0004
  -9752587.40146  -7323405.90344  24163640.7034                   24163630.0514
        39.5004         24.0004
  -2549402.37845  -1956213.83145  25001721.9614                   25001711.7194
        34.5004         31.5004
                                  25241298.2734                   25241292.1914
        28.2504         14.7504
 -27602434.51448 -21121205.08449  20670951.5314                   20670942.2274
        51.7504         54.7504
 23  1  4  0 22 30.0000000  0 10G23G24G22G27G08G10G21G18G31G32
 -11816828.96047 -11378420.13846  21812899.7664                   21812889.0554
        45.0004         37.2504
 -14253997.17746 -11067415.68246  22739679.6094                   22739671.8874
        38.7504         40.5004
 -18288532.81147  -8093689.90045  22034795.8284                   22034785.8204
        44.2504         30.5004
  -8691809.82246  -6745700.07045  23872278.1644                   23872270.4414
        37.5004         34.5004
  -8369222.92247  -6494971.21446  23655274.8754                   23655265.8634
        43.0004         37.5004
 -27413205.88048 -21985807.20549  20524356.7504                   20524347.6214
        52.0004         54.7504
 -11528024.08047  -8036797.17944  23678019.9144                   23678007.9144
        42.2504         26.5004
  -9639478.12946  -7235268.82944  24185165.2114                   24185153.7974
        41.0004         24.2504
  -2668274.14845  -2048841.14445  24979102.0554                   24979091.6374
        34.5004         32.2504
 -27629606.87648 -21142378.34949  20665780.5474                   20665771.4774
        51.0004         55.0004
 23  1  4  0 23  0.0000000  0 11G23G24G22G27G08G10G21G18G31G01G32
 -11754589.13547 -11329921.58346  21824743.1804                   21824732.8794
        44.5004         37.2504
 -14189493.98146 -11017153.45346  22751954.4144                   22751946.1644
        39.0004         40.0004
 -18359772.92647  -8149201.67945  22021240.1954                   22021229.6024
        45.2504         30.5004
  -8605211.17246  -6678220.65045  23888757.8204                   23888749.3364
        38.2504         33.7504
  -8324988.49247  -6460502.83346  23663692.3834                   23663683.9574
        43.2504         38.0004
 -27406324.28648 -21980444.92749  20525666.0394                   20525656.9694
        51.7504         54.7504
 -11603543.22646  -8095643.24044  23663648.3444                   23663635.9924
        41.7504         26.7504
  -9526238.20246  -7147029.94643  24206713.3914                   24206703.1484
        38.7504         22.2504
  -2787201.45045  -2141511.74245  24956471.2424                   24956460.0044
        35.2504         31.2504
                                  25198499.086
        30.500
 -27656363.94348 -21163228.00049  20660689.0784                   20660679.7154
        51.5004         54.7504
 23  1  4  0 23 30.0000000  0 11G23G24G22G27G08G10G21G18G31G01G32
 -11692113.51747 -11281239.30646  21836632.5864                   21836621.4064
        45.2504         37.0004
 -14124465.02846 -10966481.54046  22764329.0234                   22764320.7154
        38.5004         40.5004
 -18430704.96347  -8204473.38945  22007741.5944                   22007731.4694
        44.7504         30.5004
  -8518415.16346  -6610587.37845  23905275.1644                   23905266.2114
        38.5004         34.2504
  -8280310.88247  -6425689.12446  23672193.3054                   23672185.6414
        43.0004         37.0004
 -27399150.04748 -21974854.61049  20527031.2194                   20527022.1484
        51.2504         54.7504
 -11678815.09847  -8154296.63744  23649325.0004                   23649313.0004
        42.0004         26.7504
  -9412872.06046  -7058692.68143  24228285.5314                   24228275.4654
        39.2504         22.5004
  -2906184.35845  -2234225.66745  24933829.4774                   24933818.0044
        35.0004         31.5004
  -1781204.85555  -1044347.27553  25177124.7814                   25177116.9414
        31.2504         18.2504
 -27682708.21348 -21183756.00349  20655675.8284                   20655666.6414
        51.0004         55.0004
 23  1  4  0 24  0.0000000  0 11G23G24G22G27G08G10G21G18G31G01G32
 -11629397.93047 -11232370.02646  21848566.5634                   21848555.9694
        45.0004         37.2504
 -14058908.12246 -10915398.23446  22776804.5474                   22776795.9454
        38.7504         40.2504
 -18501323.88747  -8259501.11645  21994303.6804                   21994293.2624
        44.5004         31.2504
  -8431420.47846  -6542799.35045  23921829.1254                   23921821.2854
        37.5004         34.0004
  -8235187.81947  -6390528.31146  23680780.2894                   23680771.6294
        42.0004         36.7504
 -27391678.83648 -21969032.89249  20528452.6804                   20528444.0204
        52.2504         55.0004
 -11753832.94746  -8212752.07444  23635049.1024                   23635037.3364
        40.2504         27.0004
  -9299377.38446  -6970255.29144  24249883.6024                   24249873.3594
        39.7504         24.7504
  -3025215.62945  -2326977.29845  24911177.7734                   24911167.1804
        35.5004         32.2504
                                  25155765.2584                   25155759.4104
        30.7504         16.2504
 -27708635.49148 -21203959.06249  20650742.0394                   20650732.7344
        51.5004         54.7504
 23  1  4  0 24 30.0000000  0 11G23G24G22G27G08G10G21G18G31G01G32
 -11566446.83147 -11183317.21946  21860546.0394                   21860535.1524
        44.7504         36.7504
 -13992829.76346 -10863908.61345  22789378.2734                   22789370.4924
        38.5004         33.2504
 -18571632.84047  -8314287.30445  21980924.0554                   21980913.8714
        45.0004         31.0004
  -8344234.42546  -6474862.15045  23938421.6644                   23938411.4224
        38.2504         33.5004
  -8189625.81447  -6355025.46346  23689450.0704                   23689442.4654
        42.5004         36.5004
 -27383913.82248 -21962982.24149  20529930.6644                   20529921.8284
        51.0004         55.0004
 -11828599.31147  -8271011.59444  23620822.4144                   23620809.5354
        42.2504         26.2504
  -9185760.57346  -6881722.73944  24271503.9774                   24271493.4414
        38.7504         24.2504
  -3144296.27745  -2419767.44845  24888516.9694                   24888506.9024
        33.7504         31.2504
