     2.11           OBSERVATION DATA    G (GPS)             RINEX VERSION / TYPE
teqc  2019Feb25     Salamtina Y.M.      20230920 03:20:34UTCPGM / RUN BY / DATE
OBSERVATION MODE: Permanent                                 COMMENT
CHUM Chumysh (CHUM)                                         MARKER NAME
25601M001                                                   MARKER NUMBER
4549261325          TRIMBLE NETRS        1.3-2              REC # / TYPE / VERS
237                 AOAD/M_T        NONE                    ANT # / TYPE
        0.0900        0.0000        0.0000                  ANTENNA: DELTA H/E/N
  1228950.3073  4508080.0134  4327868.5406                  APPROX POSITION XYZ
  74.75110460  42.99850158  716.3366  LonLatAlt  S/W        COMMENT
ANT ADDED FROM RCV_ANT.txt                                  COMMENT
Linux 2.6.32-573.12.1.x86_64|x86_64|gcc|Linux 64|=+         COMMENT
BIT 2 OF LLI FLAGS DATA COLLECTED UNDER A/S CONDITION       COMMENT
Konovalov S.M.      RS_RAS                                  OBSERVER / AGENCY
     1     1                                                WAVELENGTH FACT L1/2
     7    L1    L2    C1    P1    P2    S1    S2            # / TYPES OF OBSERV
    30.0000                                                 INTERVAL
    18                                                      LEAP SECONDS
TIME: 2023.01.10                                            COMMENT
TOUR: cont                                                  COMMENT
RSET: RAS02                                                 COMMENT
ASET: DS24                                                  COMMENT
OPER: skon (Konovalov S.M.)                                 COMMENT
SOUR: chum202301100000d.dat                                 COMMENT
SUPP: chum202301100000d.eph                                 COMMENT
SUPP: chum202301100000d.ion                                 COMMENT
SUPP: chum202301100000d.mes                                 COMMENT
Forced Modulo Decimation to 30 seconds                      COMMENT
 SNR is mapped to RINEX snr flag value [0-9]                COMMENT
  L1 & L2: min(max(int(snr_dBHz/6), 0), 9)                  COMMENT
  2023     1    10     0     0    0.0000000     GPS         TIME OF FIRST OBS
  2023     1    10    23    59   30.0000000     GPS         TIME OF LAST OBS
                                                            END OF HEADER
 23  1 10  0  0  0.0000000  0 11G08G27G22G24G23G10G21G18G31G01G32
  -8196833.51447  -6358365.26246  23690257.6254                   23690249.9024
        42.5004         37.2504
  -8803546.21246  -6635821.29945  23942065.0474                   23942057.3244
        37.5004         34.2504
  -9327864.69247  -8062901.51545  21996701.4924                   21996690.4884
        45.5004         32.0004
 -12815151.94046 -10622440.64646  22797948.2894                   22797939.6294
        39.2504         40.5004
 -10751000.60047 -12369349.89146  21865891.2424                   21865880.0634
        45.0004         36.2504
 -27514487.69248 -21310110.20649  20530737.4844                   20530728.6484
        51.5004         55.0004
 -11909073.78547  -8588167.11244  23615954.7894                   23615942.5554
        42.7504         27.5004
  -9972919.25946  -6918405.45544  24267586.7504                   24267576.9184
        39.7504         25.5004
  -2417624.75545  -1815885.47145  24875111.1884                   24875101.1214
        35.7504         32.7504
                                  25128906.297
        32.000
 -25260266.38948 -21100174.73749  20649377.2894                   20649368.2194
        51.2504         55.0004
 23  1 10  0  0 30.0000000  0 11G08G27G22G24G23G10G21G18G31G01G32
  -8150648.14147  -6322376.69546  23699047.5394                   23699038.9384
        42.2504         37.2504
  -8716115.60546  -6567693.59745  23958703.1804                   23958695.3404
        38.2504         34.7504
  -9398144.34947  -8117664.83445  21983327.1564                   21983317.0904
        44.7504         32.0004
 -12748362.05946 -10570396.60045  22810657.4064                   22810648.9224
        39.5004         33.5004
 -10687733.42647 -12320050.81946  21877929.9144                   21877919.3204
        44.5004         36.2504
 -27506502.91948 -21303888.31249  20532257.0234                   20532247.8954
        53.0004         54.7504
 -11983479.44747  -8646145.54044  23601796.2584                   23601784.7274
        42.0004         28.0004
  -9859195.16846  -6829789.33444  24289228.6334                   24289218.3324
        39.7504         25.0004
  -2536754.86646  -1908714.21045  24852442.2814                   24852431.1604
        37.0004         33.0004
                                  25107585.5704                   25107579.4304
        30.0004         14.7504
 -25285401.53048 -21119760.54949  20644594.4534                   20644585.0904
        52.0004         55.2504
 23  1 10  0  1  0.0000000  0 11G08G27G22G24G23G10G21G18G31G01G32
  -8104028.77246  -6286049.95246  23707918.2344                   23707911.2154
        41.7504         36.7504
  -8628500.10746  -6499421.79745  23975375.8594                   23975367.7274
        37.5004         33.5004
  -9468113.60447  -8172186.29145  21970012.8754                   21970002.0474
        45.5004         32.2504
 -12681055.92846 -10517950.26144  22823464.6564                   22823456.7584
        38.7504         29.0004
 -10624231.36247 -12270568.70146  21890014.0864                   21890003.0234
        44.7504         36.2504
 -27498223.64948 -21297436.93449  20533832.6954                   20533823.4494
        51.5004         54.7504
 -12057628.81046  -8703924.24144  23587686.4224                   23587673.6604
        41.7504         27.7504
  -9745352.46046  -6741080.74744  24310891.0084                   24310881.5864
        39.0004         25.5004
  -2655927.47345  -2001576.03445  24829763.9694                   24829753.5514
        35.7504         33.0004
  -1370616.20615                  25086284.484
        32.250
 -25310124.41848 -21139025.12349  20639889.8364                   20639880.2384
        51.2504         55.0004
 23  1 10  0  1 30.0000000  0 11G08G27G22G24G23G10G21G18G31G01G32
  -8056973.69046  -6249383.70546  23716872.2194                   23716865.3164
        40.2504         36.2504
  -8540699.18646  -6431005.52445  23992083.2664                   23992075.1334
        37.7504         33.5004
  -9537768.22847  -8226462.58745  21956757.0474                   21956747.2154
        44.7504         32.7504
 -12613232.23746 -10465100.62544  22836373.0164                   22836363.5354
        39.7504         29.0004
 -10560491.13647 -12220901.00846  21902143.4614                   21902132.2234
        45.0004         36.0004
 -27489645.59648 -21290752.74649  20535464.8674                   20535456.0314
        51.7504         54.7504
 -12131516.03047  -8761498.70444  23573627.0704                   23573613.4884
        42.2504         27.5004
  -9631389.82446  -6652278.71144  24332577.1884                   24332568.4104
        39.0004         25.5004
  -2775136.51246  -2094466.22945  24807079.5474                   24807069.1294
        37.2504         33.5004
                                  25065000.1094                   25064994.4384
        29.2504         16.2504
 -25334431.81248 -21157965.93949  20635264.0474                   20635254.8014
        51.7504         54.7504
 23  1 10  0  2  0.0000000  0 10G08G27G22G24G23G10G21G18G31G32
  -8009489.78646  -6212383.30246  23725908.5634                   23725900.6054
        40.5004         36.0004
  -8452719.96646  -6362450.29745  24008825.4304                   24008817.9414
        36.7504         33.2504
  -9607111.16747  -8280496.00345  21943562.5864                   21943551.5234
        45.7504         33.0004
 -12544897.14546 -10411852.52844  22849375.7734                   22849367.2894
        38.5004         29.0004
 -10496516.85047 -12171050.91646  21914317.7114                   21914306.5314
        44.5004         36.2504
 -27480771.85048 -21283838.14049  20537153.5944                   20537144.3484
        52.0004         54.7504
 -12205143.24847  -8818870.54944  23559613.9844                   23559603.4494
        42.0004         28.0004
  -9517313.15246  -6563387.83544  24354286.3754                   24354275.9574
        39.2504         25.5004
  -2894382.89646  -2187385.54945  24784388.4224                   24784377.0664
        38.0004         33.0004
 -25358327.76748 -21176586.15449  20630717.1724                   20630707.9844
        52.0004         54.7504
 23  1 10  0  2 30.0000000  0 11G08G27G22G24G23G10G21G18G31G01G32
  -7961576.93247  -6175048.61945  23735026.5004                   23735016.8444
        42.0004         35.2504
  -8364563.67745  -6293757.10845  24025599.4924                   24025593.3524
        35.5004         32.7504
  -9676140.04647  -8334284.69145  21930426.0234                   21930415.9574
        45.0004         33.2504
 -12476051.34146 -10358206.44544  22862476.4384                   22862467.7194
        38.5004         28.0004
 -10432307.03847 -12121017.31545  21926535.5864                   21926525.4614
        44.7504         35.5004
 -27471600.29448 -21276691.48249  20538898.6484                   20538889.8134
        51.0004         55.0004
 -12278506.74647  -8876036.90344  23545653.8594                   23545641.8014
        42.5004         28.0004
  -9403123.02846  -6474408.55144  24376015.2424                   24376005.7034
        40.0004         26.0004
  -3013662.54046  -2280330.77345  24761689.9924                   24761678.5784
        37.5004         33.5004
                                  25022491.3674                   25022484.3484
        29.7504         16.2504
 -25381810.91648 -21194884.69449  20626248.3674                   20626239.0044
        51.5004         55.0004
 23  1 10  0  3  0.0000000  0 11G08G27G22G24G23G10G21G18G31G01G32
  -7913239.23046  -6137382.87946  23744224.6414                   23744216.0984
        40.0004         36.0004
  -8276235.58146  -6224930.01745  24042408.8914                   24042401.7544
        37.0004         33.0004
  -9744856.50747  -8387829.96745  21917350.1094                   21917339.5744
        46.0004         33.7504
 -12406699.26046 -10304165.85644  22875673.5944                   22875664.9344
        38.5004         27.2504
 -10367864.01247 -12070801.98446  21938799.5944                   21938788.1804
        45.5004         36.0004
 -27462132.73948 -21269314.16849  20540700.2504                   20540691.4144
        51.0004         54.7504
 -12351606.69046  -8932997.89644  23531743.4224                   23531731.0124
        41.7504         27.0004
  -9288823.55346  -6385344.03344  24397766.6804                   24397755.8524
        40.2504         26.2504
  -3132974.49346  -2373301.14645  24738986.1174                   24738974.6454
        38.5004         33.5004
    129184.10354   -324517.31352  25001264.7274                   25001256.2424
        29.0004         16.7504
 -25404883.55748 -21212863.36549  20621857.3134                   20621848.3014
        51.5004         55.0004
 23  1 10  0  3 30.0000000  0 11G08G27G22G24G23G10G21G18G31G01G32
  -7864475.00846  -6099384.83246  23753503.7274                   23753497.2344
        40.0004         36.7504
  -8187734.13946  -6155967.90245  24059250.4454                   24059243.1334
        36.5004         32.5004
  -9813254.82247  -8441127.31145  21904333.8984                   21904323.7734
        45.0004         33.2504
 -12336838.64746 -10249729.01844  22888968.5314                   22888959.2274
        39.0004         28.2504
 -10303183.43047 -12020401.53845  21951107.8674                   21951096.9224
        45.0004         35.7504
 -27452363.69348 -21261701.92349  20542559.1484                   20542550.4304
        51.0004         54.7504
 -12424436.27346  -8989748.20344  23517884.1954                   23517873.3094
        41.5004         28.0004
  -9174412.20946  -6296192.36144  24419537.0004                   24419528.1054
        38.5004         25.7504
  -3252311.32446  -2466290.92745  24716276.2504                   24716265.2464
        38.0004         33.0004
                                  24980062.2274                   24980054.0354
        30.7504         17.7504
 -25427541.37748 -21230518.79249  20617545.9454                   20617536.5824
        51.7504         54.7504
 23  1 10  0  4  0.0000000  0 11G08G27G22G24G23G10G21G18G31G01G32
  -7815290.51946  -6061059.31046  23762864.1254                   23762857.1644
        40.2504         36.5004
  -8099066.45146  -6086876.20145  24076124.0314                   24076115.3134
        36.7504         32.2504
  -9881338.40347  -8494179.42545  21891378.7194                   21891367.8914
        46.0004         33.0004
 -12266475.72146 -10194900.78844  22902357.9224                   22902348.9694
        39.0004         27.7504
 -10238269.40747 -11969819.21446  21963460.6174                   21963449.6724
        44.7504         36.0004
 -27442296.96048 -21253857.72649  20544474.8914                   20544466.0554
        52.7504         54.7504
 -12496997.34047  -9046289.27744  23504075.9454                   23504064.4734
        42.0004         28.0004
  -9059895.13546  -6206958.29944  24441330.5474                   24441319.7194
        39.7504         25.2504
  -3371674.13446  -2559300.94445  24693562.4144                   24693551.8204
        37.2504         33.7504
                                  24958877.6094                   24958871.2344
        29.2504         18.5004
 -25449788.55248 -21247854.24349  20613312.1724                   20613303.1024
        52.0004         54.7504
 23  1 10  0  4 30.0000000  0 11G08G27G22G24G23G10G21G18G31G01G32
  -7765689.10346  -6022408.88245  23772303.2344                   23772295.1024
        40.5004         35.5004
  -8010236.26145  -6017657.88345  24093026.6644                   24093020.0554
        35.7504         33.0004
  -9949107.42347  -8546986.43445  21878482.1094                   21878471.9844
        45.5004         33.5004
 -12195613.69246 -10139683.60444  22915843.1334                   22915833.6524
        39.5004         28.0004
 -10173122.97147 -11919055.76246  21975857.1644                   21975846.5124
        45.0004         36.0004
 -27431932.46048 -21245781.49849  20546447.2664                   20546438.4884
        51.5004         55.0004
 -12569288.89746  -9102620.36744  23490319.9384                   23490307.4104
        41.5004         27.7504
  -8945275.11346  -6117644.00444  24463139.6804                   24463131.6054
        38.7504         25.2504
  -3491060.82546  -2652329.56245  24670843.0944                   24670833.3794
        37.0004         33.0004
   -204757.57655   -497485.89453  24937716.0704                   24937709.4614
        31.5004         18.2504
 -25471626.18248 -21264870.56249  20609156.6254                   20609147.5554
        51.7504         55.0004
 23  1 10  0  5  0.0000000  0 11G08G27G22G24G23G10G21G18G31G01G32
  -7715668.10946  -5983431.50545  23781820.5474                   23781812.1804
        39.5004         34.7504
  -7921242.59846  -5948312.20145  24109962.1094                   24109954.1524
        36.5004         32.2504
 -10016556.85747  -8599544.41245  21865646.9224                   21865636.8554
        46.5004         33.7504
 -12124250.72546 -10084076.10844  22929420.9844                   22929413.3794
        37.7504         25.7504
 -10107740.14447 -11868108.11445  21988298.9384                   21988288.0514
        44.5004         35.5004
 -27421265.17048 -21237469.32049  20548477.1254                   20548468.2894
        51.2504         55.0004
 -12641304.62647  -9158736.51944  23476615.0704                   23476604.2424
        42.0004         27.2504
  -8830550.14946  -6028247.94943  24484973.2344                   24484962.8754
        39.7504         23.7504
  -3610464.32146  -2745371.29445  24648122.3914                   24648111.4454
        37.5004         33.7504
                                  24916575.0394                   24916569.5434
        29.0004         15.5004
 -25493050.34748 -21281564.70149  20605080.3444                   20605070.7464
        51.7504         55.0004
 23  1 10  0  5 30.0000000  0 11G08G27G22G24G23G10G21G18G31G01G32
  -7665233.76446  -5944132.07345  23791418.3984                   23791410.1484
        39.0004         34.7504
  -7832091.94746  -5878844.15645  24126926.6644                   24126919.4104
        36.2504         32.5004
 -10083689.66347  -8651855.63645  21852871.5554                   21852861.9574
        45.7504         34.5004
 -12052392.78346 -10028082.90544  22943097.2194                   22943087.7384
        39.7504         27.5004
 -10042124.70147 -11816979.22345  22000785.5314                   22000774.7624
        46.0004         35.0004
 -27410298.44348 -21228923.82649  20550564.0084                   20550555.4064
        50.5004         54.7504
 -12713046.03547  -9214638.88244  23462963.7424                   23462951.8594
        42.2504         28.5004
  -8715725.85446  -5938774.50144  24506821.7274                   24506812.8324
        37.2504         25.5004
  -3729885.73145  -2838426.94645  24625395.8204                   24625386.8674
        35.7504         33.5004
   -426824.86955   -670525.47252  24895458.4844                   24895451.4064
        31.5004         16.2504
 -25514064.89248 -21297939.65649  20601081.0314                   20601071.6094
        51.0004         54.7504
 23  1 10  0  6  0.0000000  0 11G08G27G22G24G23G10G21G18G31G01G32
  -7614387.77446  -5904511.83645  23801094.0704                   23801087.6374
        40.0004         35.5004
  -7742786.65146  -5809255.65845  24143922.2734                   24143913.6724
        37.2504         33.0004
 -10150504.39047  -8703919.02045  21840157.9774                   21840147.6764
        47.0004         35.0004
 -11980041.62946  -9971705.38544  22956864.6724                   22956855.4844
        38.0004         26.0004
  -9976276.24247 -11765668.74745  22013316.3444                   22013305.1644
        45.7504         35.7504
 -27399030.86148 -21220143.89849  20552708.1254                   20552699.0554
        51.0004         54.7504
 -12784510.65146  -9270325.62444  23449364.3524                   23449352.0004
        41.7504         27.2504
  -8600803.72346  -5849224.78644  24528693.3444                   24528682.4574
        39.7504         24.5004
  -3849321.46846  -2931493.78345  24602669.3204                   24602658.5514
        38.2504         34.2504
   -537680.32955   -756906.38652  24874361.4304                   24874355.5234
        30.2504         15.5004
 -25534669.43748 -21313995.13549  20597160.1254                   20597150.7034
        51.0004         55.0004
 23  1 10  0  6 30.0000000  0 11G08G27G22G24G23G10G21G18G31G01G32
  -7563131.83946  -5864572.20946  23810848.0164                   23810841.9344
        39.7504         36.0004
  -7653329.12846  -5739548.50745  24160944.0004                   24160936.6294
        36.5004         32.0004
 -10216999.55147  -8755733.38445  21827503.3674                   21827493.3014
        46.0004         34.5004
 -11907198.84646  -9914944.78344  22970725.5164                   22970716.5044
        38.5004         26.7504
  -9910194.18447 -11714176.24345  22025890.9384                   22025880.2854
        45.7504         35.7504
 -27387461.38748 -21211128.72449  20554909.8524                   20554900.9574
        50.5004         54.7504
 -12855695.38047  -9325794.22144  23435818.3284                   23435806.7384
        43.0004         27.7504
  -8485785.05946  -5759599.85243  24550578.6484                   24550569.5204
        37.5004         22.5004
  -3968767.75646  -3024568.83845  24579939.8834                   24579928.6454
        38.5004         34.5004
   -648412.57555   -843191.25353  24853292.3834                   24853283.6054
        33.2504         18.2504
 -25554863.57548 -21329730.80949  20593316.9694                   20593308.1334
        50.7504         54.7504
 23  1 10  0  7  0.0000000  0 11G08G27G22G24G23G10G21G18G31G01G32
  -7511469.58846  -5824315.94145  23820677.7894                   23820671.5904
        37.5004         34.0004
  -7563723.60246  -5669726.03345  24177996.5234                   24177988.5084
        38.0004         32.5004
 -10283175.55647  -8807299.05445  21814911.5084                   21814900.7974
        47.5004         34.5004
 -11833868.01046  -9857803.86244  22984681.1954                   22984671.5984
        38.5004         27.0004
  -9843879.83147 -11662502.73245  22038509.9844                   22038499.2734
        45.5004         35.5004
 -27375590.25148 -21201878.48849  20557168.9144                   20557160.0784
        50.7504         54.7504
 -12926599.25947  -9381043.99444  23422325.7274                   23422313.9614
        42.5004         27.5004
  -8370673.04546  -5669902.19743  24572483.5004                   24572474.3714
        37.0004         23.2504
  -4088222.76046  -3117650.66645  24557208.0944                   24557197.3244
        37.7504         34.0004
   -759020.03255   -929378.94852  24832242.8594                   24832236.5434
        31.7504         17.2504
 -25574648.65948 -21345147.74249  20589552.0704                   20589543.0594
        51.5004         55.0004
 23  1 10  0  7 30.0000000  0 11G08G27G22G24G23G10G21G18G31G01G32
  -7459401.44346  -5783743.39945  23830586.3594                   23830578.2274
        37.7504         33.2504
  -7473971.44346  -5599789.30345  24195074.9064                   24195067.0664
        37.2504         31.7504
 -10349030.25747  -8858614.37145  21802378.9534                   21802368.5944
        46.5004         35.0004
 -11760049.95546  -9800283.31944  22998727.3284                   22998718.1994
        37.7504         26.0004
  -9777331.90847 -11610647.22345  22051173.5394                   22051163.3554
        46.2504         35.2504
 -27363415.49748 -21192391.67049  20559485.4924                   20559476.5394
        51.7504         54.7504
 -12997219.02847  -9436072.38844  23408887.6094                   23408875.1994
        42.2504         29.2504
  -8255468.26546  -5580132.23543  24594406.6724                   24594396.8984
        38.0004         22.5004
  -4207682.31046  -3210736.06045  24534475.5554                   24534464.9024
        38.5004         34.7504
   -869498.54845  -1015466.15842  24811221.6254                   24811213.3164
        33.5004         17.7504
 -25594023.52948 -21360245.03349  20585865.2814                   20585856.1524
        52.0004         54.7504
 23  1 10  0  8  0.0000000  0 11G08G27G22G24G23G10G21G18G31G01G32
  -7406932.83246  -5742858.77845  23840572.9694                   23840563.9574
        39.0004         35.2504
  -7384078.78446  -5529743.06845  24212181.0004                   24212173.4534
        37.5004         32.0004
 -10414566.25047  -8909681.31245  21789908.7114                   21789897.4144
        47.2504         35.0004
 -11685750.16946  -9742387.37244  23012865.3364                   23012856.9694
        37.5004         27.0004
  -9710553.65647 -11558612.23746  22063881.5314                   22063870.8794
        46.7504         36.0004
 -27350939.50948 -21182670.11549  20561859.5314                   20561850.5784
        51.2504         54.7504
 -13067555.66447  -9490880.15144  23395503.8134                   23395491.0514
        42.7504         29.2504
  -8140175.83346  -5490293.98743  24616345.0634                   24616337.3404
        37.0004         22.2504
  -4327146.28646  -3303824.89445  24511740.3444                   24511731.6844
        36.5004         35.2504
   -979848.48545  -1101453.13642  24790221.7734                   24790214.1094
        32.0004         17.7504
 -25612991.51648 -21375025.26449  20582256.0164                   20582246.5944
        51.7504         55.0004
 23  1 10  0  8 30.0000000  0 11G08G27G22G24G23G10G21G18G31G01G32
  -7354063.86446  -5701662.21545  23850631.7664                   23850625.9184
        38.2504         34.5004
  -7294046.02946  -5459587.68145  24229312.8524                   24229307.2384
        36.7504         32.7504
 -10479780.23847  -8960497.36145  21777498.3834                   21777488.0824
        47.2504         34.7504
 -11610968.68646  -9684116.08144  23027096.0944                   23027087.3164
        37.5004         26.5004
  -9643542.78147 -11506395.98946  22076632.8364                   22076622.2424
        46.5004         36.0004
 -27338159.07848 -21172711.33349  20564291.6644                   20564282.4774
        50.2504         55.0004
 -13137604.90747  -9545463.99644  23382172.3134                   23382160.9574
        42.0004         28.0004
  -8024795.33646  -5400387.12543  24638303.2894                   24638292.5204
        39.2504         23.7504
  -4446609.50946  -3396913.10246  24489009.1644                   24488998.6294
        38.5004         36.2504
  -1090064.63945  -1187335.82942  24769248.3754                   24769240.9454
        33.7504         16.2504
 -25631550.44648 -21389486.75649  20578724.0474                   20578715.2704
        51.0004         55.0004
 23  1 10  0  9  0.0000000  0 11G08G27G22G24G23G10G21G18G31G01G32
  -7300797.13046  -5660155.73445  23860767.9534                   23860761.9304
        37.0004         33.2504
  -7203876.93246  -5389326.07045  24246473.4304                   24246464.8284
        37.5004         32.0004
 -10544671.79947  -9011062.14645  21765149.9614                   21765139.3094
        47.5004         34.7504
 -11535708.32746  -9625471.65744  23041417.0164                   23041409.2934
        36.5004         25.7504
  -9576299.99447 -11453999.02545  22089429.5784                   22089418.2234
        45.7504         35.7504
 -27325074.39148 -21162515.48249  20566781.6094                   20566772.6564
        51.5004         54.7504
 -13207364.73947  -9599822.28344  23368897.6174                   23368885.6174
        42.5004         28.2504
  -7909329.34146  -5310413.61443  24660273.7734                   24660265.1134
        37.2504         22.7504
  -4566069.54446  -3489998.84645  24466276.7584                   24466265.7544
        38.5004         34.5004
  -1200144.77645  -1273112.64642  24748300.9454                   24748293.1644
        32.5004         17.7504
 -25649701.21548 -21403630.20649  20575270.2504                   20575261.1214
        52.0004         55.0004
 23  1 10  0  9 30.0000000  0 11G08G27G22G24G23G10G21G18G31G01G32
  -7247136.40246  -5618342.21345  23870981.1174                   23870972.5164
        37.5004         33.5004
  -7113575.31846  -5318961.19545  24263656.8834                   24263648.3984
        38.2504         33.0004
 -10609241.30347  -9061376.00345  21752863.3524                   21752852.2304
        46.7504         35.0004
 -11459972.58046  -9566456.78844  23055829.5164                   23055821.0314
        37.2504         24.5004
  -9508826.46847 -11401422.26545  22102268.5784                   22102257.7504
        45.7504         35.2504
 -27311685.53948 -21152082.60649  20569329.6564                   20569320.4694
        50.7504         54.7504
 -13276834.01147  -9653954.17444  23355679.1884                   23355666.6604
        42.2504         29.0004
  -7793780.97446  -5220375.90043  24682263.4694                   24682253.5204
        38.5004         22.5004
  -4685524.11246  -3583080.35445  24443545.1954                   24443534.4844
        38.2504         35.0004
  -1310087.33345  -1358782.19343  24727379.5234                   24727370.9804
        33.7504         18.5004
 -25667444.99448 -21417456.51049  20571893.5234                   20571884.4534
        52.0004         54.7504
 23  1 10  0 10  0.0000000  0 11G08G27G22G24G23G10G21G18G31G01G32
  -7193083.77046  -5576223.27245  23881267.3594                   23881257.9964
        39.2504         33.0004
  -7023144.27046  -5248495.45445  24280863.9614                   24280857.7034
        37.2504         32.5004
 -10673488.19347  -9111438.46845  21740637.5474                   21740626.6024
        47.2504         35.2504
 -11383763.94946  -9507073.42744  23070332.7344                   23070323.1954
        38.0004         25.5004
  -9441122.45547 -11348665.90745  22115152.6024                   22115141.5984
        45.7504         35.2504
 -27297992.03648 -21141412.34049  20571935.5394                   20571926.1764
        52.0004         55.0004
 -13346011.08647  -9707858.38744  23342514.4144                   23342502.5904
        42.0004         28.0004
  -7678152.29645  -5130275.60843  24704265.2664                   24704257.0164
        35.7504         22.5004
  -4804970.82646  -3676155.72745  24420814.2974                   24420804.7584
        37.5004         34.5004
  -1419889.45945  -1444342.34343  24706484.2194                   24706476.7894
        33.2504         18.5004
 -25684782.31148 -21430966.09349  20568594.1884                   20568585.3524
        52.2504         54.7504
 23  1 10  0 10 30.0000000  0 11G08G27G22G24G23G10G21G18G31G01G32
  -7138640.98346  -5533800.33145  23891624.2424                   23891618.5704
        36.5004         31.7504
  -6932586.06346  -5177930.67345  24298096.5784                   24298089.2664
        37.7504         32.5004
 -10737411.12847  -9161248.50745  21728472.7664                   21728461.7624
        46.5004         35.0004
 -11307084.04646  -9447322.88044  23084923.9534                   23084915.0594
        37.5004         26.7504
  -9373187.37547 -11295729.50445  22128080.2894                   22128069.3444
        46.0004         35.5004
 -27283992.74748 -21130503.79549  20574599.6644                   20574590.4774
        51.0004         54.7504
 -13414892.96147  -9761532.56644  23329406.8054                   23329394.8054
        42.7504         28.7504
  -7562444.51846  -5040113.76343  24726284.0784                   24726275.4774
        36.7504         22.5004
  -4924405.62546  -3769221.80745  24398087.5084                   24398077.1484
        38.0004         35.2504
  -1529547.74745  -1529790.34642  24685617.5314                   24685609.4574
        33.7504         17.7504
 -25701712.65348 -21444158.55649  20565372.3134                   20565363.5354
        51.5004         54.7504
 23  1 10  0 11  0.0000000  0 11G08G27G22G24G23G10G21G18G31G01G32
  -7083811.18245  -5491075.91945  23902059.1334                   23902053.1684
        35.5004         32.2504
  -6841904.67246  -5107269.85445  24315353.7504                   24315345.3834
        38.5004         33.0004
 -10801010.43447  -9210806.35245  21716370.2344                   21716359.6994
        46.0004         35.5004
 -11229936.37846  -9387207.83044  23099604.9694                   23099595.3134
        38.2504         25.5004
  -9305022.34147 -11242613.89845  22141051.5634                   22141040.5004
        46.5004         35.5004
 -27269687.99748 -21119357.24249  20577321.8364                   20577312.5904
        50.5004         54.7504
 -13483478.63647  -9814975.97244  23316355.9844                   23316343.5164
        43.0004         29.7504
  -7446660.86646  -4949892.70743  24748318.4454                   24748307.9694
        38.0004         22.5004
  -5043826.74846  -3862277.22845  24375361.7034                   24375351.5784
        38.2504         34.7504
  -1639060.33245  -1615124.86443  24664778.3204                   24664770.1884
        34.2504         19.2504
 -25718237.35948 -21457034.93849  20562228.1174                   20562218.9884
        52.5004         54.7504
 23  1 10  0 11 30.0000000  0 11G08G27G22G24G23G10G21G18G31G01G32
  -7028596.88646  -5448051.80845  23912568.4694                   23912559.1644
        38.5004         33.7504
  -6751102.60046  -5036515.00345  24332633.1024                   24332625.3794
        38.0004         33.7504
 -10864285.18747  -9260111.32345  21704329.2194                   21704318.8014
        46.7504         35.0004
 -11152323.08046  -9326729.89744  23114373.3674                   23114364.5314
        37.5004         24.7504
  -9236627.26347 -11189319.05145  22154066.7504                   22154055.8634
        46.5004         35.0004
 -27255076.72248 -21107971.83849  20580101.8134                   20580092.6844
        51.5004         54.7504
 -13551765.66547  -9868186.62444  23303360.0944                   23303348.9734
        42.0004         28.5004
  -7330802.80646  -4859613.69143  24770365.1954                   24770355.1884
        36.5004         22.2504
  -5163230.67446  -3955319.22745  24352640.2424                   24352629.5314
        37.5004         34.7504
  -1748424.19345  -1700343.46543  24643966.3674                   24643958.1764
        34.2504         19.0004
 -25734356.46248 -21469595.26149  20559160.6414                   20559151.6294
        52.0004         55.0004
 23  1 10  0 12  0.0000000  0 11G08G27G22G24G23G10G21G18G31G01G32
  -6973000.95546  -5404730.27245  23923146.8834                   23923138.3984
        37.2504         32.7504
  -6660183.62646  -4965669.06345  24349935.0004                   24349925.7544
        39.2504         32.5004
 -10927235.21947  -9309163.26745  21692350.5864                   21692339.9344
        45.2504         35.5004
 -11074247.22046  -9265891.61144  23129231.9614                   23129222.7154
        39.0004         26.0004
  -9168002.95947 -11135845.59145  22167125.6024                   22167114.4804
        46.2504         35.0004
 -27240158.74148 -21096347.42849  20582940.5704                   20582931.6764
        51.0004         54.7504
 -13619752.84347  -9921163.63344  23290423.3204                   23290410.8524
        42.7504         29.0004
  -7214873.23445  -4769278.95743  24792423.9694                   24792416.1294
        34.7504         21.7504
  -5282615.22246  -4048346.13445  24329923.3134                   24329911.8984
        39.2504         35.5004
  -1857637.02345  -1785444.44743  24623183.4454                   24623176.7774
        34.2504         20.2504
 -25750070.90948 -21481840.27049  20556170.1254                   20556161.1724
        52.5004         54.7504
 23  1 10  0 12 30.0000000  0 11G08G27G22G24G23G10G21G18G31G01G32
  -6917025.02445  -5361112.70345  23933795.9144                   23933791.1844
        33.0004         31.5004
  -6569149.73146  -4894733.60645  24367258.2974                   24367249.8714
        39.0004         33.5004
 -10989859.22947  -9357961.15545  21680433.6484                   21680422.7034
        46.2504         35.0004
 -10995710.52846  -9204694.16244  23144176.8524                   23144167.4884
        38.0004         26.0004
  -9099148.76947 -11082192.98945  22180228.0634                   22180216.9414
        46.2504         35.0004
 -27224932.76148 -21084483.03549  20585837.8674                   20585828.9734
        51.2504         55.0004
 -13687436.99947  -9973904.55144  23277543.2194                   23277531.2774
        43.0004         28.0004
  -7098873.26545  -4678889.40043  24814498.1564                   24814490.2584
        35.7504         22.0004
  -5401976.75146  -4141355.16445  24307207.9774                   24307197.9694
        36.0004         35.2504
  -1966695.53445  -1870425.07843  24602430.5554                   24602423.8874
        34.7504         19.0004
 -25765380.23648 -21493769.60849  20553256.6884                   20553248.2034
        52.0004         55.0004
 23  1 10  0 13  0.0000000  0 11G08G27G22G24G23G10G21G18G31G01G32
  -6860672.09645  -5317201.39845  23944521.8204                   23944514.8014
        35.5004         32.0004
  -6478004.77946  -4823711.56145  24384600.8204                   24384593.6254
        37.0004         32.7504
 -11052157.28347  -9406505.06845  21668578.2274                   21668567.9844
        46.5004         35.2504
 -10916716.28546  -9143140.21944  23159209.3754                   23159199.4264
        39.5004         26.0004
  -9030065.71847 -11028362.05745  22193374.1804                   22193363.4694
        46.2504         35.0004
 -27209399.15048 -21072378.91849  20588793.6804                   20588784.5514
        51.5004         55.0004
 -13754817.03247 -10026408.47044  23264721.4064                   23264709.5824
        42.5004         29.2504
  -6982805.79745  -4588447.16243  24836586.5474                   24836576.1884
        35.2504         21.5004
  -5521312.68046  -4234344.15245  24284498.5474                   24284489.1844
        36.5004         35.0004
  -2075597.43745  -1955283.74643  24581708.1334                   24581699.7074
        35.0004         18.5004
 -25780285.68748 -21505384.22649  20550420.4534                   20550412.3794
        52.5004         54.7504
 23  1 10  0 13 30.0000000  0 11G08G27G22G24G23G10G21G18G31G01G32
  -6803945.27946  -5272998.68945  23955317.3914                   23955309.4924
        37.0004         32.2504
  -6386751.93546  -4752605.46745  24401966.7974                   24401958.7814
        37.7504         33.2504
 -11114128.85547  -9454794.56945  21656785.6484                   21656774.9384
        45.7504         35.2504
 -10837267.20746  -9081231.84944  23174327.1954                   23174318.4184
        38.5004         26.5004
  -8960754.18847 -10974353.07945  22206562.9144                   22206553.0234
        45.5004         34.7504
 -27193557.35348 -21060034.65849  20591808.9774                   20591800.0234
        51.7504         55.0004
 -13821891.14147 -10078674.00044  23251957.7664                   23251945.2974
        42.2504         29.0004
  -6866673.05845  -4497954.08143  24858684.8834                   24858676.3404
        35.5004         22.0004
  -5640620.43146  -4327311.22445  24261796.7504                   24261785.6294
        37.0004         35.5004
  -2184340.19045  -2040018.38943  24561014.3984                   24561006.3244
        35.2504         18.5004
 -25794787.81548 -21516684.56949  20547661.0314                   20547651.9024
        53.2504         54.7504
 23  1 10  0 14  0.0000000  0 11G08G27G22G24G23G10G21G18G31G01G32
  -6746846.62645  -5228506.23244  23966181.9924                   23966174.0944
        34.0004         29.7504
  -6295393.80846  -4681417.31345  24419350.0864                   24419344.0044
        36.7504         33.0004
 -11175773.09847  -9502829.01045  21645055.0164                   21645044.4224
        45.7504         35.2504
 -10757365.41046  -9018970.73144  23189531.3834                   23189523.0164
        39.5004         26.0004
  -8891214.03647 -10920165.98045  22219796.3914                   22219786.0314
        45.5004         34.7504
 -27177406.68548 -21047449.71749  20594882.0944                   20594873.0234
        51.5004         55.0004
 -13888656.93347 -10130699.29644  23239252.7114                   23239240.1844
        42.7504         28.5004
  -6750476.74046  -4407411.48843  24880798.1954                   24880787.3094
        36.5004         21.5004
  -5759896.45945  -4420253.57345  24239097.2344                   24239087.8134
        34.7504         34.0004
  -2292920.72445  -2124626.59043  24540353.0084                   24540344.4654
        35.2504         19.2504
 -25808886.64248 -21527670.65649  20544978.1094                   20544969.0984
        52.5004         54.7504
 23  1 10  0 14 30.0000000  0 11G08G27G22G24G23G10G21G18G31G01G32
  -6689378.65845  -5183726.06345  23977117.6724                   23977109.8914
        33.5004         31.0004
  -6203934.00746  -4610149.95045  24436755.0864                   24436747.5394
        37.5004         32.7504
 -11237090.27347  -9550608.59145  21633386.7274                   21633376.2504
        46.2504         35.2504
 -10677014.18246  -8956359.37044  23204822.8134                   23204813.2734
        39.5004         26.0004
  -8821446.13347 -10865801.38645  22233072.8284                   22233062.3524
        46.0004         34.2504
 -27160946.89448 -21034623.90049  20598014.2424                   20598004.7624
        51.7504         55.0004
 -13955112.92647 -10182483.18744  23226606.2504                   23226594.5434
        42.5004         29.0004
  -6634219.61146  -4316821.51143  24902920.7894                   24902910.3134
        37.0004         20.5004
  -5879138.53246  -4513169.44345  24216408.9064                   24216396.8484
        38.0004         34.7504
  -2401336.99046  -2209106.80543  24519720.9384                   24519713.9184
        36.0004         19.7504
 -25822583.27548 -21538343.34849  20542371.3134                   20542362.6524
        53.0004         55.0004
 23  1 10  0 15  0.0000000  0 11G08G27G22G24G23G10G21G18G31G01G32
  -6631544.73346  -5138660.71745  23988124.4384                   23988116.3634
        36.2504         32.0004
  -6112375.66346  -4538805.77345  24454178.0314                   24454170.8954
        36.5004         32.5004
 -11298079.81147  -9598132.85745  21621780.9224                   21621770.2704
        46.5004         35.0004
 -10596216.16846  -8893399.89744  23220197.4304                   23220189.1804
        37.5004         25.2504
  -8751450.81547 -10811259.60045  22246392.2584                   22246381.8984
        45.0004         34.5004
 -27144177.56348 -21021556.89749  20601205.3594                   20601196.1724
        51.7504         55.2504
 -14021257.34947 -10234024.29244  23214019.9064                   23214007.1454
        43.5004         29.7504
  -6517903.81046  -4226185.80843  24925054.6024                   24925045.3554
        36.0004         21.2504
  -5998344.29946  -4606057.05845  24193722.8364                   24193712.4774
        37.0004         34.5004
  -2509586.07646  -2293456.77943  24499123.2344                   24499113.9884
        37.5004         20.0004
 -25835878.24848 -21548703.05749  20539841.8204                   20539833.1024
        52.0004         54.7504
 23  1 10  0 15 30.0000000  0 11G08G27G22G24G23G10G21G18G31G01G32
  -6573347.04945  -5093311.88845  23999198.0944                   23999190.3134
        33.5004         30.2504
  -6020721.24046  -4467386.76345  24471619.8444                   24471612.0634
        37.5004         32.2504
 -11358740.66547  -9645401.03245  21610237.9844                   21610226.9224
        47.0004         35.5004
 -10514973.43046  -8830093.88144  23235658.3834                   23235648.8444
        39.0004         25.7504
  -8681227.86447 -10756540.43745  22259755.1024                   22259745.0354
        45.5004         34.7504
 -27127097.65448 -21008247.87049  20604455.7194                   20604446.4144
        51.7504         55.0004
 -14087087.48247 -10285320.50144  23201492.1254                   23201480.0084
        43.0004         28.7504
  -6401530.91145  -4135505.59743  24947198.9224                   24947189.6174
        35.0004         20.0004
  -6117509.67646  -4698913.18745  24171046.2424                   24171036.3524
        36.0004         34.2504
  -2617664.92645  -2377674.04143  24478554.8524                   24478547.9494
        35.5004         18.5004
 -25848771.54148 -21558749.76549  20537387.6884                   20537379.0274
        51.7504         54.7504
 23  1 10  0 16  0.0000000  0 11G08G27G22G24G23G10G21G18G31G01G32
  -6514788.36045  -5047681.86045  24010340.9064                   24010333.6524
        32.7504         30.7504
  -5928974.66445  -4395895.88945  24489076.8284                   24489070.5704
        34.0004         31.5004
 -11419073.26347  -9692413.40945  21598756.0164                   21598745.6564
        46.0004         35.5004
 -10433289.49446  -8766444.05944  23251201.2424                   23251192.2304
        38.7504         25.5004
  -8610778.40047 -10701644.76745  22273161.9774                   22273151.0904
        45.5004         33.7504
 -27109707.49148 -20994697.09949  20607765.0554                   20607755.7504
        52.0004         54.7504
 -14152602.68447 -10336371.30745  23189026.2114                   23189013.5664
        44.0004         30.5004
  -6285103.99646  -4044783.30743  24969355.0164                   24969344.4224
        36.0004         21.0004
  -6236632.59646  -4791736.23145  24148378.5784                   24148368.2774
        38.5004         35.5004
  -2725571.50446  -2461757.08643  24458024.3754                   24458013.8404
        39.2504         20.5004
 -25861264.52548 -21568484.54549  20535010.5004                   20535001.7234
        51.7504         55.0004
 23  1 10  0 16 30.0000000  0 11G08G27G22G24G23G10G21G18G31G01G32
  -6455870.41345  -5001771.79145  24021553.7344                   24021545.7194
        33.7504         30.0004
  -5837137.95146  -4324334.84845  24506555.3524                   24506546.9264
        38.2504         32.5004
 -11479076.19447  -9739168.90345  21587338.3674                   21587327.3634
        46.7504         35.0004
 -10351166.12446  -8702451.84744  23266829.1094                   23266820.6254
        39.0004         26.5004
  -8540101.79547 -10646572.10245  22286611.1804                   22286600.2344
        45.5004         34.2504
 -27092005.60948 -20980903.41949  20611133.5084                   20611124.3794
        52.0004         55.0004
 -14217799.66047 -10387174.14445  23176618.1414                   23176606.9614
        43.0004         30.2504
  -6168624.19446  -3954019.82443  24991522.3914                   24991509.8054
        38.0004         21.7504
  -6355709.14846  -4884523.13545  24125718.1484                   24125708.4924
        37.0004         34.2504
  -2833302.19146  -2545703.08543  24437520.6884                   24437513.1994
        37.0004         19.5004
 -25873356.74548 -21577907.04749  20532709.7734                   20532700.8204
        52.0004         55.0004
 23  1 10  0 17  0.0000000  0 11G08G27G22G24G23G10G21G18G31G01G32
  -6396597.53845  -4955585.18345  24032834.6094                   24032825.3054
        35.5004         30.5004
  -5745215.93145  -4252707.25945  24524047.0944                   24524039.2544
        35.7504         32.5004
 -11538750.79147  -9785668.55245  21575982.5004                   21575971.7304
        47.5004         35.7504
 -10268607.56846  -8638120.50544  23282539.9614                   23282530.8324
        39.2504         26.5004
  -8469200.04347 -10591323.99845  22300103.2034                   22300092.3164
        45.0004         34.0004
 -27073993.19748 -20966867.76949  20614561.0944                   20614552.1994
        52.0004         55.0004
 -14282678.28347 -10437728.90545  23164273.3594                   23164260.2464
        44.5004         31.2504
  -6052095.18745  -3863217.90243  25013691.8444                   25013684.6484
        32.2504         21.2504
  -6474738.37445  -4977273.25345  24103066.4534                   24103058.7304
        34.0004         34.7504
  -2940855.94646  -2629511.20543  24417056.5634                   24417045.9104
        39.2504         20.5004
 -25885050.43548 -21587019.00149  20530484.1954                   20530475.4774
        52.7504         54.7504
 23  1 10  0 17 30.0000000  0 11G08G27G22G24G23G10G21G18G31G01G32
 -12638650.77155  -9819522.82555  24044177.7424                   24044171.5434
        31.7504         30.0004
  -5653209.43346  -4181013.90245  24541554.8754                   24541547.2704
        36.0004         30.5004
 -11598094.30447  -9831910.21145  21564690.1884                   21564678.8914
        47.0004         35.7504
 -10185614.49546  -8573450.59844  23298332.3984                   23298323.7384
        39.0004         25.0004
  -8398071.32047 -10535899.05545  22313639.0784                   22313627.9574
        45.7504         34.0004
 -27055667.88648 -20952588.29949  20618048.2894                   20618039.1604
        51.5004         55.2504
 -14347234.86547 -10488032.74645  23151988.1094                   23151976.2274
        44.5004         30.7504
  -5935517.23346  -3772378.04443  25035880.7424                   25035869.3284
        37.2504         22.0004
  -6593715.25546  -5069982.44645  24080428.5164                   24080417.3364
        38.2504         35.7504
  -3048227.82846  -2713177.64943  24396622.1094                   24396614.3874
        37.7504         19.0004
 -25896344.08148 -21595819.23049  20528335.3754                   20528326.2464
        52.2504         54.7504
 23  1 10  0 18  0.0000000  0 11G08G27G22G24G23G10G21G18G31G01G32
 -12578673.91545  -9772787.68645  24055592.7504                   24055584.7934
        34.2504         30.7504
  -5561123.15146  -4109258.33745  24559079.2814                   24559070.3874
        36.2504         31.7504
 -11657107.93647  -9877894.83045  21553459.5704                   21553448.8014
        46.2504         35.5004
 -10102191.17446  -8508445.39444  23314207.6484                   23314198.9304
        38.2504         24.0004
  -8326717.65947 -10480298.79945  22327217.1414                   22327205.9614
        45.5004         34.0004
 -27037030.68148 -20938065.81049  20621594.7734                   20621585.7034
        51.7504         55.0004
 -14411468.64847 -10538085.02445  23139763.8204                   23139753.0514
        43.0004         31.0004
  -5818894.11346  -3681502.78643  25058071.7424                   25058061.3834
        36.5004         19.7504
  -6712638.53946  -5162649.94745  24057795.8834                   24057787.3984
        36.0004         35.2504
  -3155416.74046  -2796701.49143  24376225.9384                   24376216.5744
        38.7504         19.5004
 -25907239.84648 -21604309.42349  20526261.9384                   20526252.9844
        52.5004         55.0004
 23  1 10  0 18 30.0000000  0 11G08G27G22G24G23G10G21G18G31G01G32
 -12518349.17945  -9725781.42245  24067072.4384                   24067064.2464
        34.5004         31.2504
  -5468959.59746  -4037442.58145  24576617.6334                   24576608.9734
        36.5004         31.7504
 -11715790.78947  -9923621.67546  21542292.7814                   21542282.1884
        47.2504         36.0004
 -10018339.74946  -8443106.61644  23330164.0704                   23330155.0594
        39.0004         24.2504
  -8255138.77547 -10424523.07545  22340837.2424                   22340826.7664
        45.0004         33.5004
 -27018080.08748 -20923299.10649  20625200.9924                   20625191.9224
        51.0004         55.0004
 -14475377.10447 -10587883.81845  23127604.5314                   23127591.2424
        45.5004         31.2504
  -5702227.27445  -3590593.48243  25080271.2114                   25080263.7814
        33.5004         21.0004
  -6831504.19946  -5255272.55746  24035177.4454                   24035167.9064
        36.7504         36.0004
  -3262419.50846  -2880080.27943  24355862.5004                   24355854.3094
        36.5004         19.2504
 -25917737.78748 -21612489.62449  20524264.1564                   20524255.0274
        52.0004         55.0004
 23  1 10  0 19  0.0000000  0 11G08G27G22G24G23G10G21G18G31G01G32
 -12457679.09345  -9678506.09845  24078615.0554                   24078609.3244
        31.5004         30.0004
  -5376721.28446  -3965568.54944  24594168.6884                   24594160.4964
        36.2504         29.7504
 -11774141.90247  -9969090.03946  21531189.2584                   21531178.0204
        47.0004         36.5004
  -9934062.47146  -8377436.02744  23346201.0474                   23346192.3284
        39.0004         24.5004
  -8183334.48847 -10368571.70045  22354501.7584                   22354490.9304
        45.7504         34.2504
 -26998815.55948 -20908287.78749  20628866.8134                   20628857.8594
        51.5004         55.5004
 -14538958.42647 -10637427.71145  23115503.7974                   23115491.9734
        42.7504         30.5004
                                  25102479.1414                   25102472.7074
        34.5004         20.5004
  -6950309.23746  -5347847.89246  24012571.0084                   24012559.8284
        39.0004         36.0004
  -3369232.65746  -2963311.31543  24335537.2034                   24335529.0124
        38.0004         21.0004
 -25927837.95848 -21620359.88249  20522342.3364                   20522333.1484
        53.0004         54.7504
 23  1 10  0 19 30.0000000  0 11G08G27G22G24G23G10G21G18G31G01G32
                                  24090228.2974                   24090219.6954
        34.2504         30.7504
  -5284412.10046  -3893639.30045  24611734.8674                   24611727.1454
        36.2504         30.2504
 -11832162.09747 -10014300.54046  21520147.7974                   21520137.1454
        47.0004         36.5004
  -9849362.91646  -8311436.38544  23362320.1174                   23362310.5204
        39.5004         25.5004
  -8111306.06147 -10312445.65445  22368208.3524                   22368197.3484
        45.0004         34.0004
 -26979237.37448 -20893032.05849  20632592.3364                   20632583.2074
        51.0004         55.5004
 -14602211.21047 -10686715.58245  23103467.5864                   23103456.2304
        44.2504         31.2504
 -18072130.48646 -13229479.18043  25124701.9454                   25124688.8324
        39.5004         20.5004
  -7069051.35746  -5440374.19346  23989974.6024                   23989964.5354
        38.7504         36.7504
  -3475854.42446  -3046393.21543  24315247.1414                   24315239.2424
        36.2504         19.7504
 -25937541.82548 -21627921.33349  20520496.0164                   20520486.7704
        52.2504         54.7504
 23  1 10  0 20  0.0000000  0 11G08G27G22G24G23G10G21G18G31G01G32
 -12335314.61545  -9583157.26445  24101901.4844                   24101894.9924
        32.5004         31.0004
  -5192034.92045  -3821657.10145  24629314.9694                   24629306.6024
        35.7504         30.5004
 -11889850.56647 -10059252.57246  21509170.4144                   21509159.4104
        46.5004         36.2504
  -9764243.68646  -8245109.70844  23378517.3134                   23378507.9494
        39.0004         25.5004
  -8039053.64147 -10256145.09345  22381957.4774                   22381946.7664
        45.2504         33.7504
 -26959345.18648 -20877531.64649  20636377.7814                   20636368.5354
        50.7504         54.7504
 -14665133.79847 -10735746.17545  23091493.9844                   23091481.8094
        45.0004         31.5004
 -17955345.58154 -13138477.76153  25146917.9454                   25146912.5084
        29.0004         18.5004
  -7187727.68146  -5532849.21645  23967389.5944                   23967380.6414
        37.7504         35.7504
  -3582281.84346  -3129323.75243  24294996.3444                   24294986.7464
        38.5004         19.7504
 -25946849.89648 -21635174.36149  20518724.3054                   20518715.5274
        52.5004         55.0004
 23  1 10  0 20 30.0000000  0 11G08G27G22G24G23G10G21G18G31G01G32
 -12273625.37445  -9535087.78745  24113641.7274                   24113634.5314
        31.5004         30.0004
  -5099592.28045  -3749623.86144  24646905.0704                   24646896.0004
        35.5004         28.5004
 -11947206.49647 -10103945.46246  21498255.6724                   21498244.6094
        47.2504         36.7504
  -9678706.94846  -8178457.70544  23394794.0704                   23394784.8834
        38.2504         25.2504
  -7966577.05447 -10199669.85445  22395749.8674                   22395739.0984
        45.7504         33.2504
 -26939137.72848 -20861785.58049  20640222.9144                   20640213.6094
        49.5004         55.0004
 -14727723.58247 -10784517.42345  23079582.1414                   23079570.5514
        43.0004         31.0004
 -17838525.28145 -13047449.11043  25169151.9844                   25169143.9694
        35.0004         21.7504
  -7306334.35146  -5625270.04646  23944821.2664                   23944810.6724
        38.0004         37.2504
  -3688511.62246  -3212100.16943  24274779.1484                   24274772.4224
        36.0004         20.0004
 -25955762.18148 -21642118.98649  20517028.6024                   20517019.5904
        51.5004         55.0004
 23  1 10  0 21  0.0000000  0 11G08G27G22G24G23G10G21G18G31G01G32
 -12211602.17745  -9486758.12144  24125446.2424                   24125436.5274
        34.2504         29.7504
  -5007087.64745  -3677542.37044  24664507.2894                   24664500.4454
        35.0004         29.7504
 -12004229.93847 -10148379.28446  21487404.2584                   21487393.7814
        46.5004         37.2504
  -9592755.94946  -8111482.91944  23411149.5784                   23411141.0944
        38.0004         24.5004
  -7893877.18247 -10143020.61845  22409583.5084                   22409572.4454
        45.0004         33.5004
 -26918614.98248 -20845793.84149  20644128.5554                   20644119.4264
        51.0004         55.0004
 -14789978.83147 -10833027.99845  23067737.5634                   23067725.3874
        44.0004         31.0004
 -17721672.32445 -12956394.77843  25191387.0784                   25191379.2384
        35.2504         19.0004
  -7424869.30746  -5717634.91346  23922263.5394                   23922254.0004
        38.0004         37.7504
  -3794541.48346  -3294720.83543  24254605.6094                   24254595.4264
        38.2504         21.5004
 -25964279.82648 -21648756.10249  20515407.2504                   20515398.5904
        52.5004         54.7504
 23  1 10  0 21 30.0000000  0 11G08G27G22G24G23G10G21G18G31G01G32
 -12149247.80945  -9438170.33544  24137309.6094                   24137301.6524
        33.0004         29.5004
  -4914524.44145  -3605415.18944  24682122.5944                   24682113.9344
        35.7504         28.5004
 -12060920.99547 -10192554.09246  21476616.6804                   21476605.3244
        46.5004         37.0004
  -9506393.89746  -8044187.81144  23427584.3284                   23427575.0824
        38.2504         25.2504
  -7820954.73047 -10086197.94545  22423460.7504                   22423449.5124
        45.0004         33.7504
 -26897776.91348 -20829556.38049  20648094.2114                   20648084.6724
        50.5004         54.7504
 -14851898.50747 -10881277.10145  23055953.8674                   23055942.2774
        43.5004         32.0004
 -17604789.29546 -12865317.15843  25213633.5944                   25213621.6524
        37.5004         20.7504
