     2.10           OBSERVATION DATA    G (GPS)             RINEX VERSION / TYPE
teqc  2004Apr5                          20041208 15:58:11UTCPGM / RUN BY / DATE
OBSERVATION MODE: Permanent                                 COMMENT
CHUM Chumysh (CHUM)                                         MARKER NAME
25601M001                                                   MARKER NUMBER
T136                ROGUE SNR-8000       3.20               REC # / TYPE / VERS
113                 AOAD/M_T        NONE                    ANT # / TYPE
        0.0900        0.0000        0.0000                  ANTENNA: DELTA H/E/N
  1228950.8674  4508079.8891  4327868.4885                  APPROX POSITION XYZ
  74.75109758  42.99850107  716.3211  LonLatAlt  S/W        COMMENT
Linux 2.0.36|Pentium II|gcc -static|Linux|486/DX+           COMMENT
BIT 2 OF LLI FLAGS DATA COLLECTED UNDER A/S CONDITION       COMMENT
Konovalov           IVTAN                                   OBSERVER / AGENCY
     1     1                                                WAVELENGTH FACT L1/2
     5    L1    L2    C1    P2    P1                        # / TYPES OF OBSERV
    30.0000                                                 INTERVAL
    P1 =    P1  TurboRogue; =    Y1  Benchmark              COMMENT
    L1 = L1(P1) TurboRogue; = L1(Y1) Benchmark              COMMENT
    P2 =    P2  TurboRogue; =    Y2  Benchmark              COMMENT
    L2 = L2(P2) TurboRogue; = L2(Y2) Benchmark              COMMENT
 SNR is mapped to RINEX snr flag value [1,4-9]              COMMENT
    SNR:  >=316 >=100 >=31.6 >=10 >=3.2    >0 bad=0         COMMENT
L1 & L2:      9     8     7     6     5     4     1         COMMENT
  2002     1     5     0     0    0.0000000     GPS         TIME OF FIRST OBS
  2002     1     5    23    59   30.0000000     GPS         TIME OF LAST OBS
                                                            END OF HEADER
 02  1  5  0  0  0.0000000  0  7G 1G20G25G11G14G29G22
  -5824873.94948  -4538860.93945  23989585.073    23989586.467
 -18728646.96649 -14593745.75146  21795710.957    21795710.898
 -24080677.33049 -18764159.14247  20499151.789    20499151.815
 -12734309.09348  -9922839.23045  22918224.750    22918225.446
  -4383477.17149  -3415695.32745  22779565.710    22779566.288
 -12768767.26849  -9949685.74447  21343601.586    21343601.904
  -6356121.05448  -4952821.63044  23435552.344    23435553.019
 02  1  5  0  0 30.0000000  0  7G 1G20G25G11G14G29G22
  -5906052.63648  -4602117.02345  23974135.972    23974138.595
 -18804035.95049 -14652490.40746  21781364.859    21781365.045
 -24066114.75749 -18752811.68047  20501922.983    20501923.051
 -12671957.45248  -9874253.53145  22930089.460    22930087.861
  -4309467.28249  -3358025.29845  22793649.205    22793649.805
 -12719760.95049  -9911499.01247  21352927.604    21352927.964
  -6468576.11548  -5040448.97944  23414153.326    23414156.894
 02  1  5  0  1  0.0000000  0  8G 1G20G25G11G14G29G30G22
  -5987155.76148  -4665314.22245  23958704.370    23958706.328
 -18879070.11449 -14710958.59446  21767087.020    21767085.974
 -24051109.30949 -18741119.11947  20504778.472    20504778.592
 -12609228.33649  -9825373.70845  22942027.665    22942025.759
  -4235313.62249  -3300243.23445  22807760.978    22807760.577
 -12670537.16849  -9873142.83746  21362294.485    21362294.994
         -.54858          .06454  23589357.027    23589356.700
  -6580922.82848  -5127991.89944  23392774.535    23392773.248
 02  1  5  0  1 30.0000000  0  8G 1G20G25G11G14G29G30G22
  -6068182.50048  -4728451.91145  23943284.612    23943287.564
 -18953746.57549 -14769148.03846  21752875.630    21752875.920
 -24035662.22149 -18729082.42447  20507717.773    20507717.845
 -12546123.90948  -9776201.42645  22954034.712    22954035.527
  -4161016.35949  -3242349.27145  22821898.547    22821899.518
 -12621095.96349  -9834617.23646  21371702.693    21371703.264
     50464.70648     39323.62744  23598960.809    23598959.736
  -6693157.85448  -5215447.76745  23371416.858    23371417.790
 02  1  5  0  2  0.0000000  0  8G 1G20G25G11G14G29G30G22
  -6149148.38048  -4791542.18145  23927877.094    23927880.052
 -19028078.87649 -14827069.30746  21738730.761    21738730.952
 -24019789.81649 -18716714.31347  20510737.843    20510738.048
 -12482662.65348  -9726751.12645  22966111.436    22966111.026
  -4086591.36949  -3184355.78545  22836060.944    22836061.462
 -12571452.83749  -9795934.29446  21381149.490    21381149.944
    101454.63648     79056.03744  23608662.920    23608663.489
  -6805293.54248  -5302826.22145  23350077.538    23350079.224
 02  1  5  0  2 30.0000000  0  8G 1G20G25G11G14G29G30G22
  -6230048.77748  -4854581.41545  23912482.938    23912484.476
 -19102060.18449 -14884717.07946  21724653.274    21724652.672
 -24003489.25049 -18704012.56647  20513839.751    20513840.080
 -12418843.24149  -9677021.72945  22978256.994    22978255.863
  -4012035.04549  -3126259.97045  22850249.697    22850250.201
 -12521604.26749  -9757091.26646  21390635.545    21390636.034
    152971.84048    119199.28944  23618466.570    23618467.804
  -6917322.54948  -5390121.56444  23328760.186    23328761.217
 02  1  5  0  3  0.0000000  0  8G 1G20G25G11G14G29G30G22
  -6310899.21348  -4917581.73145  23897096.326    23897098.614
 -19175703.49749 -14942101.47646  21710638.428    21710638.618
 -23986777.38249 -18690990.32447  20517020.179    20517020.482
 -12354683.79848  -9627027.35845  22990463.844    22990464.553
  -3937363.26349  -3068074.18245  22864458.515    22864458.940
 -12471565.61149  -9718100.11946  21400157.698    21400158.047
    204999.12548    159740.01045  23628366.813    23628368.164
  -7029257.25548  -5477343.42345  23307459.571    23307460.253
 02  1  5  0  3 30.0000000  0  8G 1G20G25G11G14G29G30G22
  -6391670.93448  -4980520.72045  23881727.388    23881727.680
 -19248978.46949 -14999198.85546  21696694.920    21696695.047
 -23969627.06549 -18677626.43447  20520283.892    20520284.061
 -12290158.54548  -9576747.95745  23002744.139    23002742.561
  -3862548.14749  -3009776.70545  22878695.177    22878695.858
 -12421308.84549  -9678939.01246  21409721.169    21409721.679
    257563.09948    200698.97345  23638369.974    23638370.788
  -7141066.15348  -5564467.25044  23286183.034    23286183.262
 02  1  5  0  4  0.0000000  0  8G 1G20G25G11G14G29G30G22
  -6472367.29148  -5043400.96245  23866370.913    23866372.273
 -19321886.13449 -15056010.02246  21682821.522    21682821.308
 -23952043.17349 -18663924.68947  20523629.928    20523630.209
 -12225274.06748  -9526188.65745  23015090.843    23015090.357
  -3787593.99949  -2951370.88845  22892959.031    22892958.680
 -12370838.12149  -9639611.19246  21419325.427    21419325.994
    310658.18248    242071.76345  23648473.089    23648474.549
  -7252749.78548  -5651493.43945  23264929.974    23264931.183
 02  1  5  0  4 30.0000000  0  8G 1G20G25G11G14G29G30G22
  -6553004.55348  -5106235.18045  23851025.890    23851027.714
 -19394440.72049 -15112546.06346  21669014.251    21669013.996
 -23934043.30149 -18649898.80347  20527055.220    20527055.349
 -12160049.44148  -9475364.29545  23027502.322    23027503.067
  -3712517.75449  -2892869.94145  22907244.716    22907245.194
 -12320169.95049  -9600129.51946  21428967.254    21428967.586
    364266.37948    283844.38045  23658674.881    23658675.683
  -7364321.53048  -5738432.46445  23243698.487    23243700.127
 02  1  5  0  5  0.0000000  0  8G 1G20G25G11G14G29G30G22
  -6633585.11048  -5169025.17745  23835692.115    23835694.314
 -19466642.53449 -15168807.22146  21655274.852    21655274.910
 -23915631.71949 -18635552.10947  20530558.685    20530558.888
 -12094490.38948  -9424279.30345  23039978.671    23039977.578
  -3637322.44249  -2834276.21845  22921554.576    22921554.027
 -12269307.54949  -9560496.49346  21438646.028    21438646.404
    418383.04148    326013.21145  23668973.673    23668974.515
  -7475780.96248  -5825283.95744  23222488.510    23222488.494
 02  1  5  0  5 30.0000000  0  8G 1G20G25G11G14G29G30G22
  -6714109.64548  -5231771.55245  23820367.945    23820370.764
 -19538490.06549 -15224792.31046  21641602.927    21641602.929
 -23896810.25549 -18620886.03047  20534140.243    20534140.496
 -12028600.11848  -9372936.27245  23052516.350    23052516.544
  -3562009.35049  -2775590.69345  22935886.289    22935885.639
 -12218251.67149  -9520712.70346  21448361.674    21448362.205
    473005.75548    368576.36745  23679367.261    23679368.272
  -7587125.45748  -5912045.90345  23201300.511    23201301.436
 02  1  5  0  6  0.0000000  0  8G 1G20G25G11G14G29G30G22
  -6794562.93148  -5294462.37745  23805059.055    23805060.835
 -19609965.95049 -15280487.80246  21628001.471    21628001.397
 -23877565.53949 -18605890.14147  20537802.467    20537802.620
 -11962366.68148  -9321325.82045  23065120.912    23065121.013
  -3486563.98649  -2716802.11545  22950242.533    22950242.762
 -12166987.65949  -9480766.73846  21458116.868    21458117.022
    528147.52848    411543.96244  23689860.317    23689860.799
  -7698337.22948  -5998704.41645  23180137.383    23180137.203
 02  1  5  0  6 30.0000000  0  8G 1G20G25G11G14G29G30G22
  -6874935.75748  -5357090.51545  23789765.120    23789767.443
 -19681059.14949 -15335885.10546  21614472.632    21614472.481
 -23857889.98549 -18590558.54047  20541546.727    20541546.992
 -11895783.94948  -9269443.18645  23077790.897    23077789.855
  -3410978.20849  -2657904.12145  22964626.751    22964627.113
 -12115507.31549  -9440652.20046  21467913.353    21467913.846
    583815.10848    454921.32345  23700453.923    23700455.253
  -7809404.18948  -6085250.09945  23159002.097    23159003.698
 02  1  5  0  7  0.0000000  0  8G 1G20G25G11G14G29G30G22
  -6955232.71048  -5419659.53845  23774484.611    23774486.621
 -19751772.10249 -15390986.10546  21601016.737    21601016.654
 -23837790.11249 -18574896.29947  20545371.564    20545371.684
 -11828859.68048  -9217294.44045  23090526.067    23090525.701
  -3335257.16749  -2598900.72945  22979035.889    22979035.841
 -12063815.38149  -9400372.78146  21477749.887    21477750.085
    640001.99148    498703.29844  23711145.658    23711147.021
  -7920328.08248  -6171684.31345  23137894.123    23137894.689
 02  1  5  0  7 30.0000000  0  8G 1G20G25G11G14G29G30G22
  -7035464.11248  -5482177.45645  23759216.708    23759217.953
 -19822112.91349 -15445797.12946  21587631.428    21587631.341
 -23817277.28849 -18558912.27347  20549275.275    20549275.429
 -11761607.04848  -9164889.79545  23103324.954    23103325.119
  -3259411.63749  -2539800.33345  22993468.658    22993468.479
 -12011922.77849  -9359937.00546  21487624.752    21487625.209
    696695.95948    542880.40245  23721934.186    23721936.155
  -8031116.08948  -6258012.62445  23116812.225    23116814.008
 02  1  5  0  8  0.0000000  0  8G 1G20G25G11G14G29G30G22
  -7115639.43748  -5544651.69645  23743959.393    23743960.974
 -19892089.10049 -15500324.02446  21574314.946    21574314.605
 -23796362.76449 -18542615.23547  20553255.265    20553255.494
 -11694038.53548  -9112239.03245  23116181.114    23116181.855
  -3183452.08049  -2480611.09645  23007923.458    23007923.600
 -11959839.26549  -9319352.46446  21497535.864    21497536.275
    753885.26948    587443.49444  23732816.757    23732818.562
  -8141774.81348  -6344240.21245  23095754.338    23095754.408
 02  1  5  0  8 30.0000000  0  8G 1G20G25G11G14G29G30G22
  -7195753.00548  -5607077.80545  23728715.838    23728717.718
 -19961692.88949 -15554560.74746  21561070.241    21561069.758
 -23775042.63749 -18526002.13947  20557312.288    20557312.305
 -11626151.82048  -9059340.32544  23129100.837    23129101.017
  -3107373.73849  -2421329.29145  23022400.574    23022400.247
 -11907560.00149  -9278615.38946  21507484.490    21507484.824
    811573.21048    632395.14844  23743794.665    23743795.726
  -8252295.77448  -6430360.44545  23074722.571    23074724.447
 02  1  5  0  9  0.0000000  0  8G 1G20G25G11G14G29G30G22
  -7275805.41148  -5669456.25545  23713481.533    23713482.988
 -20030922.93749 -15608506.23646  21547895.637    21547895.518
 -23753319.05349 -18509074.66547  20561445.682    20561445.855
 -11557950.82448  -9006196.69644  23142078.890    23142077.734
  -3031177.78249  -2361955.83545  23036900.152    23036899.526
 -11855086.06549  -9237726.63046  21517469.760    21517470.262
    869757.13848    677733.25944  23754866.470    23754868.907
  -8362676.65848  -6516371.50945  23053717.748    23053718.565
 02  1  5  0  9 30.0000000  0  8G 1G20G25G11G14G29G30G22
  -7355771.33948  -5731767.30045  23698263.270    23698265.713
 -20099751.73049 -15662139.06346  21534798.138    21534798.235
 -23731168.28449 -18491814.31747  20565660.793    20565660.959
 -11489412.89748  -8952790.53044  23155120.269    23155121.821
  -2954839.50649  -2302471.48445  23051426.813    23051427.119
 -11802392.60549  -9196666.81246  21527497.166    21527497.608
    928460.13948    723475.89244  23766036.947    23766038.058
  -8472889.34648  -6602251.53145  23032744.495    23032746.013
 02  1  5  0 10  0.0000000  0  8G 1G20G25G11G14G29G30G22
  -7435658.23348  -5794016.76645  23683063.195    23683064.863
 -20168184.78249 -15715463.51846  21521775.733    21521775.334
 -23708599.49749 -18474228.24247  20569955.614    20569955.472
 -11420548.89248  -8899130.30944  23168224.974    23168224.720
  -2878367.37949  -2242882.83345  23065979.305    23065978.902
 -11749487.64149  -9155442.19246  21537564.576    21537564.944
    987672.34848    769615.24445  23777305.220    23777307.320
  -8582938.32448  -6688003.99145  23011803.704    23011803.545
 02  1  5  0 10 30.0000000  0  8G 1G20G25G11G14G29G30G22
  -7515469.00348  -5856206.92645  23667873.468    23667878.266
 -20236222.87449 -15768480.21146  21508828.384    21508828.370
 -23685617.19349 -18456319.94747  20574329.045    20574328.970
 -11351364.70748  -8845220.56444  23181390.791    23181389.491
  -2801764.77648  -2183192.51345  23080555.867    23080556.435
 -11696374.41149  -9114055.28346  21547671.826    21547672.395
   1047388.71848    816147.48444  23788668.347    23788669.902
  -8692823.38048  -6773628.71145  22990893.187    22990892.802
 02  1  5  0 11  0.0000000  0  8G 1G20G25G11G14G29G30G22
  -7595213.69248  -5918345.59645  23652700.441    23652700.641
 -20303874.16749 -15821195.50046  21495955.268    21495954.709
 -23662233.38149 -18438098.79247  20578778.639    20578778.428
 -11281873.49748  -8791071.57744  23194614.330    23194614.466
  -2725042.53548  -2123408.96845  23095155.842    23095155.638
 -11643063.69749  -9072514.48146  21557816.182    21557816.517
   1107596.87848    863062.91144  23800126.209    23800126.397
  -8802551.84348  -6859131.39145  22970012.804    22970014.929
 02  1  5  0 11 30.0000000  0  8G 1G20G25G11G14G29G30G22
  -7674902.76248  -5980440.93745  23637534.658    23637537.634
 -20371147.03549 -15873615.91846  21483153.081    21483152.857
 -23638460.02749 -18419574.09547  20583302.591    20583302.341
 -11212089.19748  -8736694.20544  23207893.566    23207894.538
  -2648212.06049  -2063541.07745  23109776.803    23109776.297
 -11589566.62949  -9030828.48546  21567996.690    21567997.225
   1168284.02348    910351.59044  23811673.339    23811674.260
  -8912131.34548  -6944518.03345  22949159.959    22949160.828
 02  1  5  0 12  0.0000000  0  8G 1G20G25G11G14G29G30G22
  -7754525.36148  -6042484.50045  23622382.316    23622383.709
 -20438028.57149 -15925731.39746  21470426.411    21470426.180
 -23614287.71749 -18400738.52947  20587902.806    20587902.579
 -11142003.72348  -8682082.17644  23221230.994    23221230.377
  -2571262.98748  -2003580.78445  23124418.787    23124419.546
 -11535872.71849  -8988989.08846  21578214.438    21578214.629
   1229458.77348    958020.17744  23823315.471    23823316.050
  -9021548.08748  -7029777.83245  22928338.953    22928340.800
 02  1  5  0 12 30.0000000  0  8G 1G20G25G11G14G29G30G22
  -7834070.01848  -6104467.32145  23607245.449    23607249.534
 -20504505.29349 -15977531.44046  21457776.779    21457776.333
 -23589706.87849 -18381584.63047  20592580.313    20592580.007
 -11071608.99248  -8627229.15744  23234626.328    23234623.155
  -2494184.68148  -1943519.80445  23139086.582    23139086.265
 -11481970.92249  -8946987.70846  21588471.497    21588471.969
   1291130.28448   1006075.89144  23835051.328    23835052.766
  -9130787.60548  -7114899.53845  22907551.219    22907552.729
 02  1  5  0 13  0.0000000  0  8G 1G20G25G11G14G29G30G22
  -7913530.49648  -6166384.55645  23592125.085    23592127.372
 -20570569.02749 -16029009.67546  21445204.458    21445204.046
 -23564713.30949 -18362109.12047  20597336.317    20597336.161
 -11000901.96348  -8572132.78244  23248080.848    23248081.804
  -2416971.76548  -1883353.91645  23153779.971    23153780.320
 -11427855.74449  -8904820.06646  21598769.023    21598769.505
   1353302.42748   1054521.70244  23846882.022    23846882.527
  -9239840.78148  -7199876.03545  22886799.349    22886800.703
 02  1  5  0 13 30.0000000  0  8G 1G20G25G11G14G29G30G22
  -7992925.29448  -6228250.63045  23577017.980    23577020.285
 -20636236.29549 -16080178.97446  21432708.516    21432708.413
 -23539326.87349 -18342327.48647  20602167.258    20602167.074
 -10929904.30948  -8516809.96544  23261591.749    23261590.576
  -2339643.35648  -1823098.01445  23168494.400    23168494.633
 -11373546.24849  -8862501.00546  21609104.017    21609104.482
   1415954.15348   1103341.24144  23858804.226    23858803.347
  -9348723.28048  -7284719.54945  22866079.626    22866080.029
 02  1  5  0 14  0.0000000  0  8G 1G20G25G11G14G29G30G22
  -8072239.39548  -6290053.81545  23561923.304    23561926.500
 -20701490.27049 -16131026.22346  21420291.022    21420290.681
 -23513534.59049 -18322229.60747  20607075.352    20607075.144
 -10858604.72248  -8461251.85544  23275159.936    23275157.565
  -2262185.65248  -1762741.38745  23183234.790    23183235.114
 -11319027.88149  -8820019.18046  21619478.538    21619479.179
   1479098.11448   1152544.34244  23870819.948    23870820.529
  -9457417.37248  -7369416.23745  22845395.685    22845394.626
 02  1  5  0 14 30.0000000  0  8G 1G20G25G11G14G29G30G22
  -8151486.69248  -6351804.92245  23546843.035    23546845.862
 -20766342.82749 -16181560.68346  21407950.038    21407950.056
 -23487352.36849 -18301827.88247  20612057.633    20612057.333
 -10787019.74948  -8405471.37144  23288781.595    23288780.215
  -2184613.08248  -1702295.25745  23197996.386    23197995.905
 -11264315.40949  -8777386.11046  21629889.768    21629890.118
   1542717.81048   1202118.07744  23882927.111    23882928.493
  -9565933.88948  -7453974.54545  22824745.718    22824746.739
 02  1  5  0 15  0.0000000  0  8G 1G20G25G11G14G29G30G22
  -8230659.84948  -6413498.29145  23531779.039    23531778.368
 -20830784.45849 -16231774.93846  21395687.329    21395687.347
 -23460774.30949 -18281117.71247  20617115.337    20617115.206
 -10715145.18048  -8349465.26344  23302458.776    23302458.767
  -2106918.46248  -1641754.01045  23212780.834    23212779.422
 -11209401.68049  -8734596.21246  21640339.720    21640340.002
   1606818.31548   1252066.55044  23895124.915    23895126.307
  -9674262.51448  -7538386.46745  22804131.566    22804133.819
 02  1  5  0 15 30.0000000  0  8G 1G20G25G11G14G29G30G22
  -8309757.96148  -6475133.16845  23516725.769    23516728.893
 -20894812.37849 -16281666.82346  21383503.028    21383503.055
 -23433801.07249 -18260099.61047  20622248.275    20622247.953
 -10642983.20448  -8293235.17044  23316191.713    23316189.736
  -2029102.08948  -1581117.89845  23227589.296    23227589.829
 -11154286.27449  -8691649.16146  21650827.858    21650828.238
   1671398.29048   1302388.57344  23907413.428    23907416.443
  -9782399.44648  -7622649.00445  22783553.694    22783554.893
 02  1  5  0 16  0.0000000  0  8G 1G20G25G11G14G29G30G22
  -8388778.45748  -6536707.56545  23501689.588    23501690.281
 -20958422.02949 -16331232.78246  21371398.600    21371398.354
 -23406432.03749 -18238773.09447  20627456.434    20627456.138
 -10570534.72348  -8236781.79844  23329977.791    23329975.041
  -1951162.07548  -1520385.43045  23242420.464    23242421.191
 -11098967.12149  -8648543.35046  21661354.936    21661354.973
   1736457.73248   1353084.25744  23919794.254    23919793.857
  -9890339.22248  -7706757.91845  22763013.526    22763015.021
 02  1  5  0 16 30.0000000  0  8G 1G20G25G11G14G29G30G22
  -8467726.31648  -6598225.36245  23486665.920    23486667.400
 -21021616.29749 -16380475.07246  21359373.207    21359373.167
 -23378673.93249 -18217143.40547  20632738.362    20632738.101
 -10497808.02148  -8180111.69144  23343817.263    23343819.267
  -1873104.04348  -1459561.01745  23257274.817    23257274.431
 -11043449.95249  -8605283.22446  21671919.731    21671920.001
   1801989.21448   1404147.73344  23932264.397    23932263.051
  -9998083.89448  -7790714.80545  22742510.384    22742511.539
 02  1  5  0 17  0.0000000  0  8G 1G20G25G11G14G29G30G22
  -8546598.06248  -6659683.85445  23471657.144    23471658.763
 -21084390.15549 -16429389.76446  21347428.123    21347427.824
 -23350525.09649 -18195209.24547  20638095.097    20638094.708
 -10424803.00348  -8123224.68144  23357710.669    23357710.759
  -1794925.51848  -1398642.70145  23272151.758    23272151.567
 -10987731.88349  -8561866.55646  21682521.978    21682521.837
   1867993.42648   1455579.58944  23944824.623    23944825.926
 -10105627.25948  -7874514.82145  22722045.595    22722046.583
 02  1  5  0 17 30.0000000  0  8G 1G20G25G11G14G29G30G22
  -8625397.60648  -6721086.07345  23456662.415    23456663.906
 -21146745.28349 -16477978.18046  21335561.811    21335561.705
 -23321991.47449 -18172975.25447  20643525.030    20643524.785
 -10351526.82748  -8066126.38744  23371653.756    23371656.979
  -1716631.22948  -1337634.17645  23287050.283    23287051.285
 -10931817.52849  -8518296.94746  21693162.098    21693162.663
   1934464.05048   1507374.86644  23957473.416    23957475.024
 -10212970.20348  -7958158.68145  22701618.942    22701619.176
 02  1  5  0 18  0.0000000  0  8G 1G20G25G11G14G29G30G22
  -8704118.05148  -6782426.66845  23441682.098    23441684.166
 -21208672.93449 -16526233.49146  21323777.209    21323777.070
 -23293067.86449 -18150437.38147  20649028.849    20649028.505
 -10277975.54648  -8008813.73644  23385649.856    23385650.298
  -1638214.94348  -1276530.60145  23301972.737    23301973.447
 -10875700.15249  -8474569.14746  21703840.948    21703841.231
   2001405.55848   1559537.04444  23970211.439    23970212.701
 -10320102.89348  -8041638.69345  22681232.212    22681232.090
 02  1  5  0 18 30.0000000  0  8G 1G20G25G11G14G29G30G22
  -8782751.31148  -6843699.32445  23426718.410    23426721.052
 -21270163.26349 -16574148.03346  21312076.642    21312076.497
 -23263748.21149 -18127590.90147  20654608.429    20654608.088
 -10204144.75848  -7951283.29144  23399699.990    23399700.111
  -1559669.41048  -1215326.27645  23316919.622    23316918.559
 -10819372.58049  -8430677.54446  21714559.901    21714560.288
   2068823.33748   1612070.40844  23983040.742    23983040.699
 -10427014.42548  -8124946.38445  22660887.676    22660889.115
 02  1  5  0 19  0.0000000  0  8G 1G20G25G11G14G29G30G22
  -8861307.27148  -6904911.75245  23411770.544    23411771.907
 -21331224.33549 -16621728.09246  21300456.627    21300456.498
 -23234043.84749 -18104444.64647  20660261.021    20660260.777
 -10130047.44948  -7893545.14244  23413800.204    23413798.741
  -1481005.26548  -1154029.55845  23331888.401    23331888.543
 -10762845.06549  -8386630.15046  21725316.702    21725317.147
   2136705.05148   1664965.22344  23995959.002    23995956.860
 -10533711.86748  -8208087.25345  22640583.438    22640585.447
 02  1  5  0 19 30.0000000  0  8G 1G20G25G11G14G29G30G22
  -8939799.95748  -6966074.87345  23396833.593    23396835.845
 -21391868.08649 -16668982.96546  21288916.322    21288916.132
 -23203970.86649 -18081011.16347  20665983.536    20665983.170
 -10055701.04048  -7835612.89744  23427947.480    23427948.105
  -1402237.27648  -1092651.92645  23346877.639    23346877.447
 -10706132.33749  -8342438.43246  21736108.623    21736108.714
   2205033.86048   1718208.51244  24008960.933    24008963.862
 -10640206.23748  -8291069.87345  22620318.019    22620320.111
 02  1  5  0 20  0.0000000  0  8G 1G20G25G11G14G29G30G22
  -9018220.37748  -7027181.67345  23381910.798    23381911.987
 -21452083.90949 -16715904.38847  21277458.216    21277458.061
 -23173522.62749 -18057285.26247  20671777.658    20671777.414
  -9981100.12448  -7777482.33044  23442143.455    23442147.164
  -1323357.44648  -1031187.13245  23361888.520    23361887.213
 -10649226.21049  -8298096.01846  21746937.996    21746938.456
   2273816.09448   1771805.02244  24022049.742    24022052.994
 -10746485.97248  -8373885.26145  22600094.281    22600095.674
 02  1  5  0 20 30.0000000  0  8G 1G20G25G11G14G29G30G22
  -9096553.50248  -7088220.45045  23367004.102    23367005.632
 -21511855.01549 -16762479.27747  21266084.016    21266083.769
 -23142685.24949 -18033256.14047  20677645.917    20677645.760
  -9906232.63948  -7719144.08944  23456390.343    23456391.021
  -1244351.49048   -969624.07245  23376922.350    23376920.632
 -10592112.08749  -8253591.52246  21757805.992    21757806.750
   2343064.22348   1825764.63144  24035227.651    24035229.653
 -10852533.03448  -8456519.34145  22579913.531    22579914.529
 02  1  5  0 21  0.0000000  0  8G 1G20G25G11G14G29G30G22
  -9174796.93448  -7149189.32245  23352114.711    23352116.547
 -21571176.58749 -16808703.87947  21254795.599    21254795.391
 -23111458.55949 -18008923.66247  20683588.101    20683587.877
  -9831099.59448  -7660598.87744  23470687.830    23470685.771
  -1165217.60448   -907961.30245  23391981.105    23391981.132
 -10534787.95149  -8208923.38146  21768714.337    21768715.065
   2412778.18048   1880087.13244  24048492.342    24048496.737
 -10958341.85348  -8538967.76745  22559779.960    22559780.595
 02  1  5  0 21 30.0000000  0  8G 1G20G25G11G14G29G30G22
  -9252950.81948  -7210088.41445  23337242.451    23337244.543
 -21630047.40449 -16854577.24647  21243592.379    21243592.381
 -23079844.57449 -17984289.39747  20689603.928    20689603.784
  -9755704.42448                  23485034.884
  -1085956.77548   -846199.64645  23407063.941    23407063.607
 -10477254.80249  -8164092.37146  21779662.619    21779663.136
   2482954.95848   1934770.33744  24061848.420    24061848.942
 -11063910.03448  -8621228.70045  22539690.789    22539692.174
 02  1  5  0 22  0.0000000  0  8G 1G20G25G11G14G29G30G22
  -9331015.24048  -7270917.80345  23322387.698    23322388.572
 -21688465.84549 -16900098.10947  21232475.952    21232475.942
 -23047845.47649 -17959355.04147  20695693.109    20695693.034
  -9680050.63548  -7542898.45644  23499432.257    23499430.532
  -1006569.88548   -784339.75945  23422170.825    23422170.582
 -10419513.24249  -8119098.97346  21790650.335    21790650.999
   2553591.70048   1989812.02144  24075289.153    24075291.602
 -11169234.72948  -8703299.89245  22519648.000    22519648.314
 02  1  5  0 22 30.0000000  0  8G 1G20G25G11G14G29G30G22
  -9409019.45448  -7331700.27545  23307543.252    23307545.382
 -21746459.11749 -16945287.66847  21221440.289    21221440.030
 -23015492.08849 -17934144.61147  20701849.767    20701849.664
  -9604170.94948  -7483771.41444  23513870.539    23513870.051
   -927087.03548   -722405.07345  23437295.607    23437295.832
 -10361593.08449  -8073966.40146  21801672.514    21801673.312
   2624656.55348   2045187.17744  24088813.143    24088812.859
 -11274342.45849  -8785202.02045  22499646.807    22499648.716
 02  1  5  0 23  0.0000000  0  8G 1G20G25G11G14G29G30G22
  -9486981.43848  -7392449.83745  23292707.808    23292709.802
 -21804043.51749 -16990158.63247  21210482.310    21210482.146
 -22982804.35149 -17908673.65047  20708069.987    20708070.145
  -9528086.45148  -7424484.81444  23528349.193    23528348.755
   -847526.97548   -660410.25045  23452435.475    23452435.406
 -10303513.08849  -8028709.28146  21812724.619    21812725.184
   2696128.76748   2100879.84244  24102413.618    24102413.256
 -11379248.14648  -8866946.71545  22479683.252    22479684.544
 02  1  5  0 23 30.0000000  0  8G 1G20G25G11G14G29G30G22
  -9564845.28248  -7453122.92345  23277891.315    23277893.561
 -21861161.40149 -17034666.07347  21199613.040    21199613.135
 -22949728.66049 -17882900.38547  20714364.146    20714364.100
  -9451744.68048  -7364997.74944  23542876.434    23542878.181
   -767834.65448   -598312.34645  23467600.937    23467600.695
 -10245217.90949  -7983284.47946  21823817.706    21823818.086
   2768061.61148   2156931.40644  24116101.304    24116106.575
 -11483893.15048  -8948488.26245  22459769.905    22459771.054
 02  1  5  0 24  0.0000000  0  8G 1G20G25G11G14G29G30G22
  -9642613.70048  -7513721.65745  23263092.349    23263092.769
 -21917813.46049 -17078810.53347  21188832.722    21188832.767
 -22916269.34749 -17856828.20047  20720731.265    20720731.276
  -9375151.78848  -7305314.99044  23557451.520    23557449.799
   -688013.27348   -536113.89745  23482790.112    23482789.632
 -10186710.68049  -7937694.44546  21834951.750    21834951.577
   2840449.67748                  24129876.688
 -11588277.04249  -9029826.36145  22439906.855    22439907.526
 02  1  5  0 24 30.0000000  0  8G 1G20G25G11G14G29G30G22
  -9720297.53448  -7574254.49345  23248309.163    23248310.521
 -21974008.66949 -17122599.00747  21178138.986    21178138.893
 -22882439.31449 -17830467.13847  20727168.387    20727168.701
  -9298321.81448  -7245447.54544  23572072.470    23572074.585
   -608074.82348   -473824.21045  23498001.868    23498002.123
 -10128002.73849  -7891948.02146  21846123.181    21846123.745
   2913279.30548   2270088.05344  24143734.674    24143737.861
 -11692408.00249  -9110967.36645  22420091.182    22420092.954
 02  1  5  0 25  0.0000000  0  8G 1G20G25G11G14G29G30G22
  -9797894.09048  -7634719.30145  23233542.635    23233545.719
 -22029742.83149 -17166028.22147  21167533.030    21167532.774
 -22848237.97449 -17803816.74347  20733676.714    20733676.897
  -9221255.62848                  23586735.710
   -528017.14148   -411441.61345  23513236.574    23513237.536
 -10069092.30349  -7846043.80746  21857333.542    21857333.931
   2986550.42748   2327182.45444  24157678.740    24157680.566
 -11796280.47949  -9191906.95645  22400324.843    22400325.539
 02  1  5  0 25 30.0000000  0  8G 1G20G25G11G14G29G30G22
  -9875402.34348  -7695115.29445  23218793.995    23218794.646
 -22085013.24649 -17209096.07447  21157015.426    21157015.228
 -22813665.91349 -17776877.47047  20740255.963    20740255.985
  -9143955.60648                  23601446.746
   -447840.33948   -348966.19045  23528493.383    23528493.961
 -10009978.80849  -7799981.35946  21868582.792    21868582.595
   3060261.13248   2384619.40544  24171704.986    24171706.397
 -11899890.63849  -9272642.15345  22380608.502    22380610.243
 02  1  5  0 26  0.0000000  0  8G 1G20G25G11G14G29G30G22
  -9952833.05348  -7755450.87645  23204059.654    23204060.775
 -22139828.88349 -17251809.55547  21146584.453    21146584.648
 -22778735.82749 -17749659.21547  20746902.915    20746902.851
  -9066435.59547                  23616196.364
   -367555.63748   -286406.69245  23543771.745    23543771.274
  -9950673.54549  -7753769.47646  21879868.063    21879868.268
   3134398.03248   2442388.37544  24185812.824    24185813.165
 -12003246.27949  -9353179.00445  22360940.560    22360941.925
 02  1  5  0 26 30.0000000  0  8G 1G20G25G11G14G29G30G22
 -10030187.42848  -7815726.98145  23189339.217    23189341.068
 -22194189.14549 -17294168.20147  21136240.092    21136239.783
 -22743451.13649 -17722164.64647  20753617.309    20753617.324
  -8988700.54348                  23630991.041
   -287165.58548   -223765.11345  23559068.631    23559069.495
  -9891178.63249  -7707409.82846  21891189.337    21891189.770
   3208956.89348   2500486.15144  24200000.799    24200000.455
 -12106346.02249  -9433516.46745  22341321.352    22341322.347
 02  1  5  0 27  0.0000000  0  8G 1G20G25G11G14G29G30G22
 -10107457.40248  -7875937.30145  23174635.328    23174636.594
 -22248084.51049 -17336164.58847  21125984.139    21125984.104
 -22707805.92849 -17694389.15847  20760400.531    20760400.360
  -8910745.76748                  23645825.498
   -206662.59948   -161035.51645  23574388.374    23574388.171
  -9831486.58949  -7660896.56546  21902548.635    21902549.137
   3283943.09348   2558916.96744  24214269.670    24214272.003
 -12209178.94649  -9513646.00945  22321752.791    22321754.759
 02  1  5  0 27 30.0000000  0  8G 1G20G25G11G14G29G30G22
 -10184638.16948  -7936078.11745  23159948.543    23159948.770
 -22301508.50049 -17377793.67147  21115817.964    21115817.922
 -22671797.51249 -17666330.64747  20767252.826    20767253.012
  -8832570.05348                  23660701.674
   -126042.90148    -98214.96345  23589729.812    23589730.542
  -9771593.38349  -7614226.55846  21913945.935    21913946.258
   3359358.37448   2617682.16244  24228622.491    24228622.823
 -12311737.51249  -9593561.77245  22302236.725    22302238.640
 02  1  5  0 28  0.0000000  0  8G 1G20G25G11G14G29G30G22
 -10261733.90148  -7996152.70445  23145276.882    23145278.627
 -22354463.63949 -17419057.41547  21105741.133    21105740.947
 -22635432.08349 -17637993.94447  20774172.653    20774172.737
  -8754180.99748                  23675618.689
    -45311.44048    -35307.35445  23605091.953    23605092.375
  -9711503.74749  -7567403.48746  21925380.304    21925380.735
   3435195.70048   2676776.14844  24243053.162    24243058.059
 -12414023.05549  -9673264.78745  22282772.192    22282773.576
 02  1  5  0 28 30.0000000  0  8G 1G20G25G11G14G29G30G22
 -10338750.34348  -8056165.49545  23130621.863    23130624.216
 -22406954.05049 -17459959.03147  21095752.226    21095752.258
 -22598717.20949 -17609384.94547  20781159.490    20781159.499
  -8675587.53648  -6760200.14244  23690573.594    23690574.693
     35525.10248     27682.14445  23620475.617    23620473.777
  -9651224.24949  -7520432.46946  21936851.397    21936851.451
   3511446.41148   2736192.26944  24257563.858    24257565.461
 -12516038.43749  -9752757.29545  22263359.442    22263362.012
 02  1  5  0 29  0.0000000  0  8G 1G20G25G11G14G29G30G22
 -10415679.24148  -8116110.06645  23115982.688    23115983.692
 -22458969.49049 -17500490.54547  21085853.836    21085853.932
 -22561646.38549 -17580498.58847  20788213.753    20788213.733
  -8596784.85748                  23705570.851
    116474.09148     90759.27845  23635878.597    23635878.138
  -9590746.78649  -7473307.19246  21948360.340    21948361.081
   3588116.05048   2795934.85144  24272153.104    24272152.856
 -12617772.59649  -9832030.67245  22243999.865    22244001.186
 02  1  5  0 29 30.0000000  0  8G 1G20G25G11G14G29G30G22
 -10492534.19248  -8175997.01845  23101357.295    23101358.309
 -22510522.10349 -17540661.40947  21076043.791    21076043.660
 -22524235.66849 -17551347.38047  20795332.813    20795332.841
  -8517789.90648                  23720602.892
    197521.68148    153913.20545  23651301.848    23651302.415
  -9530085.72549  -7426038.84646  21959903.252    21959903.968
   3665188.16548   2855991.05744  24286819.697    24286823.338
 -12719236.19549  -9911093.21745  22224692.206    22224693.251
 02  1  5  0 30  0.0000000  0  8G 1G20G25G11G14G29G30G22
 -10569305.51549  -8235818.80145  23086748.956    23086750.086
 -22561600.73849 -17580462.93947  21066323.952    21066323.837
 -22486477.40349 -17521925.35147  20802518.136    20802518.222
  -8438596.99848                  23735672.570
    278676.28248    217150.56045  23666745.496    23666745.710
  -9469232.27849  -7378620.59846  21971482.971    21971483.462
   3742669.22748   2916365.88144  24301564.243    24301564.848
 -12820416.93549  -9989935.34845  22205437.929    22205439.672
 02  1  5  0 30 30.0000000  0  8G 1G20G25G11G14G29G30G22
 -10645974.86948  -8295561.11745  23072158.079    23072160.139
 -22612185.36749 -17619879.53047  21056697.824    21056697.674
 -22448355.35649 -17492219.85247  20809772.271    20809772.410
  -8359190.81748                  23750782.011
    359955.31048    280484.86645  23682211.896    23682210.054
  -9408168.78749  -7331038.67146  21983103.662    21983103.793
   3820574.53648   2977071.30444  24316388.096    24316390.216
 -12921293.77949 -10068540.67346  22186242.143    22186243.268
 02  1  5  0 31  0.0000000  0  8G 1G20G25G11G14G29G30G22
 -10722537.34948  -8355220.15945  23057588.800    23057590.012
 -22662269.54149 -17658906.15847  21047167.164    21047167.181
 -22409866.55449 -17462228.57247  20817096.362    20817096.583
  -8279570.02148                  23765935.814
    441362.84948    343919.31545  23697703.020    23697704.184
  -9346891.10449  -7283289.85046  21994764.183    21994764.657
   3898906.42248   3038109.18744  24331295.296    24331294.095
 -13021858.95849 -10146903.14546  22167105.250    22167106.304
 02  1  5  0 31 30.0000000  0  8G20G 1G25G11G14G29G30G22
 -22711872.63449 -17697557.91947  21037728.261    21037728.046
 -10799013.74549  -8414812.12445  23043036.353    23043037.202
 -22371033.58849 -17431969.11647  20824485.791    20824486.101
  -8199759.00348                  23781121.764
    522877.06548    407436.85345  23713215.105    23713217.471
  -9285420.45649  -7235390.66146  22006461.648    22006461.808
   3977640.85748   3099460.72644  24346277.659    24346277.229
 -13122130.59849 -10225036.88046  22148024.148    22148025.085
 02  1  5  0 32  0.0000000  0  8G20G 1G25G11G14G29G30G22
 -22760994.85349 -17735834.97347  21028380.323    21028380.370
 -10875405.92848  -8474338.46645  23028499.086    23028500.885
 -22331860.73849 -17401444.81547  20831940.531    20831940.674
  -8119762.97748                  23796344.894
    604495.52748    471035.66645  23728746.931    23728745.861
  -9223759.53049  -7187343.20346  22018195.050    22018195.598
   4056773.04548   3161122.16844  24361335.032    24361336.375
 -13222107.65349 -10302941.07546  22128998.852    22128998.901
 02  1  5  0 32 30.0000000  0  8G20G 1G25G11G14G29G30G22
 -22809633.14649 -17773734.93947  21019124.784    21019125.042
 -10951712.43549  -8533798.05045  23013979.336    23013979.660
 -22292348.56649 -17370656.10747  20839459.342    20839459.438
  -8039584.06048                  23811603.176
    686218.78148    534716.12345  23744297.833    23744299.339
  -9161907.47849  -7139146.80946  22029965.562    22029965.992
   4136301.38948   3223092.29344  24376469.671    24376469.408
 -13321785.91649 -10380612.44246  22110030.889    22110031.849
 02  1  5  0 33  0.0000000  0  8G20G 1G25G11G14G29G30G22
 -22857773.28049 -17811246.72947  21009964.370    21009964.137
 -11027920.64849  -8593181.06145  22999477.008    22999478.145
 -22252486.25349 -17339594.56347  20847044.584    20847044.625
  -7959212.68648                  23826897.328
    768058.53448    598487.34945  23759871.814    23759871.301
  -9099852.22949  -7090792.08246  22041774.083    22041774.525
   4216235.78848   3285378.90044  24391680.687    24391683.473
 -13421149.86249 -10458038.88046  22091122.299    22091123.418
 02  1  5  0 33 30.0000000  0  8G20G 1G25G11G14G29G30G22
 -22905412.56349 -17848368.24847  21000898.899    21000898.836
 -11104029.44648  -8652486.58345  22984993.005    22984995.056
 -22212275.02549 -17308261.13247  20854696.703    20854696.803
  -7878651.45448                  23842226.754
    850015.19448    662349.65545  23775467.611    23775466.408
  -9037593.38049  -7042278.70346  22053621.486    22053621.936
   4296574.14648   3347980.19544  24406969.267    24406968.462
 -13520195.78049 -10535217.50846  22072274.600    22072275.457
 02  1  5  0 34  0.0000000  0  8G20G 1G25G11G14G29G30G22
 -22952560.50049 -17885106.90147  20991926.790    20991926.736
 -11180049.50649  -8711722.97245  22970528.445    22970529.026
 -22171727.47649 -17276665.64547  20862412.653    20862412.655
  -7797914.55448                  23857590.079
    932077.01348    726293.94245  23791083.020    23791083.194
  -8975142.47949  -6993615.68246  22065505.700    22065506.414
   4377302.71348   3410885.62544  24422330.010    24422332.064
 -13618931.64649 -10612154.53246  22053486.095    22053487.744
 02  1  5  0 34 30.0000000  0  8G 1G20G25G11G14G29G30G22
 -11255998.02848  -8770903.62045  22956074.115    22956075.430
 -22999232.87949 -17921474.98547  20983045.301    20983045.265
 -22130863.32849 -17244823.45347  20870188.864    20870188.831
  -7717022.80948                  23872984.463
   1014225.82148    790305.98245  23806716.236    23806716.840
  -8912517.56349  -6944817.06346  22077422.649    22077423.047
   4458401.12848   3474079.18644  24437762.913    24437763.474
 -13717372.05649 -10688861.33446  22034753.336    22034754.715
 02  1  5  0 35  0.0000000  0  8G 1G20G25G11G14G29G30G22
 -11331852.18748  -8830010.72845  22941639.962    22941641.384
 -23045405.14849 -17957453.37847  20974259.199    20974259.224
 -22089661.65649 -17212718.25247  20878029.404    20878029.264
  -7635956.73347                  23888407.774
   1096483.85448    854403.14045  23822369.074    23822369.057
  -8849696.25249  -6895865.40346  22089377.280    22089377.763
   4539889.24548   3537576.42244  24453270.138    24453271.723
 -13815491.19349 -10765317.78846  22016082.256    22016083.219
 02  1  5  0 35 30.0000000  0  8G 1G20G25G11G14G29G30G22
 -11407599.11149  -8889034.28545  22927227.052    22927227.832
 -23091063.17549 -17993031.05547  20965570.543    20965570.403
 -22048111.74749 -17180341.70147  20885936.115    20885936.110
  -7554707.12648                  23903872.002
   1178862.79648    918594.49545  23838045.107    23838045.237
  -8786666.51849  -6846751.33546  22101371.655    22101371.754
   4621776.97748   3601385.03744  24468852.036    24468854.791
 -13913273.63849 -10841511.88746  21997474.091    21997475.527
 02  1  5  0 36  0.0000000  0  8G 1G20G25G11G14G29G30G22
 -11483249.56648  -8947982.66145  22912829.384    22912830.714
 -23136216.52149 -18028215.47947  20956978.262    20956978.309
 -22006226.46049 -17147703.81947  20893906.772    20893906.541
  -7473288.30747                  23919364.170
   1261350.84248    982870.90245  23853741.828    23853740.833
  -8723439.98249  -6797483.92446  22113403.012    22113403.791
   4704050.24548   3665494.08944  24484508.600    24484510.323
 -14010727.65649 -10917450.08246  21978929.688    21978930.406
 02  1  5  0 36 30.0000000  0  8G 1G20G25G11G14G29G30G22
 -11558805.61649  -9006857.48145  22898453.723    22898453.520
 -23180865.54049 -18063006.92347  20948481.813    20948481.780
 -21964010.02849 -17114807.90347  20901940.311    20901940.139
  -7391705.77147                  23934888.750
   1343945.12948   1047230.07045  23869459.912    23869459.321
  -8660019.38449  -6748065.28646  22125471.554    22125472.390
   4786703.81848   3729899.50444  24500236.985    24500238.540
 -14107852.45149 -10993131.72646  21960447.116    21960448.633
 02  1  5  0 37  0.0000000  0  7G 1G20G25G14G29G30G22
 -11634267.13548  -9065658.65445  22884092.493    22884094.846
 -23225008.78349 -18097404.25247  20940081.364    20940081.400
 -21921464.69049 -17081655.69447  20910036.257    20910036.119
   1426645.02148   1111671.51045  23885196.053    23885196.941
  -8596405.32349  -6698495.91746  22137577.038    22137577.582
   4869734.96748   3794599.10344  24516037.450    24516040.527
 -14204645.29049 -11068554.70646  21942028.014    21942029.078
 02  1  5  0 37 30.0000000  0  8G 1G20G25G11G14G29G30G22
 -11709627.78448  -9124381.19345  22869751.305    22869753.036
 -23268638.60349 -18131401.51447  20931779.145    20931778.981
 -21878585.92549 -17048243.66647  20918195.840    20918195.695
         -.85057                  23966030.410
   1509455.97748   1176199.52845  23900954.941    23900954.646
  -8532592.03949  -6648771.29846  22149720.331    22149720.724
   4953146.73248   3859595.36144  24531910.202    24531910.974
 -14301097.07949 -11143711.93846  21923674.014    21923675.253
 02  1  5  0 38  0.0000000  0  7G 1G20G25G14G29G30G22
 -11784897.98049  -9183033.27745  22855430.052    22855430.353
 -23311764.11749 -18165005.80847  20923572.550    20923572.567
 -21835386.43749 -17014581.72747  20926416.449    20926416.534
   1592366.40348   1240805.02945  23916732.423    23916732.331
  -8468590.80049  -6598900.23046  22161899.148    22161899.958
   5036925.65648   3924877.59844  24547852.006    24547853.004
 -14397215.72149 -11218609.56246  21905383.088    21905384.962
 02  1  5  0 38 30.0000000  0  8G 1G20G25G11G14G29G30G22
 -11860084.27048  -9241619.96645  22841120.619    22841121.821
 -23354390.70549 -18198221.33247  20915461.135    20915461.114
 -21791875.06749 -16980676.76847  20934696.576    20934696.567
         -.62157                  23997286.539
   1675368.92248   1305482.30945  23932526.478    23932527.483
  -8404409.09149  -6548888.51546  22174113.147    22174113.556
   5121061.85748   3990438.32644  24563863.242    24563865.926
 -14493004.99449 -11293250.54946  21887155.241    21887155.969
 02  1  5  0 39  0.0000000  0  8G 1G20G25G11G14G29G30G22
 -11935182.01848  -9300137.65945  22826830.169    22826831.810
 -23396512.22349 -18231043.29347  20907445.874    20907445.770
 -21748049.45349 -16946526.94147  20943036.182    20943036.224
     82333.61947                  24012953.536
   1758467.06348   1370234.07945  23948340.691    23948340.252
  -8340042.81249  -6498732.98346  22186361.350    22186361.887
   5205556.91148   4056278.68944  24579941.713    24579941.160
 -14588457.57149 -11367629.17446  21868990.671    21868992.329
 02  1  5  0 39 30.0000000  0  8G 1G20G25G11G14G29G30G22
 -12010176.70449  -9358575.03745  22812560.242    22812560.946
 -23438112.99149 -18263459.47747  20899529.278    20899529.310
 -21703896.88049 -16912122.34047  20951437.850    20951437.953
    164818.93848                  24028650.331
   1841674.86548   1435071.31145  23964174.583    23964174.180
  -8275478.18349  -6448422.93046  22198647.376    22198647.854
   5290422.27348   4122407.48644  24596090.636    24596091.714
 -14683556.27249 -11441732.04546  21850894.714    21850896.314
 02  1  5  0 40  0.0000000  0  8G 1G20G25G11G14G29G30G22
 -12085074.48848  -9416936.92846  22798306.141    22798307.914
 -23479197.68449 -18295473.52547  20891711.015    20891710.852
 -21659425.54549 -16877469.35047  20959900.544    20959900.782
    247445.82748                  24044373.776
   1924985.07048   1499988.36145  23980027.455    23980026.538
  -8210722.15449  -6397963.69046  22210970.531    22210970.114
   5375648.59148   4188817.69644  24612309.636    24612310.268
 -14778304.70549 -11515561.99146  21832864.149    21832865.538
 02  1  5  0 40 30.0000000  0  8G 1G20G25G11G14G29G30G22
 -12159870.86749  -9475219.79746  22784073.643    22784074.627
 -23519760.75449 -18327081.11047  20883991.909    20883991.843
 -21614633.35549 -16842566.34747  20968424.296    20968424.244
    330215.09948                  24060124.810
   2008401.29248   1564987.98545  23995900.621    23995901.276
  -8145771.08049  -6347352.48646  22223330.065    22223330.578
   5461237.01448   4255509.99944  24628595.896    24628597.229
 -14872695.79949 -11589113.48746  21814902.461    21814903.930
 02  1  5  0 41  0.0000000  0  8G 1G20G25G11G14G29G30G22
 -12234569.26049  -9533426.32546  22769859.273    22769860.054
 -23559804.66549 -18358284.15947  20876371.950    20876371.948
 -21569526.01449 -16807417.77247  20977007.999    20977007.954
    413119.56548                  24075901.499
   2091918.73948   1630066.49845  24011794.274    24011795.709
  -8080629.31449  -6296592.67946  22235725.829    22235726.172
   5547180.85148   4322479.24544  24644950.290    24644950.761
 -14966730.54649 -11662387.31146  21797007.928    21797009.468
 02  1  5  0 41 30.0000000  0  8G 1G20G25G11G14G29G30G22
 -12309158.04948  -9591547.43546  22755663.069    22755665.203
 -23599316.10149 -18389072.29247  20868853.433    20868853.267
 -21524093.96349 -16772016.17947  20985653.080    20985653.103
    496167.67848                  24091704.274
   2175548.51748   1695232.51745  24027708.472    24027710.841
  -8015285.67549  -6245675.57746  22248160.565    22248161.073
   5633488.83448   4389732.20544  24661374.785    24661377.846
 -15060394.31449 -11735372.05746  21779184.680    21779186.396
 02  1  5  0 42  0.0000000  0  8G 1G20G25G11G14G29G30G22
 -12383642.13949  -9649586.95246  22741492.173    22741492.051
 -23638299.05149 -18419448.61347  20861435.220    20861435.116
 -21478344.76749 -16736367.45747  20994358.979    20994358.975
    579350.61848                  24107532.900
   2259284.43648   1760481.25145  24043642.324    24043640.762
  -7949746.14949  -6194605.82546  22260632.268    22260632.501
   5720152.59148   4457262.42744  24677865.664    24677864.908
 -15153689.76549 -11808069.80146  21761431.143    21761432.571
 02  1  5  0 42 30.0000000  0  8G 1G20G25G11G14G29G30G22
 -12458028.33849  -9707550.20946  22727335.805    22727336.974
 -23676759.21649 -18449417.57247  20854116.198    20854116.087
 -21432287.38749 -16700478.59347  21003123.459    21003123.362
    662658.06548                  24123387.831
   2343118.70548   1825806.65545  24059595.653    24059598.334
  -7884018.41649  -6143389.43246  22273139.623    22273139.541
   5807161.69448   4525061.76644  24694423.354    24694425.733
 -15246621.20049 -11880483.90046  21743746.805    21743748.229
 02  1  5  0 43  0.0000000  0  8G 1G20G25G11G14G29G30G22
 -12532309.92849  -9765431.93546  22713199.707    22713201.801
 -23714688.68049 -18478973.00147  20846898.512    20846898.375
 -21385916.96349 -16664345.79747  21011947.381    21011947.251
    746093.21948                  24139263.892
   2427057.12048   1891213.18545  24075569.043    24075569.435
  -7818096.35949  -6092021.61546  22285684.680    22285685.459
   5894520.15448   4593133.29844  24711046.460    24711050.998
 -15339179.26449 -11952607.05946  21726133.718    21726134.881
 02  1  5  0 43 30.0000000  0  8G 1G20G25G11G14G29G30G22
 -12606479.04349  -9823226.02346  22699087.696    22699088.064
 -23752078.31049 -18508107.77647  20839783.547    20839783.378
 -21339228.15649 -16627964.91247  21020832.193    21020831.885
    829660.33648                  24155165.982
   2511106.53248   1956706.20844  24091562.360    24091562.099
  -7751973.15449  -6040497.05546  22298267.463    22298268.111
   5982232.37148   4661480.52844  24727738.358    24727738.472
 -15431353.47249 -12024431.10746  21708593.209    21708594.303
 02  1  5  0 44  0.0000000  0  8G 1G20G25G11G14G29G30G22
 -12680545.58349  -9880940.19046  22684991.765    22684993.169
 -23788937.02249 -18536828.84947  20832769.531    20832769.219
 -21292233.05349 -16591345.35647  21029775.266    21029774.978
    913345.79648                  24171090.985
   2595256.09548   2022277.25144  24107575.768    24107574.459
  -7685659.32149  -5988823.95746  22310886.123    22310886.368
   6070284.96848   4730092.98744  24744493.143    24744496.480
 -15523151.27049 -12095961.85046  21691125.135    21691126.006
 02  1  5  0 44 30.0000000  0  8G 1G20G25G11G14G29G30G22
 -12754504.97949  -9938570.86546  22670918.399    22670919.042
 -23825259.31149 -18565131.92947  20825857.548    20825857.395
 -21244929.24649 -16554485.25047  21038776.744    21038776.400
    997150.87148                  24187038.860
   2679509.41948   2087929.16645  24123609.530    24123610.123
  -7619151.37249  -5936999.59346  22323542.293    22323542.982
   6158679.44348   4798971.77244  24761314.440    24761313.947
 -15614565.63449 -12167193.81446  21673729.079    21673730.056
 02  1  5  0 45  0.0000000  0  8G 1G20G25G11G14G29G30G22
 -12828357.35149  -9996118.16546  22656865.096    22656865.230
 -23861044.28549 -18593016.32447  20819047.770    20819047.853
 -21197319.10149 -16517386.44247  21047836.668    21047836.345
   1081071.62248                  24203008.111
   2763865.24448   2153660.98844  24139660.638    24139661.992
  -7552449.99949  -5885024.49046  22336235.710    22336236.253
   6247412.42648   4868114.36244  24778200.095    24778203.065
 -15705594.12449 -12238125.08946  21656407.200    21656408.730
 02  1  5  0 45 30.0000000  0  7G 1G20G25G14G29G30G22
 -12902104.81249 -10053583.71046  22642830.451    22642832.066
 -23896292.64349 -18620482.57347  20812340.303    20812340.212
 -21149406.62849 -16480052.04947  21056954.006    21056953.693
   2848320.82948   2219470.48945  24155732.946    24155732.351
  -7485558.15949  -5832900.99946  22348964.519    22348965.071
   6336478.50648   4937516.56344  24795148.202    24795152.725
 -15796236.19449 -12308755.25846  21639158.561    21639159.407
 02  1  5  0 46  0.0000000  0  8G 1G20G25G 4G14G29G30G22
 -12975752.10849 -10110971.19346  22628816.549    22628817.840
 -23931008.32449 -18647533.75347  20805734.304    20805734.462
 -21101199.00649 -16442487.66747  21066127.572    21066127.168
         -.26658                  25324893.813
   2932870.03048   2285352.93044  24171821.719    24171821.986
  -7418481.46349  -5780633.45046  22361728.171    22361728.539
   6425869.59248   5007171.88844  24812158.745    24812163.795
 -15886494.22649 -12379086.18146  21621982.815    21621984.082
 02  1  5  0 46 30.0000000  0  8G 1G20G25G 4G14G29G30G22
 -13049310.27149 -10168289.22746  22614818.753    22614819.333
 -23965201.56549 -18674177.83647  20799227.645    20799227.312
 -21052710.08649 -16404704.09347  21075354.663    21075354.409
    -53250.89148                  25314760.294
   3017500.77548   2351298.94944  24187926.230    24187928.298
  -7351232.08349  -5728231.35246  22374525.799    22374526.630
   6515571.04348                  24829229.622
 -15976377.05949 -12449124.73946  21604878.525    21604880.276
 02  1  5  0 47  0.0000000  0  8G 1G20G25G 4G14G29G30G22
 -13122757.20849 -10225520.57846  22600841.275    22600842.827
 -23998849.23949 -18700396.80047  20792824.434    20792824.486
 -21003920.13749 -16366685.95547  21084639.131    21084639.205
   -106043.10248                  25304714.967
   3102234.33348   2417325.05344  24204051.215    24204050.213
  -7283788.47049  -5675677.89946  22387360.133    22387360.729
   6605602.00748   5147223.21144  24846360.802    24846364.137
 -16065859.82649 -12518851.56546  21587850.693    21587851.628
 02  1  5  0 47 30.0000000  0  8G 1G20G25G 4G14G29G30G22
 -13196085.88449 -10282659.77146  22586888.240    22586889.470
 -24031943.15249 -18726184.26747  20786526.939    20786526.760
 -20954823.66749 -16328428.96947  21093981.824    21093981.962
   -158369.00548                  25294758.303
   3187076.68948   2483435.93944  24220195.415    24220196.161
  -7216144.42449  -5622968.27046  22400232.190    22400232.580
   6695966.02448   5217636.69144  24863557.217    24863557.635
 -16154933.17449 -12588259.35846  21570900.357    21570901.921
 02  1  5  0 48  0.0000000  0  8G 1G20G25G 4G14G29G30G22
 -13269295.67049 -10339706.33746  22572956.778    22572957.382
 -24064481.92349 -18751539.15247  20780335.326    20780335.210
 -20905422.69049 -16289934.69947  21103382.579    21103382.333
   -210226.99148                  25284889.419
   3272027.25348   2549631.14344  24236361.710    24236361.783
  -7148300.44649  -5570102.84846  22413142.543    22413143.424
   6786660.35848   5288307.70644  24880815.484    24880817.608
 -16243593.99049 -12657345.70546  21554029.316    21554030.523
 02  1  5  0 48 30.0000000  0  8G 1G20G25G 4G14G29G30G22
 -13342397.56749 -10396668.83846  22559045.222    22559046.236
 -24096475.78649 -18776469.43547  20774247.317    20774247.032
 -20855730.52249 -16251213.52947  21112838.795    21112838.703
   -261627.11648                  25275108.238
   3357074.07448   2615901.33944  24252545.101    24252545.981
  -7080268.28249  -5517090.78446  22426088.389    22426089.025
   6877670.69948   5359224.85444  24898133.747    24898137.551
 -16331850.82049 -12726117.25646  21537233.945    21537234.975
 02  1  5  0 49  0.0000000  0  8G 1G20G25G 4G14G29G30G22
 -13415397.84449 -10453552.15046  22545154.581    22545155.202
 -24127929.74849 -18800979.01547  20768261.747    20768261.509
 -20805755.49149 -16212271.94747  21122348.364    21122348.461
   -312574.77148                  25265414.172
   3442210.04248   2682241.02744  24268745.621    24268746.666
  -7012055.11649  -5463937.69746  22439069.047    22439069.555
   6968987.48848                  24915511.141
 -16419707.67949 -12794577.13846  21520515.714    21520517.099
 02  1  5  0 49 30.0000000  0  8G 1G20G25G 4G14G29G30G22
 -13488293.61849 -10510354.03546  22531282.506    22531283.776
 -24158840.36949 -18825065.21547  20762379.326    20762379.156
 -20755497.38049 -16173109.78547  21131912.288    21131912.085
   -363066.32348                  25255806.116
   3527436.62048   2748651.30144  24284964.405    24284964.268
  -6943659.09349  -5410642.10846  22452084.257    22452085.264
   7060609.87348   5501774.88844  24932946.455    24932949.106
 -16507159.22449 -12862721.19346  21503874.020    21503875.382
 02  1  5  0 50  0.0000000  0  8G 1G20G25G 4G14G29G30G22
 -13561066.92949 -10567060.47846  22517434.067    22517435.836
 -24189188.84949 -18848713.37947  20756604.211    20756604.213
 -20704940.42249 -16133714.74847  21141533.340    21141533.220
   -413082.90348                  25246287.412
   3612770.78848   2815145.40244  24301203.057    24301203.122
  -6875063.13249  -5357190.72146  22465137.877    22465137.564
   7152552.67048   5573418.61744  24950442.703    24950435.999
 -16594185.31149 -12930533.71946  21487313.619    21487314.974
 02  1  5  0 50 30.0000000  0  8G 1G20G25G 4G14G29G30G22
 -13633717.83149 -10623671.53846  22503609.919    22503610.469
 -24218974.44249 -18871922.93247  20750936.050    20750935.844
 -20654086.91249 -16094088.63147  21151210.014    21151210.249
   -462623.69048                  25236860.280
   3698211.32948   2881722.37544  24317461.608    24317461.242
  -6806268.11649  -5303584.23746  22478229.031    22478230.629
   7244812.25748   5645309.16344  24967999.417    24967998.768
 -16680783.44349 -12998012.77546  21470834.453    21470836.061
 02  1  5  0 51  0.0000000  0  8G 1G20G25G 4G14G29G30G22
 -13706259.16949 -10680197.22746  22489804.352    22489805.453
 -24248209.17049 -18894703.24147  20745373.053    20745372.870
 -20602951.88849 -16054243.15547  21160940.813    21160940.813
   -511700.75848                  25227521.826
   3783744.46848   2948371.53344  24333737.774    24333739.288
  -6737288.05149  -5249833.56346  22491355.485    22491356.876
   7337372.44448                  24985612.692
 -16766964.44949 -13065166.80246  21454435.041    21454436.183
 02  1  5  0 51 30.0000000  0  8G 1G20G25G 4G14G29G30G22
 -13778686.87149 -10736634.38746  22476022.641    22476024.396
 -24276888.25649 -18917050.58047  20739915.738    20739915.502
 -20551533.65549 -16014177.00047  21170725.384    21170725.393
   -560309.03948                  25218271.701
   3869373.13148   3015095.10444  24350032.760    24350031.844
  -6668119.55949  -5195936.05746  22504518.366    22504518.188
   7430233.95548   5789793.76744  25003283.440    25003281.206
 -16852721.73949 -13131990.65746  21438116.040    21438117.018
