     2.10           OBSERVATION DATA    G (GPS)             RINEX VERSION / TYPE
teqc  2004Apr5                          20041208 15:58:17UTCPGM / RUN BY / DATE
OBSERVATION MODE: Permanent                                 COMMENT
CHUM Chumysh (CHUM)                                         MARKER NAME
25601M001                                                   MARKER NUMBER
T136                ROGUE SNR-8000       3.20               REC # / TYPE / VERS
113                 AOAD/M_T        NONE                    ANT # / TYPE
        0.0900        0.0000        0.0000                  ANTENNA: DELTA H/E/N
  1228950.8675  4508079.8886  4327868.4896                  APPROX POSITION XYZ
  74.75109757  42.99850108  716.3216  LonLatAlt  S/W        COMMENT
Linux 2.0.36|Pentium II|gcc -static|Linux|486/DX+           COMMENT
BIT 2 OF LLI FLAGS DATA COLLECTED UNDER A/S CONDITION       COMMENT
Konovalov           IVTAN                                   OBSERVER / AGENCY
     1     1                                                WAVELENGTH FACT L1/2
     5    L1    L2    C1    P2    P1                        # / TYPES OF OBSERV
    30.0000                                                 INTERVAL
    P1 =    P1  TurboRogue; =    Y1  Benchmark              COMMENT
    L1 = L1(P1) TurboRogue; = L1(Y1) Benchmark              COMMENT
    P2 =    P2  TurboRogue; =    Y2  Benchmark              COMMENT
    L2 = L2(P2) TurboRogue; = L2(Y2) Benchmark              COMMENT
 SNR is mapped to RINEX snr flag value [1,4-9]              COMMENT
    SNR:  >=316 >=100 >=31.6 >=10 >=3.2    >0 bad=0         COMMENT
L1 & L2:      9     8     7     6     5     4     1         COMMENT
  2002     1     7     0     0    0.0000000     GPS         TIME OF FIRST OBS
  2002     1     7    23    59   30.0000000     GPS         TIME OF LAST OBS
                                                            END OF HEADER
 02  1  7  0  0  0.0000000  0  8G30G11G25G 1G20G22G29G14
   1098267.73148    855793.71045  23738199.901    23738203.114
 -11734756.21448  -9143969.16344  23121630.300    23121630.864
 -23696452.20549 -18464762.42947  20556858.565    20556858.567
  -7113798.95948  -5543216.04145  23741040.106    23741043.644
 -19882662.85749 -15492980.54846  21570661.031    21570660.802
  -8817218.03948  -6870559.32245  23085845.383    23085847.274
 -11525257.47249  -8980714.07046  21608753.844    21608754.126
  -3140387.60049  -2447050.28845  23010714.977    23010715.067
 02  1  7  0  0 30.0000000  0  8G30G11G25G 1G20G22G29G14
   1156240.31448    900967.13144  23749232.084    23749230.869
 -11666763.48648  -9090987.84045  23134570.537    23134569.685
 -23674799.61949 -18447890.27847  20560978.537    20560978.484
  -7193892.19348  -5605626.33745  23725800.958    23725802.275
 -19952146.04249 -15547123.29846  21557439.165    21557438.846
  -8927677.16748  -6956631.36445  23064825.438    23064825.962
 -11470751.62349  -8938241.99646  21619126.109    21619126.254
  -3064295.38849  -2387757.66945  23025194.852    23025194.242
 02  1  7  0  1  0.0000000  0  8G30G11G25G 1G20G22G29G14
   1214714.71948    946531.63845  23760358.274    23760358.328
 -11598450.43848  -9037756.95244  23147568.742    23147570.290
 -23652737.42649 -18430698.95147  20565176.705    20565176.485
  -7273917.47148  -5667983.70245  23710571.090    23710573.203
 -20021247.76749 -15600968.80446  21544289.012    21544289.204
  -9037987.97048  -7042587.84445  23043833.725    23043836.810
 -11416049.87049  -8895617.26846  21629535.344    21629535.471
  -2988078.82549  -2328368.15945  23039698.233    23039697.841
 02  1  7  0  1 30.0000000  0  8G30G11G25G 1G20G22G29G14
   1273689.65148    992486.12644  23771581.731    23771581.270
 -11529818.85748  -8984277.81144  23160628.819    23160628.122
 -23630266.45749 -18413189.09947  20569453.000    20569452.688
  -7353873.52948  -5730287.10745  23695356.046    23695358.588
 -20089964.79649 -15654514.55446  21531212.833    21531212.897
  -9148146.23548  -7128425.44845  23022871.270    23022873.142
 -11361151.72849  -8852839.51146  21639982.274    21639982.210
  -2911737.17749  -2268881.18045  23054225.554    23054225.919
 02  1  7  0  2  0.0000000  0  8G30G11G25G 1G20G22G29G14
   1333164.97348   1038830.52544  23782899.496    23782901.733
 -11460869.92148  -8930551.40645  23173749.698    23173752.126
 -23607386.05349 -18395360.20847  20573807.017    20573806.714
  -7433758.28848  -5792534.94945  23680155.135    23680156.398
 -20158293.16749 -15707757.44846  21518210.206    21518210.322
  -9258147.37448  -7214140.63445  23001939.307    23001940.296
 -11306055.63749  -8809907.50246  21650466.661    21650466.990
  -2835269.24049  -2209295.78945  23068777.282    23068776.047
 02  1  7  0  2 30.0000000  0  8G30G11G25G 1G20G22G29G14
   1393142.74348   1085566.41444  23794312.648    23794313.287
 -11391602.65948  -8876576.93744  23186931.308    23186931.357
 -23584093.50149 -18377210.16747  20578239.175    20578239.100
  -7513567.43148  -5854723.84045  23664966.339    23664969.514
 -20226226.24049 -15760692.31846  21505283.114    21505283.269
  -9367983.84748  -7299727.51045  22981038.107    22981039.823
 -11250757.77349  -8766818.26746  21660989.292    21660989.497
  -2758671.48148  -2149609.23945  23083352.847    23083353.029
 02  1  7  0  3  0.0000000  0  8G30G11G25G 1G20G22G29G14
   1453615.68748   1132688.19944  23805820.012    23805820.130
 -11322025.09948  -8822360.67944  23200170.675    23200172.216
 -23560395.75149 -18358744.38347  20582748.762    20582748.697
  -7593305.97448  -5916857.75045  23649794.743    23649794.658
 -20293767.39149 -15813321.79146  21492430.661    21492430.191
  -9477657.84848  -7385187.78445  22960167.925    22960169.539
 -11195263.79249  -8723576.21846  21671549.921    21671549.883
  -2681949.56149  -2089825.94045  23097952.871    23097952.766
 02  1  7  0  3 30.0000000  0  8G30G11G25G 1G20G22G29G14
   1514597.50148   1180206.50044  23817424.380    23817425.999
 -11252124.55848  -8767892.76244  23213472.528    23213475.319
 -23536278.70249 -18339951.87647  20587338.375    20587338.221
  -7672957.98048  -5978924.25045  23634635.227    23634638.451
 -20360898.48049 -15865631.74446  21479655.610    21479655.369
  -9587150.60848  -7470506.81545  22939331.894    22939333.440
 -11139558.34349  -8680169.38746  21682150.151    21682150.321
  -2605088.41249  -2029934.15345  23112579.641    23112578.816
 02  1  7  0  4  0.0000000  0  8G30G11G25G 1G20G22G29G14
   1576069.18948   1228106.51744  23829123.033    23829122.136
 -11181920.40948  -8713188.25544  23226832.505    23226833.675
 -23511760.10049 -18320846.47047  20592004.123    20592003.851
  -7752539.95648  -6040936.17345  23619491.511    23619494.716
 -20427633.93549 -15917633.40846  21466956.964    21466956.745
  -9696475.63048  -7555695.16545  22918527.993    22918529.943
 -11083658.18949  -8636610.83746  21692787.525    21692787.590
  -2528105.11048  -1969947.17945  23127227.842    23127227.531
 02  1  7  0  4 30.0000000  0  8G30G11G25G 1G20G22G29G14
   1638036.96348   1276393.06744  23840914.432    23840915.736
 -11111407.39148  -8658243.05944  23240250.349    23240249.037
 -23486833.41849 -18301423.08047  20596747.398    20596747.346
  -7832043.47548  -6102886.97345  23604362.305    23604365.460
 -20493963.27449 -15969318.61846  21454334.916    21454334.408
  -9805621.51048  -7640743.90345  22897758.242    22897759.686
 -11027555.64449  -8592894.57946  21703463.611    21703463.555
  -2450991.91048  -1909859.00845  23141902.887    23141902.372
 02  1  7  0  5  0.0000000  0  8G30G11G25G 1G20G22G29G14
   1700488.26148   1325056.39844  23852798.315    23852798.654
 -11040599.11548  -8603067.81144  23253724.233    23253724.933
 -23461510.43949 -18281690.88647  20601566.253    20601565.935
  -7911478.74448  -6164784.56245  23589247.076    23589250.104
 -20559894.59049 -16020693.68146  21441788.070    21441788.190
  -9914595.58248  -7725658.76245  22877021.670    22877024.839
 -10971261.42049  -8549028.96646  21714175.873    21714175.902
  -2373760.13948  -1849678.40945  23156599.473    23156598.982
 02  1  7  0  5 30.0000000  0  8G30G11G25G 1G20G22G29G14
   1763420.14548   1374094.22344  23864774.400    23864773.344
 -10969499.18648  -8547665.30644  23267254.516    23267253.404
 -23435793.47949 -18261651.69847  20606460.101    20606459.786
  -7990846.08948  -6226629.22145  23574144.972    23574145.708
 -20625426.77349 -16071757.72546  21429317.787    21429317.564
 -10023395.31148  -7810437.76645  22856317.340    22856318.943
 -10914776.53149  -8505014.78146  21724924.371    21724924.689
  -2296410.70248  -1789406.13045  23171317.774    23171318.056
 02  1  7  0  6  0.0000000  0  8G30G11G25G 1G20G22G29G14
   1826835.14948   1423508.51644  23876841.977    23876844.945
 -10898106.13448  -8492034.40344  23280840.462    23280840.038
 -23409679.25049 -18241302.94947  20611429.304    20611428.933
  -8070140.69048  -6288417.19545  23559053.497    23559056.672
 -20690552.68149 -16122505.19446  21416924.845    21416924.542
 -10132013.19248  -7895075.07545  22835648.114    22835648.744
 -10858096.78249  -8460848.76046  21735710.372    21735710.503
  -2218939.64848  -1729039.09745  23186061.018    23186061.158
 02  1  7  0  6 30.0000000  0  8G30G11G25G 1G20G22G29G14
   1890740.32648   1473304.77944  23889002.626    23889003.801
 -10826413.19048  -8436169.82744  23294482.508    23294482.543
 -23383160.15349 -18220638.72047  20616475.832    20616475.433
  -8149352.93548  -6350140.95945  23543980.839    23543984.034
 -20755260.80249 -16172927.11646  21404611.210    21404611.087
 -10240436.55248  -7979560.78045  22815016.135    22815017.610
 -10801212.93949  -8416523.70046  21746535.113    21746535.069
  -2141338.06648  -1668570.34945  23200827.972    23200827.034
 02  1  7  0  7  0.0000000  0  8G30G11G25G 1G20G22G29G14
   1955121.92148   1523472.20744  23901253.463    23901255.804
 -10754435.27348  -8380083.22044  23308180.022    23308182.054
 -23356249.46449 -18199669.35347  20621596.797    20621596.390
  -8228494.30848  -6411809.52745  23528921.962    23528923.616
 -20819560.74849 -16223030.97946  21392375.370    21392375.665
 -10348673.72248  -8063901.43645  22794418.974    22794420.717
 -10744137.05549  -8372048.99746  21757396.275    21757396.824
  -2063618.00748  -1608009.28445  23215617.094    23215617.455
 02  1  7  0  7 30.0000000  0  8G30G11G25G 1G20G22G29G14
   2019984.43848   1574014.43744  23913596.950    23913596.321
 -10682168.72848  -8323771.68144  23321932.648    23321934.171
 -23328942.03149 -18178390.83847  20626793.327    20626792.945
  -8307557.88148  -6473417.46345  23513875.502    23513878.545
 -20883443.44049 -16272809.70346  21380218.875    21380218.704
 -10456715.18048  -8148089.56945  22773859.186    22773860.259
 -10686862.74149  -8327419.67046  21768295.227    21768295.571
  -1985773.36248  -1547351.13145  23230431.357    23230431.293
 02  1  7  0  8  0.0000000  0  8G30G11G25G 1G20G22G29G14
   2085299.35148   1624909.14244  23926025.826    23926028.638
 -10609642.61048  -8267257.84644  23335733.065    23335732.497
 -23301265.19549 -18156824.47547  20632059.772    20632059.478
  -8386569.46848  -6534984.89045  23498841.100    23498841.551
 -20946932.80949 -16322281.95246  21368137.218    21368137.606
 -10564583.67048  -8232142.93445  22753332.935    22753333.375
 -10629416.50749  -8282656.39546  21779226.887    21779226.706
  -1907830.80548  -1486616.68045  23245262.803    23245261.486
 02  1  7  0  8 30.0000000  0  8G30G11G25G 1G20G22G29G14
   2151070.86848   1676159.72644  23938541.623    23938542.888
 -10536853.33548  -8210538.95344  23349585.298    23349585.112
 -23273214.54549 -18134966.83147  20637397.752    20637397.439
  -8465522.69348  -6596506.83745  23483816.161    23483819.014
 -21010020.41649 -16371441.13046  21356132.386    21356132.373
 -10672270.06748  -8316054.38645  22732840.532    22732842.831
 -10571792.44849  -8237754.54946  21790192.044    21790192.215
  -1829784.39548  -1425801.32645  23260114.884    23260114.152
 02  1  7  0  9  0.0000000  0  8G30G11G25G 1G20G22G29G14
   2217322.23948   1727784.13344  23951148.401    23951148.774
 -10463778.21848  -8153597.34744  23363491.125    23363489.771
 -23244765.71249 -18112798.91447  20642811.624    20642811.153
  -8544391.51648  -6657963.00645  23468807.939    23468810.575
 -21072678.39749 -16420265.53646  21344209.080    21344209.196
 -10779745.27548  -8399801.31745  22712388.866    22712389.939
 -10513965.09349  -8192694.29246  21801196.536    21801196.651
  -1751609.17748  -1364885.57045  23274991.048    23274990.797
 02  1  7  0  9 30.0000000  0  8G30G11G25G 1G20G22G29G14
   2284056.88848   1779785.14344  23963847.751    23963849.540
 -10390414.93948  -8096431.16544  23377450.926    23377451.392
 -23215914.75849 -18090317.65347  20648301.697    20648301.322
  -8623170.09048  -6719348.86845  23453817.283    23453819.654
 -21134898.95349 -16468749.09146  21332368.280    21332368.186
 -10887000.65348  -8483376.92545  22691978.637    22691980.829
 -10455929.23149  -8147471.54746  21812240.174    21812240.364
  -1673300.03848  -1303865.49345  23289892.314    23289891.476
 02  1  7  0 10  0.0000000  0  8G30G11G25G 1G20G22G29G14
   2351251.52148   1832144.63044  23976634.652    23976634.957
 -10316787.73448  -8039059.33344  23391461.616    23391461.224
 -23186684.30049 -18067540.67847  20653864.240    20653863.775
  -8701879.16248  -6780680.56945  23438839.079    23438840.268
 -21196700.89749 -16516906.45046  21320608.031    21320608.065
 -10994054.04448  -8566795.12745  22671607.183    22671607.593
 -10397705.96249  -8102102.78246  21823319.913    21823319.879
  -1594878.46648  -1242757.79345  23304816.038    23304815.602
 02  1  7  0 10 30.0000000  0  8G30G11G25G 1G20G22G29G14
   2418922.89648   1884875.53644  23989512.049    23989514.743
 -10242880.18748  -7981469.03844  23405526.468    23405526.706
 -23157057.21649 -18044454.64247  20659502.162    20659501.783
  -8780499.38648  -6841943.02245  23423877.918    23423880.662
 -21258063.11149 -16564721.16346  21308931.539    21308931.764
 -11100883.24648  -8650038.64845  22651278.431    22651279.315
 -10339276.88649  -8056573.64846  21834438.783    21834438.626
  -1516325.83548  -1181547.94945  23319764.274    23319763.013
 02  1  7  0 11  0.0000000  0  8G30G11G25G 1G20G22G29G14
   2487074.15348   1937980.43144  24002480.647    24002481.567
 -10168689.97348  -7923658.53944  23419644.285    23419643.631
 -23127029.06249 -18021056.08547  20665216.102    20665215.723
  -8859024.88248  -6903131.69345  23408935.746    23408937.222
 -21318978.01849 -16612187.33046  21297339.232    21297339.032
 -11207479.49448  -8733100.65745  22630992.771    22630994.661
 -10280636.52149  -8010879.87646  21845597.460    21845597.638
  -1437637.07848  -1120232.05445  23334737.512    23334737.985
 02  1  7  0 11 30.0000000  0  8G30G11G25G 1G20G22G29G14
   2555689.51848   1991446.92444  24015537.474    24015537.356
 -10094233.83148  -7865640.80744  23433812.233    23433812.656
 -23096615.37049 -17997357.10847  20671003.691    20671003.403
  -8937469.08448  -6964256.99545  23394008.120    23394010.100
 -21379456.82049 -16659313.67247  21285830.678    21285830.544
 -11313853.33448  -8815989.36045  22610751.452    22610753.593
 -10221798.95649  -7965032.44246  21856793.965    21856794.500
  -1358826.49648  -1058821.22545  23349735.153    23349735.321
 02  1  7  0 12  0.0000000  0  8G30G11G25G 1G20G22G29G14
   2624763.32448   2045270.68044  24028683.041    24028685.412
 -10019517.90848  -7807420.63444  23448030.584    23448030.167
 -23065820.62549 -17973361.20747  20676863.836    20676863.399
  -9015834.68548  -7025321.06545  23379095.476    23379097.327
 -21439500.68449 -16706101.10347  21274405.004    21274405.150
 -11420004.52248  -8898704.56845  22590551.325    22590553.909
 -10162767.34149  -7919033.80946  21868027.473    21868027.817
  -1279897.60848   -997318.22445  23364755.199    23364754.239
 02  1  7  0 12 30.0000000  0  8G30G11G25G 1G20G22G29G14
   2694275.59948   2099436.06144  24041908.677    24041911.472
  -9944562.75048  -7749014.05444  23462294.061    23462298.245
 -23034664.12049 -17949083.41247  20682792.632    20682792.341
  -9094139.11048  -7086337.44345  23364194.447    23364195.980
 -21499124.95649 -16752561.57147  21263058.883    21263058.812
 -11525947.72448  -8981257.71945  22570391.049    22570394.014
 -10103560.07649  -7872898.28846  21879294.279    21879294.387
  -1200868.54648   -935737.13145  23379793.462    23379791.948
 02  1  7  0 13  0.0000000  0  8G30G11G25G 1G20G22G29G14
   2764227.92148   2153944.33944  24055221.418    24055222.630
  -9869367.13348  -7690420.07844  23476603.548    23476606.728
 -23003143.54349 -17924521.92947  20688790.682    20688790.499
  -9172378.19248  -7147302.94545  23349305.647    23349307.624
 -21558323.75749 -16798690.50847  21251793.562    21251793.446
 -11631675.86749  -9063643.28445  22550272.391    22550272.252
 -10044173.27649  -7826622.87546  21890595.177    21890595.045
  -1121735.82948   -874075.28845  23394851.921    23394852.192
 02  1  7  0 13 30.0000000  0  8G30G11G25G 1G20G22G29G14
   2834620.86948   2208796.03044  24068616.618    24068616.924
  -9793931.39348  -7631639.00844  23490958.234    23490959.781
 -22971257.49449 -17899675.65747  20694858.311    20694858.244
  -9250548.56848  -7208214.89145  23334430.615    23334433.349
 -21617091.89349 -16844483.86047  21240610.184    21240610.270
 -11737182.79348  -9145856.46245  22530194.531    22530196.231
  -9984604.21449  -7780205.44246  21901930.903    21901931.152
  -1042497.01248   -812330.79145  23409930.831    23409930.338
 02  1  7  0 14  0.0000000  0  8G30G11G25G 1G20G22G29G14
   2905470.23248   2264003.30144  24082099.421    24082099.961
  -9718240.63148  -7572659.19944  23505362.444    23505365.128
 -22938989.49149 -17874531.76247  20700998.750    20700998.598
  -9328631.77748  -7269058.90845  23319572.087    23319573.486
 -21675409.10949 -16889925.84547  21229512.942    21229513.036
 -11842447.15948  -9227880.62645  22510163.178    22510165.167
  -9924835.27349  -7733632.26246  21913304.568    21913304.259
   -963134.39748   -750489.81045  23425032.739    23425032.003
 02  1  7  0 14 30.0000000  0  8G30G11G25G 1G20G22G29G14
   2976768.79548   2319560.62644  24095667.269    24095667.133
  -9642302.65548                  23519811.516
 -22906345.87049 -17849095.17447  20707210.580    20707210.610
  -9406632.24948  -7329838.45845  23304728.312    23304730.439
 -21733277.88749 -16935018.40047  21218501.004    21218500.967
 -11947470.44349  -9309716.96545  22490178.253    22490178.809
  -9864871.32249  -7686907.11646  21924714.977    21924715.009
   -883653.33348   -688556.54045  23440157.659    23440156.532
 02  1  7  0 15  0.0000000  0  8G30G11G25G 1G20G22G29G14
   3048521.73448   2375472.00644  24109320.077    24109320.352
  -9566112.85148  -7454118.18444  23534310.740    23534310.030
 -22873320.89949 -17823361.43147  20713495.104    20713494.966
  -9484542.43548  -7390547.64345  23289902.851    23289906.075
 -21790688.90649 -16979754.26447  21207575.920    21207576.149
 -12052242.21948  -9391357.30445  22470240.330    22470241.871
  -9804705.29549  -7640024.52046  21936164.465    21936164.355
   -804046.91648   -626525.57845  23455305.749    23455305.638
 02  1  7  0 15 30.0000000  0  8G30G11G25G 1G20G22G29G14
   3120716.42748                  24123058.641
  -9489684.57248                  23548853.647
 -22839926.30349 -17797339.66847  20719849.967    20719849.733
  -9562371.82848  -7451193.87045  23275092.627    23275094.302
 -21847650.13749 -17024139.64047  21196736.524    21196736.524
 -12156769.26849  -9472806.94645  22450349.647    22450352.541
  -9744347.44249  -7592992.44346  21947650.544    21947650.278
   -724325.57748   -564405.08045  23470477.451    23470476.975
 02  1  7  0 16  0.0000000  0  8G30G11G25G 1G20G22G29G14
   3193354.34948   2488328.60944  24136880.883    24136880.523
  -9413016.91148  -7334822.75444  23563444.494    23563447.453
 -22806159.94349 -17771028.22047  20726275.010    20726275.108
  -9640116.32348  -7511773.96045  23260298.196    23260299.032
 -21904155.72149 -17068169.96847  21185984.099    21185984.310
 -12261044.65549  -9554060.49345  22430507.033    22430508.211
  -9683794.45349  -7545808.31346  21959172.864    21959173.279
   -644486.11448   -502192.53045  23485669.386    23485668.916
 02  1  7  0 16 30.0000000  0  8G30G11G25G 1G20G22G29G14
   3266427.06148   2545268.36344  24150786.510    24150789.415
  -9336118.93348                  23578076.739
 -22772028.94849 -17744432.63647  20732769.813    20732770.054
  -9717781.43648  -7572292.19345  23245518.547    23245520.439
 -21960209.24949 -17111848.04547  21175317.246    21175317.270
 -12365071.07749  -9635120.01545  22410711.146    22410711.813
  -9623052.41749  -7498476.87246  21970731.685    21970732.100
   -564534.93648   -439892.93445  23500884.049    23500883.957
 02  1  7  0 17  0.0000000  0  8G30G11G25G 1G20G22G29G14
   3339933.98748   2602546.49644  24164774.294    24164774.824
  -9258991.18348                  23592753.225
 -22737533.17549 -17717552.81047  20739334.604    20739334.455
  -9795365.06848  -7632746.90745  23230754.759    23230756.885
 -22015806.93349 -17155170.91847  21164737.368    21164737.597
 -12468843.40049  -9715981.57745  22390963.996    22390964.629
  -9562119.74549  -7450996.87746  21982327.431    21982327.528
   -484470.18148   -377504.84045  23516119.873    23516119.334
 02  1  7  0 17 30.0000000  0  8G30G11G25G 1G20G22G29G14
   3413860.17548   2660151.31344  24178841.853    24178844.968
  -9181649.79548                  23607470.374
 -22702687.15549 -17690400.06347  20745965.567    20745965.602
  -9872879.24348  -7693147.49545  23216004.901    23216006.091
 -22070959.09249 -17198146.62847  21154242.240    21154242.385
 -12572371.05149  -9796652.45845  22371263.273    22371264.768
  -9501009.27549  -7403378.34746  21993955.969    21993956.293
   -404305.25248   -315038.67445  23531374.419    23531373.603
 02  1  7  0 18  0.0000000  0  8G30G11G25G 1G20G22G29G14
   3488221.80648   2718095.45144  24192993.632    24192993.226
  -9104079.40547                  23622230.748
 -22667473.66749 -17662960.97747  20752666.356    20752666.369
  -9950305.30948  -7753479.42045  23201271.332    23201272.678
 -22125645.07149 -17240759.07647  21143835.938    21143835.881
 -12675632.26649  -9877115.72945  22351613.264    22351615.445
  -9439702.73149  -7355607.03646  22005621.893    22005622.367
   -324022.21848   -252480.49945  23546652.458    23546651.407
 02  1  7  0 18 30.0000000  0  8G30G11G25G 1G20G22G29G14
   3563023.58548   2776382.51944  24207226.150    24207229.574
  -9026275.42248  -7033466.08344  23637038.756    23637041.809
 -22631887.02249 -17635231.12347  20759438.426    20759438.357
 -10027635.68748  -7813736.79945  23186555.385    23186558.547
 -22179855.52049 -17283000.98547  21133520.123    21133520.156
 -12778616.49149  -9957363.15345  22332015.979    22332017.965
  -9378193.05049  -7307677.42946  22017327.340    22017327.750
   -243613.70348   -189824.52345  23561953.188    23561953.403
 02  1  7  0 19  0.0000000  0  8G30G11G25G 1G20G22G29G14
   3638257.69948   2835006.55744  24221543.783    24221544.670
  -8948246.41548                  23651886.642
 -22595934.26149 -17607215.97847  20766280.227    20766280.217
 -10104875.39248  -7873923.51345  23171857.569    23171858.206
 -22233593.92549 -17324875.06347  21123293.910    21123294.217
 -12881326.09149 -10037396.59745  22312470.999    22312472.483
  -9316485.88749  -7259593.94346  22029069.642    22029070.175
   -163085.73548   -127075.46845  23577277.702    23577277.980
 02  1  7  0 19 30.0000000  0  8G30G11G25G 1G20G22G29G14
   3713914.97548   2893960.23444  24235940.884    24235942.410
  -8870001.84448                  23666776.712
 -22559623.57149 -17578921.93047  20773189.591    20773189.610
 -10182030.48048  -7934044.28945  23157175.271    23157177.359
 -22286864.68849 -17366384.74647  21113157.071    21113157.048
 -12983764.29449 -10117218.56945  22292977.995    22292978.966
  -9254588.17349  -7211361.97246  22040848.021    22040847.991
    -82445.58748    -64239.01245  23592622.435    23592622.921
 02  1  7  0 20  0.0000000  0  8G20G30G11G25G 1G22G29G14
 -22339686.85749 -17407544.87547  21103105.362    21103105.459
   3789971.96648   2953225.39544  24250414.867    24250413.714
  -8791565.92348                  23681701.468
 -22522978.04249 -17550366.96847  20780163.200    20780163.253
 -10259121.59048  -7994115.21945  23142504.692    23142505.985
 -13085949.04649 -10196843.03545  22273532.208    22273534.336
  -9192521.25049  -7162998.15346  22052659.214    22052659.380
     -1714.57748     -1331.77045  23607985.004    23607986.198
 02  1  7  0 20 30.0000000  0  8G20G30G11G25G 1G22G29G14
 -22392031.25049 -17448332.71447  21093144.248    21093144.332
   3866453.44348   3012821.36444  24264969.006    24264968.972
  -8712914.56948                  23696669.476
 -22485971.77849 -17521530.91047  20787205.229    20787205.217
 -10336121.05348  -8054114.75545  23127852.871    23127854.305
 -13187849.83449 -10276246.23845  22254141.466    22254143.038
  -9130258.03249  -7114481.37446  22064507.608    22064507.610
     79134.02348     61667.12545  23623370.734    23623369.913
 02  1  7  0 21  0.0000000  0  8G20G30G11G25G 1G22G29G14
 -22443887.37049 -17488740.08047  21083276.290    21083276.170
   3943365.34348   3072752.70644  24279603.779    24279605.485
  -8634042.31148                  23711678.753
 -22448597.81049 -17492408.33247  20794317.291    20794317.221
 -10413019.98948  -8114035.95845  23113219.127    23113219.828
 -13289455.11149 -10355419.16245  22234806.386    22234807.326
  -9067790.37649  -7065805.29546  22076394.859    22076395.199
    160108.27348    124763.94545  23638778.850    23638780.062
 02  1  7  0 21 30.0000000  0  8G20G30G11G25G 1G22G29G14
 -22495264.07049 -17528773.87247  21073499.655    21073499.574
   4020694.00448   3133008.79644  24294320.146    24294322.181
  -8554963.09848                  23726726.982
 -22410868.73349 -17463009.04847  20801496.980    20801496.866
 -10489828.97248  -8173887.08045  23098602.821    23098603.567
 -13390772.69549 -10434367.92845  22215526.636    22215527.874
  -9005129.70249  -7016978.80846  22088318.724    22088318.927
    241196.65448    187949.64645  23654209.682    23654208.929
 02  1  7  0 22  0.0000000  0  8G20G30G11G25G 1G22G29G14
 -22546167.81049 -17568439.12847  21063813.146    21063813.078
   4098428.55048   3193581.20344  24309111.742    24309112.170
  -8475688.65148                  23741811.327
 -22372795.08449 -17433341.26747  20808742.006    20808742.015
 -10566556.14749  -8233674.44545  23084002.506    23084004.370
 -13491807.68949 -10513096.47845  22196300.176    22196302.483
  -8942284.60049  -6968008.62046  22100277.751    22100277.890
    322390.35848    251217.45645  23669660.872    23669659.724
 02  1  7  0 22 30.0000000  0  8G20G30G11G25G 1G22G29G14
 -22596583.62749 -17607724.18747  21054219.050    21054219.262
   4176579.43448   3254477.95744  24323983.817    24323982.166
  -8396208.96748                  23756936.646
 -22334365.01849 -17403395.75847  20816054.865    20816054.961
 -10643188.04948  -8293387.56845  23069418.878    23069420.981
 -13592544.03949 -10591592.31846  22177130.904    22177132.787
  -8879242.30049  -6918884.76646  22112274.210    22112275.129
    403701.94048    314577.11245  23685133.166    23685132.455
 02  1  7  0 23  0.0000000  0  8G20G30G11G25G 1G22G29G14
 -22646514.46849 -17646631.33647  21044717.732    21044718.073
   4255139.22848   3315693.40644  24338933.265    24338932.360
  -8316531.81348                  23772100.109
 -22295584.97749 -17373177.53947  20823434.251    20823434.463
 -10719729.09648  -8353029.90645  23054853.849    23054854.628
 -13692983.24549 -10669856.61946  22158018.081    22158019.219
  -8816007.90249  -6869611.22446  22124307.723    22124307.394
    485126.06748    378024.44945  23700627.459    23700627.833
 02  1  7  0 23 30.0000000  0  8G20G30G11G25G 1G22G29G14
 -22695962.13449 -17685161.98947  21035308.354    21035308.457
   4334101.64748   3377222.53944  24353958.002    24353958.994
  -8236663.93948                  23787296.410
 -22256460.76049 -17342691.13447  20830879.590    20830879.640
 -10796182.65149  -8412604.07645  23040305.564    23040307.645
 -13793126.13049 -10747890.01846  22138961.433    22138962.267
  -8752585.71749  -6820191.35646  22136376.201    22136376.785
    566658.37148    441556.10545  23716143.512    23716141.900
 02  1  7  0 24  0.0000000  0  8G20G30G11G25G 1G22G29G14
 -22744934.56449 -17723322.32947  21025988.790    21025988.824
   4413454.11548   3439055.61944  24369059.666    24369059.248
  -8156618.25248                  23802530.141
 -22217003.89849 -17311945.52547  20838388.019    20838388.040
 -10872558.10548  -8472117.37045  23025771.422    23025773.783
 -13892979.24749 -10825697.63646  22119959.514    22119960.940
  -8688985.62149  -6770632.86646  22148479.062    22148479.375
    648288.60648    505164.05745  23731677.160    23731675.998
 02  1  7  0 24 30.0000000  0  8G20G30G11G25G 1G22G29G14
 -22793416.74249 -17761100.64747  21016763.146    21016763.276
   4493207.10848   3501200.81544  24384235.885    24384237.212
  -8076385.10148                  23817797.344
 -22177203.09249 -17280931.91047  20845961.485    20845961.488
 -10948842.23349  -8531559.49945  23011256.268    23011256.881
 -13992526.56749 -10903266.95146  22101016.473    22101017.881
  -8625195.10649  -6720925.99146  22160617.966    22160617.352
    730029.26648    568858.06145  23747231.371    23747232.753
 02  1  7  0 25  0.0000000  0  8G20G30G11G25G 1G22G29G14
 -22841417.66549 -17798503.96247  21007629.121    21007629.255
   4573347.03648   3563647.48144  24399486.411    24399486.918
  -7995978.33648                  23833099.188
 -22137070.80249 -17249659.99747  20853598.604    20853598.567
 -11025045.37248  -8590938.56745  22996754.363    22996755.808
 -14091775.77849 -10980603.96846  22082130.054    22082131.435
  -8561225.24349  -6671079.37046  22172791.196    22172791.109
    811869.07748    632629.31645  23762805.594    23762805.544
 02  1  7  0 25 30.0000000  0  8G20G30G11G25G 1G22G29G14
 -22888925.38249 -17835522.96247  20998588.685    20998588.930
   4653881.20348   3626401.43144  24414810.909    24414811.096
  -7915391.15048                  23848433.013
 -22096598.91149 -17218123.45647  20861300.156    20861300.083
 -11101157.40448  -8650246.63345  22982270.567    22982272.342
 -14190713.76249 -11057698.48446  22063302.863    22063304.031
  -8497066.40149  -6621085.48046  22184999.963    22185001.175
    893817.72248    696485.38645  23778399.323    23778398.355
 02  1  7  0 26  0.0000000  0  8G30G11G25G 1G20G22G29G14
   4734804.85648   3689458.74644  24430210.134    24430209.863
  -7834628.86548                  23863802.177
 -22055791.20649 -17186325.24547  20869065.587    20869065.488
 -11177180.01749  -8709485.03845  22967805.072    22967805.238
 -22935940.36549 -17872158.01247  20989641.881    20989642.012
 -14289339.51649 -11134549.68746  22044535.021    22044536.640
  -8432721.10449  -6570946.32546  22197244.610    22197244.710
    975872.20148    760423.92945  23794014.096    23794012.757
 02  1  7  0 26 30.0000000  0  8G30G11G25G 1G20G22G29G14
   4816124.84848   3752824.97544  24445685.483    24445683.690
  -7753684.98748                  23879204.730
 -22014639.83649 -17154259.24547  20876896.616    20876896.472
 -11253103.11448  -8768645.90045  22953355.479    22953357.314
 -22982451.26549 -17908400.27047  20980791.198    20980791.225
 -14387640.49149 -11211147.82046  22025829.112    22025830.583
  -8368180.21049  -6520654.73446  22209526.589    22209526.499
   1058041.65848    824452.03245  23809650.944    23809649.889
 02  1  7  0 27  0.0000000  0  8G30G11G25G 1G20G22G29G14
   4897829.12248   3816490.66544  24461232.236    24461230.425
  -7672571.69247                  23894639.671
 -21973155.90049 -17121934.10247  20884790.786    20884790.783
 -11328935.64949  -8827736.17545  22938926.298    22938927.826
 -23028465.56049 -17944255.55847  20972035.055    20972035.134
 -14485622.82249 -11287497.66146  22007183.568    22007185.512
  -8303453.33649  -6470218.22646  22221843.671    22221844.071
   1140316.37648    888562.19045  23825306.861    23825307.261
 02  1  7  0 27 30.0000000  0  8G30G11G25G 1G20G22G29G14
   4979916.53048   3880454.85444  24476853.394    24476854.608
  -7591291.03248                  23910108.010
 -21931339.61849 -17089349.98747  20892748.243    20892747.883
 -11404675.80148  -8886754.46845  22924513.525    22924514.471
 -23073979.84849 -17979721.22847  20963373.842    20963374.017
 -14583282.12549 -11363595.79146  21988599.069    21988601.163
  -8238539.31749  -6419635.90346  22234196.262    22234196.159
   1222697.04548    952754.89745  23840983.292    23840982.020
 02  1  7  0 28  0.0000000  0  8G30G11G25G 1G20G22G29G14
   5062389.31748   3944719.41144  24492548.075    24492547.044
  -7509840.94947                  23925606.501
 -21889187.86549 -17056504.47147  20900769.529    20900769.382
 -11480318.40148  -8945696.75045  22910118.089    22910119.924
 -23118987.49649 -18014792.12147  20954809.284    20954809.230
 -14680610.26649 -11439435.88646  21970078.785    21970080.249
  -8173433.70649  -6368904.28046  22246585.482    22246585.360
   1305188.07548   1017033.60045  23856681.037    23856680.339
 02  1  7  0 28 30.0000000  0  8G30G11G25G 1G20G22G29G14
   5145248.79848   4009285.21044  24508315.492    24508316.819
  -7428220.68447                  23941137.712
 -21846698.27149 -17023395.69947  20908854.834    20908854.660
 -11555858.70349  -9004559.32345  22895745.305    22895745.853
 -23163482.66649 -18049463.67747  20946341.958    20946342.260
 -14777599.99649 -11515012.27646  21951621.503    21951623.109
  -8108132.55849  -6318020.29246  22259012.121    22259011.998
   1387793.30748   1081401.30245  23872400.300    23872399.830
 02  1  7  0 29  0.0000000  0  8G30G11G25G 1G20G22G29G14
   5228494.81748   4074152.26844  24524156.842    24524154.456
  -7346430.40547                  23956701.709
 -21803870.06949 -16990023.07647  20917004.798    20917004.631
 -11631293.90948  -9063339.96646  22881388.455    22881391.163
 -23207460.94449 -18083732.46347  20937973.011    20937973.089
 -14874245.79149 -11590320.65946  21933230.914    21933231.692
  -8042633.57149  -6266982.14646  22271475.598    22271476.179
   1470514.75348   1145859.52845  23888141.164    23888141.590
 02  1  7  0 29 30.0000000  0  7G30G 1G22G25G20G29G14
   5312098.16948   4139297.70444  24540065.319    24540064.205
 -11706650.04148  -9122059.03445  22867048.838    22867050.107
 -14970570.88349 -11665379.16246  21914900.226    21914902.134
 -21760731.38649 -16956408.52147  20925213.888    20925213.885
 -23250946.93449 -18117617.64947  20929698.160    20929698.258
  -7976964.00549  -6215811.07746  22283972.437    22283972.743
   1553325.56348   1210387.41245  23903899.957    23903898.291
 02  1  7  0 30  0.0000000  0  7G30G 1G22G25G20G29G14
   5396074.64048   4204733.90744  24556046.075    24556044.593
 -11781908.28949  -9180701.81145  22852729.427    22852729.853
 -15066553.97049 -11740171.15346  21896635.870    21896636.897
 -21717265.65449 -16922539.12547  20933485.305    20933485.303
 -23293920.61749 -18151103.63747  20921520.426    20921520.433
  -7911105.36449  -6164492.67446  22296505.063    22296504.809
   1636243.27148   1274998.57645  23919678.839    23919676.651
 02  1  7  0 30 30.0000000  0  7G30G25G 1G20G22G29G14
   5480418.09548   4270456.07644  24572095.817    24572095.175
 -21673477.87449 -16888418.78347  20941817.769    20941817.693
 -11857071.41648  -9239270.46345  22838424.162    22838425.830
 -23336383.52249 -18184191.61647  20913440.304    20913440.304
 -15162195.00849 -11814696.61946  21878435.698    21878437.463
  -7845061.43049  -6113029.89446  22309072.365    22309072.634
   1719264.43048   1339690.37445  23935476.353    23935476.714
 02  1  7  0 31  0.0000000  0  7G30G 1G22G29G25G20G14
   5565128.31048   4336464.02144  24588214.942    24588215.747
 -11932136.55649  -9297762.76145  22824140.885    22824142.030
 -15257488.79649 -11888951.48646  21860302.099    21860303.484
  -7778830.05049  -6061421.04946  22321676.644    22321676.642
 -21629367.27149 -16854046.89147  20950211.412    20950211.333
 -23378331.50549 -18216878.35747  20905457.830    20905457.893
   1802390.80348   1404464.13845  23951296.485    23951296.268
 02  1  7  0 31 30.0000000  0  7G30G25G 1G20G22G29G14
   5650209.72548   4402761.24644  24604406.212    24604406.120
 -21584928.56349 -16819419.32947  20958667.868    20958667.864
 -12007096.04749  -9356172.72446  22809876.964    22809877.661
 -23419755.59049 -18249156.86647  20897574.970    20897575.048
 -15352425.01649 -11962927.74746  21842236.087    21842238.122
  -7712404.42049  -6009660.84246  22334316.463    22334316.872
   1885629.17148   1469325.14545  23967135.444    23967136.554
 02  1  7  0 32  0.0000000  0  8G30G11G25G 1G20G22G29G14
   5735658.66348   4469344.81444  24620666.522    24620667.455
         -.21658                  24050680.454
 -21540164.30849 -16784538.09747  20967186.331    20967186.195
 -12081950.30248  -9414500.69046  22795631.174    22795633.115
 -23460654.97649 -18281026.51447  20889791.997    20889792.185
 -15447001.36449 -12036623.57746  21824238.979    21824240.019
  -7645785.80549  -5957750.25546  22346993.739    22346994.166
   1968978.00448   1534272.28645  23982996.006    23982996.138
 02  1  7  0 32 30.0000000  0  8G30G11G25G 1G20G22G29G14
   5821458.47448   4536201.79744  24636993.204    24636990.967
     82815.45848                  24066440.349
 -21495090.08249 -16749415.32847  20975763.707    20975763.815
 -12156712.97049  -9472757.28146  22781405.670    22781407.043
 -23501041.92949 -18312496.86947  20882106.379    20882106.687
 -15541228.80349 -12110047.53246  21806308.118    21806309.388
  -7578988.43249  -5905700.37546  22359704.684    22359705.211
   2052422.85448   1599294.18945  23998874.889    23998875.676
 02  1  7  0 33  0.0000000  0  8G30G11G25G 1G20G22G29G14
   5907618.99748   4603339.89144  24653389.749    24653386.992
    165771.99048                  24082226.252
 -21449694.94049 -16714042.49447  20984401.835    20984401.925
 -12231370.81749  -9530932.22846  22767198.192    22767199.252
 -23540902.30949 -18343556.90747  20874521.431    20874521.534
 -15635091.62949 -12183187.37746  21788446.356    21788448.319
  -7512000.02049  -5853501.63946  22372452.560    22372452.667
   2135975.94848   1664400.48144  24014775.215    24014773.054
 02  1  7  0 33 30.0000000  0  8G30G11G25G 1G20G22G29G14
   5994128.51048   4670749.91144  24669850.943    24669851.946
    248857.40748                  24098036.183
 -21403989.83349 -16678428.13147  20993099.279    20993099.143
 -12305932.53848  -9589032.25545  22753007.949    22753009.979
 -23580243.26849 -18374212.20147  20867035.241    20867035.288
 -15728595.77749 -12256047.73046  21770653.575    21770655.039
  -7444829.94049  -5801161.32946  22385234.383    22385235.452
   2219627.91448   1729583.76944  24030693.255    24030692.972
 02  1  7  0 34  0.0000000  0  8G30G11G25G 1G20G22G29G14
   6080980.14348   4738426.50844  24686378.939    24686378.501
    332064.45048                  24113870.188
 -21357980.90149 -16642577.01947  21001854.537    21001854.522
 -12380401.63949  -9647060.11346  22738839.880    22738840.394
 -23619067.23849 -18404464.64247  20859647.193    20859647.230
 -15821742.28949 -12328629.40946  21752927.894    21752929.746
  -7377482.48549  -5748682.82046  22398049.844    22398050.441
   2303373.95948   1794840.41544  24046628.824    24046627.350
 02  1  7  0 34 30.0000000  0  8G30G11G25G 1G20G22G29G14
   6168188.34048   4806380.92844  24702973.873    24702976.897
    415407.36348                  24129731.731
 -21311652.01649 -16606476.59447  21010670.605    21010670.578
 -12454760.44449  -9705002.02546  22724687.776    22724689.751
 -23657355.40249 -18434299.56947  20852360.979    20852361.315
 -15914510.84849 -12400916.56946  21735275.158    21735276.215
  -7309940.72149  -5696052.89646  22410903.111    22410903.577
   2387230.99848   1860183.52145  24062587.183    24062587.381
 02  1  7  0 35  0.0000000  0  8G30G11G25G 1G20G22G29G14
   6255741.30348   4874604.00844  24719634.422    24719633.786
    498873.92648                  24145612.268
 -21265013.86149 -16570135.17847  21019545.705    21019545.463
 -12529017.53749  -9762864.67446  22710557.436    22710559.106
 -23695115.19849 -18463722.78547  20845175.719    20845175.719
 -16006907.49349 -12472913.94046  21717692.134    21717693.857
  -7242214.41149  -5643279.16746  22423791.101    22423791.526
   2471189.42448   1925605.62445  24078563.958    24078564.801
 02  1  7  0 35 30.0000000  0  8G30G11G25G 1G20G22G29G14
   6343640.69748   4943097.04144  24736361.243    24736362.577
    582465.68048    453869.51844  24161520.948    24161522.417
 -21218064.22149 -16533551.04547  21028480.212    21028479.763
 -12603167.83049  -9820644.09946  22696448.403    22696449.088
 -23732340.65249 -18492729.63347  20838091.907    20838092.052
 -16098924.87149 -12544615.77646  21700182.025    21700183.856
  -7174299.06249  -5590358.13246  22436714.701    22436715.345
   2555253.14348   1991109.79445  24094560.121    24094560.312
 02  1  7  0 36  0.0000000  0  8G30G11G25G 1G20G22G29G14
   6431876.69948   5011852.37344  24753151.707    24753159.613
    666172.35848                  24177448.542
 -21170811.97549 -16496731.11647  21037471.864    21037471.699
 -12677218.02649  -9878345.52746  22682355.471    22682358.029
 -23769037.30949 -18521324.43147  20831108.719    20831108.551
 -16190567.01349 -12616025.21246  21682743.147    21682744.430
  -7106202.32349  -5537295.76246  22449673.087    22449674.056
   2639414.53748   2056690.05744  24110576.071    24110574.137
 02  1  7  0 36 30.0000000  0  8G30G11G25G 1G20G22G29G14
   6520454.92948   5080874.35044  24770008.262    24770008.282
    749999.19648                  24193401.894
 -21123250.23849 -16459670.02647  21046522.532    21046522.049
 -12751159.20549  -9935962.00146  22668286.038    22668286.616
 -23805194.85349 -18549499.14647  20824228.048    20824228.163
 -16281822.32649 -12687133.22746  21665377.748    21665379.317
  -7037915.98049  -5484085.64046  22462667.868    22462668.304
   2723681.54448   2122352.61945  24126611.797    24126610.865
 02  1  7  0 37  0.0000000  0  7G30G25G 1G20G22G29G14
   6609370.36748   5150159.17444  24786928.068    24786929.354
 -21075382.60249 -16422370.57247  21055631.395    21055631.053
 -12824992.68349  -9993494.57046  22654235.788    22654237.119
 -23840813.92849 -18577254.27047  20817449.872    20817449.845
 -16372689.91349 -12757939.12746  21648085.986    21648087.715
  -6969442.39349  -5430729.61445  22475697.252    22475697.735
   2808051.77048   2188095.61844  24142666.127    24142666.741
 02  1  7  0 37 30.0000000  0  8G30G 4G25G 1G20G22G29G14
   6698631.97748   5219713.55944  24803912.901    24803913.434
         -.50458                  25329165.368
 -21027199.80549 -16384825.53647  21064800.172    21064799.969
 -12898706.80749 -10050934.14246  22640207.867    22640210.268
 -23875881.85049 -18604579.92447  20810776.864    20810776.915
 -16463155.36149 -12828431.66346  21630871.509    21630872.863
  -6900770.63149  -5377219.18346  22488765.167    22488766.021
   2892536.05348   2253927.48144  24158743.919    24158743.645
 02  1  7  0 38  0.0000000  0  8G30G 4G25G 1G20G22G29G14
   6788198.17548   5289505.42744  24820958.448    24820957.254
    -53437.04048                  25318996.208
 -20978742.01849 -16347066.22747  21074021.399    21074021.041
 -12972339.49049 -10108310.24046  22626196.934    22626197.960
 -23910435.41649 -18631504.77947  20804201.632    20804201.659
 -16553254.26249 -12898638.58946  21613725.594    21613727.117
  -6831939.48349  -5323584.53245  22501864.085    22501863.687
   2977095.18248   2319817.66644  24174834.274    24174834.978
 02  1  7  0 38 30.0000000  0  8G30G 4G25G 1G20G22G29G14
   6878092.97748   5359553.40144  24838064.157    24838067.554
   -106417.88748                  25308914.866
 -20929984.31049 -16309073.20947  21083299.704    21083299.296
 -13045863.48149 -10165601.63646  22612205.172    22612206.793
 -23944446.39249 -18658006.83947  20797729.573    20797729.559
 -16642956.94549 -12968536.75646  21596655.962    21596657.394
  -6762922.83549  -5269805.33245  22514996.643    22514997.019
   3061755.59548   2385786.78044  24190944.737    24190944.391
 02  1  7  0 39  0.0000000  0  8G30G 4G25G 1G20G22G29G14
   6968300.31548   5429844.76144  24855230.439    24855233.615
   -158954.66648                  25298918.033
 -20880941.60449 -16270858.11947  21092632.209    21092631.997
 -13119291.29949 -10222818.09046  22598231.494    22598233.594
 -23977926.42749 -18684095.17847  20791358.284    20791358.562
 -16732273.52849 -13038134.07946  21579659.400    21579661.001
  -6693733.73749  -5215891.76346  22528163.539    22528164.319
   3146503.56848   2451824.12044  24207072.283    24207071.753
 02  1  7  0 39 30.0000000  0  8G30G 4G25G 1G20G22G29G14
   7058827.85548                  24872457.237
   -211035.50748                  25289006.907
 -20831605.08349 -16232414.08247  21102020.685    21102020.345
 -13192612.00049 -10279951.08446  22584280.190    22584281.287
 -24010863.65849 -18709760.55347  20785090.684    20785090.774
 -16821190.68049 -13107420.15146  21562739.130    21562741.101
  -6624362.30749  -5161836.11445  22541364.472    22541364.333
   3231348.93648   2517937.35444  24223217.239    24223217.826
 02  1  7  0 40  0.0000000  0  8G30G 4G25G 1G20G22G29G14
   7149678.28748   5571178.30044  24889744.977    24889745.002
   -262653.46148                  25279184.086
 -20781970.63149 -16193737.88647  21111465.904    21111465.557
 -13265819.71049 -10336996.03546  22570348.628    22570349.643
 -24043251.17249 -18734997.57347  20778927.835    20778927.946
 -16909699.77749 -13176388.26146  21545896.679    21545898.125
  -6554803.59649  -5107634.53045  22554600.681    22554601.766
   3316296.87648   2584130.50244  24239382.970    24239381.999
 02  1  7  0 40 30.0000000  0  8G30G 4G25G 1G20G22G29G14
   7240859.64948   5642228.62044  24907096.533    24907095.161
   -313795.98148                  25269452.837
 -20732029.39049 -16154822.63647  21120969.095    21120969.138
 -13338902.94349 -10393943.98846  22556441.252    22556443.077
 -24075076.62649 -18759796.62847  20772871.782    20772871.482
 -16997787.29649 -13245027.86646  21529133.503    21529135.135
  -6485046.89149  -5053278.69145  22567875.094    22567875.536
   3401357.59348   2650411.53244  24255568.776    24255569.386
 02  1  7  0 41  0.0000000  0  8G30G 4G25G 1G20G22G29G14
   7332350.54548   5713520.28544  24924506.986    24924509.221
   -364480.23348                  25259808.338
 -20681801.87549 -16115684.31947  21130527.023    21130526.796
 -13411879.63249 -10450808.92846  22542554.868    22542555.248
 -24106356.92549 -18784170.88347  20766919.194    20766919.051
 -17085468.60049 -13313350.93546  21512448.877    21512450.344
  -6415111.08849  -4998783.27945  22581183.524    22581183.520
   3486512.24048   2716765.76644  24271773.313    24271771.599
 02  1  7  0 41 30.0000000  0  8G30G 4G25G 1G20G22G29G14
   7424157.21748   5785057.98044  24941977.149    24941974.075
   -414695.76848                  25250252.224
 -20631280.48649 -16076317.00347  21140141.466    21140141.249
 -13484740.27049 -10507583.42246  22528689.279    22528690.774
 -24137081.84949 -18808112.38147  20761072.207    20761072.188
 -17172731.78249 -13381348.19446  21495842.707    21495844.755
  -6344987.61949  -4944141.62145  22594527.446    22594527.823
   3571769.06448   2783199.58044  24287997.582    24287998.734
 02  1  7  0 42  0.0000000  0  8G30G 4G25G 1G20G22G29G14
   7516263.77048   5856829.25944  24959504.764    24959504.273
   -464454.53748                  25240782.702
 -20580480.29149 -16036732.43447  21149807.980    21149808.022
 -13557497.31949 -10564277.18646  22514844.355    22514845.655
 -24167263.32649 -18831630.41347  20755328.896    20755328.790
 -17259587.11849 -13449027.65146  21479315.170    21479316.643
  -6274690.04349  -4889364.30245  22607904.539    22607905.430
   3657114.61048   2849702.56644  24304238.285    24304240.872
 02  1  7  0 42 30.0000000  0  8G30G 4G25G 1G20G22G29G14
   7608683.73748   5928844.84444  24977091.768    24977090.051
   -513738.38348                  25231405.258
 -20529386.75349 -15996919.29447  21159530.789    21159530.767
 -13630133.73549 -10620876.94846  22501022.674    22501022.978
 -24196883.18849 -18854710.82247  20749692.278    20749692.390
 -17346015.01349 -13516374.03846  21462868.087    21462869.893
  -6204202.13049  -4834438.68145  22621318.220    22621319.586
   3742564.87448   2916287.12244  24320498.971    24320500.679
 02  1  7  0 43  0.0000000  0  8G30G 4G25G 1G20G22G29G14
   7701410.65648   6001099.59444  24994736.665    24994737.494
   -562549.81348                  25222116.454
 -20478005.00249 -15956881.56447  21169308.465    21169308.387
 -13702652.86949 -10677385.33946  22487221.429    22487222.671
 -24225944.05149 -18877355.64947  20744162.480    20744162.382
 -17432016.56549 -13583388.20346  21446503.053    21446504.321
  -6133527.98948  -4779367.94045  22634767.021    22634767.579
   3828115.36648   2982949.79244  24336778.363    24336779.204
 02  1  7  0 43 30.0000000  0  8G30G 4G25G 1G20G22G29G14
   7794434.31548                  25012438.420
   -610894.53448                  25212915.896
 -20426344.40749 -15916626.55347  21179138.881    21179139.014
 -13775061.30849 -10733807.47246  22473443.469    22473444.789
 -24254451.83449 -18899569.50547  20738737.675    20738737.618
 -17517596.15649 -13650073.57546  21430217.598    21430219.329
  -6062675.35548  -4724158.10945  22648249.794    22648250.355
   3913758.50248   3049684.65844  24353076.135    24353074.882
 02  1  7  0 44  0.0000000  0  8G30G 4G25G 1G20G22G29G14
   7887756.17048                  25030197.168
   -658767.03348                  25203806.340
 -20374401.95649 -15876151.91847  21189023.158    21189023.417
 -13847354.11749 -10790139.51846  22459686.748    22459687.474
 -24282400.92749 -18921348.02047  20733418.992    20733418.764
 -17602746.50549 -13716424.46146  21414013.823    21414015.351
  -5991640.08748  -4668805.97845  22661767.158    22661767.916
   3999498.11648   3116494.69444  24369392.003    24369391.983
 02  1  7  0 44 30.0000000  0  8G30G 4G25G 1G20G22G29G14
   7981371.59648   6219250.94944  25048011.827    25048011.381
   -706167.97848                  25194787.391
 -20322181.43849 -15835460.60947  21198960.399    21198960.515
 -13919532.60749 -10846382.48546  22445950.965    22445952.590
 -24309792.05549 -18942691.76047  20728206.675    20728206.531
 -17687466.53349 -13782440.03446  21397892.185    21397892.939
  -5920424.60948  -4613313.42645  22675319.436    22675320.035
   4085331.75948   3183377.95844  24385724.693    24385727.135
 02  1  7  0 45  0.0000000  0  8G30G 4G25G 1G20G22G29G14
   8075280.26848   6292426.51744  25065882.108    25065882.906
   -753093.23648                  25185856.760
 -20269681.95849 -15794551.92147  21208950.897    21208951.105
 -13991593.73149 -10902533.99546  22432238.306    22432239.838
 -24336621.09049 -18963597.50247  20723101.197    20723101.256
 -17771750.82749 -13848116.07146  21381853.532    21381854.899
  -5849026.69648  -4557678.70845  22688905.708    22688906.502
   4171261.46548   3250336.07444  24402077.591    24402076.422
 02  1  7  0 45 30.0000000  0  8G30G 4G25G 1G20G22G29G14
   8169480.23648   6365829.06744  25083807.718    25083806.898
   -799540.62948                  25177018.603
 -20216904.55449 -15753426.67247  21218994.092    21218993.963
 -14063535.93849 -10958592.83946  22418548.943    22418549.994
 -24362885.87049 -18984063.56347  20718103.012    20718103.251
 -17855595.81049 -13913449.78946  21365898.174    21365899.426
  -5777445.78948  -4501901.38845  22702527.192    22702527.348
   4257287.45148   3317369.25744  24418447.470    24418446.221
 02  1  7  0 46  0.0000000  0  8G30G 4G25G 1G20G22G29G14
   8263969.38748                  25101788.487
   -845508.29948                  25168271.219
 -20163850.22349 -15712085.63847  21229090.091    21229090.044
 -14135357.90849 -11014557.99646  22404880.574    22404881.919
 -24388584.59849 -19004088.54747  20713212.542    20713212.787
 -17938997.77649 -13978438.30346  21350027.166    21350028.133
  -5705681.45348  -4445981.16145  22716183.669    22716184.264
   4343410.22248   3384477.84844  24434835.899    24434835.540
 02  1  7  0 46 30.0000000  0  8G30G 4G25G 1G20G22G29G14
   8358734.07448                  25119821.280
   -891005.84148   -694290.78044  25159613.295    25159616.697
 -20110531.48749 -15670538.57347  21239236.350    21239236.444
 -14207070.07649 -11070437.58946  22391234.636    22391235.458
 -24413726.87849 -19023679.93347  20708428.131    20708428.377
 -18021964.81649 -14043087.91246  21334239.308    21334240.540
  -5633745.12848  -4389926.90145  22729872.851    22729874.020
   4429618.18248   3451652.84844  24451240.893    24451242.161
 02  1  7  0 47  0.0000000  0  8G30G 4G25G 1G20G22G29G14
   8453777.66247                  25137907.492
   -936025.76448                  25151046.096
 -20056943.86949 -15628781.98547  21249433.643    21249433.632
 -14278665.46449 -11126226.18846  22377610.827    22377611.596
 -24438305.38049 -19042832.01047  20703751.116    20703751.420
 -18104487.95949 -14107391.62746  21318535.406    21318536.552
  -5561630.98048  -4333734.09145  22743595.159    22743594.795
   4515916.99948   3518898.62244  24467663.864    24467662.943
 02  1  7  0 47 30.0000000  0  7G 4G25G 1G20G22G29G14
   -980563.90248                  25142570.105
 -20003085.96049 -15586814.78347  21259682.737    21259682.659
 -14350140.26449 -11181920.81346  22364008.599    22364010.100
 -24462315.82049 -19061541.44447  20699182.102    20699182.285
 -18186561.43749 -14171344.95246  21302917.277    21302918.906
  -5489336.13548  -4277400.47745  22757352.802    22757353.734
   4602309.42548   3586217.28644  24484102.303    24484102.030
 02  1  7  0 48  0.0000000  0  7G 4G25G 1G20G22G29G14
  -1024614.36048                  25134188.452
 -19948955.23749 -15544634.99847  21269983.232    21269983.254
 -14421489.36249 -11237517.50846  22350431.822    22350432.536
 -24485752.78049 -19079804.00947  20694722.383    20694722.732
 -18268177.74249 -14234942.04846  21287386.567    21287387.987
  -5416856.86148  -4220923.12945  22771145.019    22771146.764
   4688799.12148   3653611.76644  24500562.432    24500562.072
 02  1  7  0 48 30.0000000  0  7G 4G25G 1G20G22G29G14
  -1068177.55748                  25125898.455
 -19894554.81949 -15502245.06547  21280335.302    21280335.305
 -14492713.78849 -11293017.05046  22336878.311    22336879.111
 -24508616.51249 -19097619.90447  20690371.611    20690371.897
 -18349335.79749 -14298182.05246  21271942.606    21271943.900
  -5344194.83148  -4164303.41845  22784971.707    22784973.332
   4775384.06448   3721080.51544  24517038.899    24517038.462
 02  1  7  0 49  0.0000000  0  7G 4G25G 1G20G22G29G14
  -1111249.93648                  25117701.480
 -19839884.16649 -15459644.55547  21290738.831    21290738.659
 -14563810.35049 -11348416.95446  22323348.483    22323350.293
 -24530903.44949 -19114986.34847  20686130.351    20686130.671
 -18430030.24149 -14361060.80846  21256586.734    21256587.977
  -5271348.12948  -4107539.76445  22798834.634    22798834.562
   4862066.36748   3788625.08544  24533532.404    24533535.569
 02  1  7  0 49 30.0000000  0  7G 4G25G 1G20G22G29G14
  -1153843.60848                  25109596.387
 -19784957.91649 -15416844.88247  21301190.989    21301190.980
 -14634791.66949 -11403727.03946  22309842.286    22309843.592
 -24552625.62849 -19131912.72347  20681996.780    20681997.133
 -18510271.58849 -14423586.49946  21241317.509    21241318.774
  -5198330.31248  -4050642.80045  22812729.695    22812730.255
   4948832.21148   3856234.71944  24550044.459    24550046.043
 02  1  7  0 50  0.0000000  0  7G 4G25G 1G20G22G29G14
  -1195946.33848                  25101584.928
 -19729766.69849 -15373838.73847  21311693.376    21311693.124
 -14705645.91149 -11458938.10746  22296358.864    22296359.585
 -24573770.99149 -19148389.62847  20677973.135    20677973.429
 -18590046.13249 -14485748.44046  21226136.638    21226137.694
  -5125130.60248  -3993604.08645  22826658.699    22826660.542
   5035692.10248   3923917.64944  24566573.471    24566570.356
 02  1  7  0 50 30.0000000  0  7G 4G25G 1G20G22G29G14
  -1237553.73748                  25093666.673
 -19674309.40349 -15330625.26347  21322246.844    21322246.595
 -14776369.30049 -11514047.21946  22282900.099    22282901.484
 -24594335.18249 -19164413.67347  20674060.086    20674060.311
 -18669347.96449 -14547542.03946  21211046.273    21211047.570
  -5051746.38948  -3936421.60645  22840623.362    22840624.178
   5122648.58048   3991675.93144  24583120.715    24583121.474
 02  1  7  0 51  0.0000000  0  8G13G 4G25G 1G20G22G29G14
         -.45057                  25183778.163
  -1278679.84348                  25085841.003
 -19618602.60649 -15287217.37147  21332847.365    21332847.311
 -14846976.39949 -11569065.70446  22269464.686    22269465.944
 -24614332.32449 -19179995.86447  20670254.597    20670254.891
 -18748189.37749 -14608976.86946  21196042.819    21196044.060
  -4978192.93048  -3879107.24745  22854620.402    22854621.011
   5209685.94348   4059497.14244  24599683.824    24599684.454
 02  1  7  0 51 30.0000000  0  7G 4G25G 1G20G22G29G14
  -1319322.50448                  25078106.354
 -19562647.13749 -15243615.71047  21343495.371    21343495.648
 -14917465.38749 -11623992.15746  22256050.974    22256052.120
 -24633760.55449 -19195134.74547  20666557.083    20666557.261
 -18826566.57849 -14670049.97946  21181128.724    21181129.942
  -4904469.81248  -3821660.68845  22868648.816    22868649.842
   5296805.01548                  24616261.501
 02  1  7  0 52  0.0000000  0  7G 4G25G 1G20G22G29G14
  -1359472.66048                  25070466.445
 -19506436.75349 -15199815.41347  21354192.045    21354192.231
 -14987827.67349 -11678819.89146  22242660.865    22242662.160
 -24652610.64749 -19209823.13147  20662970.185    20662970.469
 -18904468.98349 -14730753.11646  21166303.473    21166305.353
  -4830569.32948  -3764075.93345  22882711.835    22882713.970
   5384013.49648   4195336.59844  24632856.728    24632856.196
 02  1  7  0 52 30.0000000  0  7G 4G25G 1G20G22G29G14
  -1399137.17248                  25062919.018
 -19449980.63449 -15155823.63547  21364934.814    21364935.037
 -15058070.29249 -11733554.38246  22229295.073    22229295.586
 -24670889.47949 -19224066.37647  20659492.170    20659492.271
 -18981901.64349 -14791090.21546  21151569.171    21151570.164
