     2.10           OBSERVATION DATA    G (GPS)             RINEX VERSION / TYPE
teqc  2004Apr5                          20041208 15:58:05UTCPGM / RUN BY / DATE
OBSERVATION MODE: Permanent                                 COMMENT
CHUM Chumysh (CHUM)                                         MARKER NAME
25601M001                                                   MARKER NUMBER
T136                ROGUE SNR-8000       3.20               REC # / TYPE / VERS
113                 AOAD/M_T        NONE                    ANT # / TYPE
        0.0900        0.0000        0.0000                  ANTENNA: DELTA H/E/N
  1228950.8672  4508079.8892  4327868.4905                  APPROX POSITION XYZ
  74.75109758  42.99850108  716.3225  LonLatAlt  S/W        COMMENT
Linux 2.0.36|Pentium II|gcc -static|Linux|486/DX+           COMMENT
BIT 2 OF LLI FLAGS DATA COLLECTED UNDER A/S CONDITION       COMMENT
Konovalov           IVTAN                                   OBSERVER / AGENCY
     1     1                                                WAVELENGTH FACT L1/2
     5    L1    L2    C1    P2    P1                        # / TYPES OF OBSERV
    30.0000                                                 INTERVAL
    P1 =    P1  TurboRogue; =    Y1  Benchmark              COMMENT
    L1 = L1(P1) TurboRogue; = L1(Y1) Benchmark              COMMENT
    P2 =    P2  TurboRogue; =    Y2  Benchmark              COMMENT
    L2 = L2(P2) TurboRogue; = L2(Y2) Benchmark              COMMENT
 SNR is mapped to RINEX snr flag value [1,4-9]              COMMENT
    SNR:  >=316 >=100 >=31.6 >=10 >=3.2    >0 bad=0         COMMENT
L1 & L2:      9     8     7     6     5     4     1         COMMENT
  2002     1     2     0     0    0.0000000     GPS         TIME OF FIRST OBS
  2002     1     2    23    59   30.0000000     GPS         TIME OF LAST OBS
                                                            END OF HEADER
 02  1  2  0  0  0.0000000  0  8G29G25G11G20G14G 1G22G21
 -14552466.18149 -11339581.13646  21001606.839    21001606.864
 -24316864.72049 -18948198.22047  20456217.245    20456216.699
 -14299357.62349 -11142357.20646  22649472.260    22649471.815
 -16629508.92649 -12958055.98046  22164857.332    22164857.548
  -6067582.29649  -4727983.54846  22445964.165    22445963.332
  -3944304.61648  -3073481.18744  24367770.842    24367774.065
  -4759951.90748  -3709053.31745  23969276.458    23969277.446
   1874937.80748                  24249151.954
 02  1  2  0  0 30.0000000  0  8G29G25G11G20G14G 1G22G21
 -14512252.45249 -11308245.76546  21009259.078    21009259.241
 -24313495.75149 -18945573.04947  20456858.327    20456857.772
 -14246736.85849 -11101354.02346  22659484.919    22659484.622
 -16712526.91249 -13022745.30046  22149060.367    22149059.602
  -5996897.84749  -4672904.78146  22459414.372    22459413.910
  -4026938.68648  -3137871.31344  24352046.211    24352046.709
  -4873773.48848  -3797745.46144  23947616.544    23947617.866
   1981800.52048                  24269486.851
 02  1  2  0  1  0.0000000  0  8G29G25G11G20G14G 1G22G21
 -14471816.72449 -11276737.40746  21016953.887    21016954.076
 -24309667.13549 -18942589.71047  20457586.675    20457586.115
 -14193686.03949 -11060015.72946  22669581.486    22669579.620
 -16795257.88449 -13087210.97146  22133316.583    22133316.067
  -5926067.16549  -4617712.06146  22472893.153    22472892.514
  -4109512.42048  -3202214.26145  24336332.834    24336332.744
  -4987572.05648  -3886419.67144  23925962.106    23925962.500
   2088843.98748   1627671.62944  24289857.433    24289858.851
 02  1  2  0  1 30.0000000  0  8G29G25G11G20G14G 1G22G21
 -14431167.39549 -11245062.60346  21024689.307    21024689.202
 -24305388.08849 -18939255.38347  20458400.872    20458400.370
 -14140215.72149 -11018350.53746  22679756.192    22679756.177
 -16877707.49749 -13151457.41346  22117627.383    22117626.850
  -5855098.96749  -4562412.19046  22486398.419    22486397.521
  -4192033.72148  -3266516.84444  24320628.504    24320631.417
  -5101352.70048  -3975079.90944  23904308.995    23904309.096
   2196058.32048                  24310259.068
 02  1  2  0  2  0.0000000  0  8G29G25G11G20G14G 1G22G21
 -14390308.46249 -11213224.48046  21032464.683    21032464.670
 -24300663.14549 -18935573.60547  20459300.055    20459299.561
 -14086332.26349 -10976363.43946  22690009.908    22690009.211
 -16959877.07249 -13215485.63446  22101990.908    22101990.343
  -5783997.52349  -4507008.49546  22499928.370    22499927.514
  -4274505.95348  -3330780.84044  24304935.166    24304938.131
  -5215116.02948  -4063726.66144  23882661.781    23882662.927
   2303438.01948                  24330692.647
 02  1  2  0  2 30.0000000  0  8G29G25G11G20G14G 1G22G21
 -14349231.79149 -11181216.69346  21040281.234    21040281.332
 -24295484.54849 -18931538.32647  20460285.248    20460284.700
 -14032029.40849 -10934049.53146  22700343.483    22700342.148
 -17041756.00549 -13279287.39046  22086410.027    22086409.233
  -5712754.75449  -4451494.68546  22513485.360    22513484.410
  -4356920.61248  -3395000.00844  24289252.145    24289253.378
  -5328850.67248  -4152351.05944  23861017.788    23861017.943
   2410989.77148                  24351159.178
 02  1  2  0  3  0.0000000  0  8G25G11G20G14G29G 1G22G21
 -24289854.96549 -18927151.63847  20461356.599    20461356.051
 -13977310.87149 -10891411.70646  22710755.695    22710755.094
 -17123343.07949 -13342861.71746  22070883.851    22070883.369
  -5641372.46549  -4395872.13746  22527069.154    22527068.657
 -14307938.86949 -11149040.40647  21048138.834    21048138.808
  -4439278.66548  -3459175.06544  24273580.227    24273581.061
  -5442554.91448  -4240951.78144  23839381.556    23839381.179
   2518709.97548                  24371657.402
 02  1  2  0  3 30.0000000  0  8G25G11G20G14G29G 1G22G21
 -24283766.01149 -18922407.00047  20462515.447    20462514.893
 -13922169.60849 -10848444.50745  22721249.049    22721247.829
 -17204626.60149 -13406199.51346  22055417.182    22055416.474
  -5569842.01049  -4340134.13246  22540680.656    22540680.129
 -14266420.69549 -11116688.59547  21056039.357    21056039.353
  -4521570.47548  -3523298.50844  24257919.779    24257921.431
  -5556216.51048  -4329519.25145  23817751.902    23817755.082
   2626606.53548                  24392189.657
 02  1  2  0  4  0.0000000  0  8G25G11G20G14G29G 1G22G21
 -24277230.58349 -18917314.45647  20463759.238    20463758.624
 -13866620.07049 -10805159.14945  22731820.024    22731818.386
 -17285616.24549 -13469308.31146  22040004.719    22040004.014
  -5498175.68349  -4284290.25546  22554318.576    22554317.970
 -14224689.46949 -11084170.76047  21063980.961    21063980.575
  -4603807.81148  -3587379.51045  24242272.039    24242272.471
  -5669844.25448  -4418060.35544  23796129.688    23796130.515
   2734665.64748                  24412752.765
 02  1  2  0  4 30.0000000  0  8G25G11G20G14G29G 1G22G21
 -24270247.28749 -18911872.92947  20465088.060    20465087.495
 -13810662.68449 -10761555.98245  22742467.390    22742466.285
 -17366307.34549 -13532184.47546  22024649.762    22024649.231
  -5426371.71149  -4228339.12246  22567982.591    22567982.191
 -14182743.14549 -11051485.31947  21071963.077    21071962.854
  -4685987.98648  -3651415.97845  24226632.412    24226635.535
  -5783432.72148  -4506570.87144  23774513.623    23774515.298
   2842888.01448                  24433345.900
 02  1  2  0  5  0.0000000  0  8G25G11G20G14G29G 1G22G21
 -24262820.41049 -18906085.74847  20466501.184    20466500.592
 -13754303.35949 -10717639.63545  22753192.971    22753191.967
 -17446700.86049 -13594828.76446  22009351.698    22009350.742
  -5354434.20649  -4172283.96146  22581671.535    22581671.473
 -14140585.46549 -11018635.18547  21079985.236    21079984.984
  -4768114.59148  -3715410.67145  24211003.657    24211006.716
  -5896982.59548  -4595051.27544  23752906.558    23752907.053
   2951267.78248                  24453970.176
 02  1  2  0  5 30.0000000  0  8G25G11G20G14G29G 1G22G21
 -24254934.97449 -18899941.24647  20468001.671    20468001.053
 -13697528.24949 -10673399.29245  22763996.963    22763995.665
 -17526778.29849 -13657226.75646  21994113.111    21994112.760
  -5282347.53649  -4116112.56746  22595389.253    22595388.670
 -14098200.55949 -10985607.97847  21088050.831    21088050.519
  -4850171.13348  -3779350.80744  24195390.006    24195390.540
  -6010474.68148  -4683486.66445  23731309.037    23731310.226
   3059819.30548                  24474626.486
 02  1  2  0  6  0.0000000  0  8G25G11G20G14G29G 1G22G21
 -24246589.66849 -18893438.40847  20469589.761    20469589.110
 -13640337.38249 -10628834.98345  22774879.030    22774877.179
 -17606534.64949 -13719374.55146  21978936.100    21978935.573
  -5210109.53549  -4059823.24246  22609135.971    22609135.231
 -14055586.12049 -10952401.92547  21096160.448    21096160.201
  -4932154.76848  -3843234.10245  24179788.545    24179789.831
  -6123903.18048  -4771872.49645  23709725.384    23709724.960
   3168543.22048                  24495316.402
 02  1  2  0  6 30.0000000  0  8G25G11G20G14G29G 1G22G21
 -24237797.21149 -18886587.14247  20471262.933    20471262.336
 -13582744.90149 -10583957.71645  22785838.891    22785837.082
 -17685979.60649 -13781279.69046  21963817.884    21963817.685
  -5137732.87749  -4003425.88446  22622908.575    22622907.963
 -14012754.20049 -10919026.39847  21104310.864    21104310.672
  -5014077.07548  -3907069.59345  24164199.249    24164200.486
  -6237276.90748  -4860215.69644  23688150.438    23688153.846
   3277425.76948                  24516036.232
 02  1  2  0  7  0.0000000  0  8G25G11G20G14G29G 1G22G21
 -24228573.49249 -18879399.82747  20473018.181    20473017.572
 -13524768.77849 -10538781.54045  22796871.825    22796871.261
 -17765125.63249 -13842951.90946  21948757.554    21948756.767
  -5065232.85449  -3946932.40846  22636704.781    22636704.788
 -13969720.26449 -10885493.46547  21112499.759    21112499.703
  -5095952.95848  -3970868.95145  24148619.000    24148620.464
  -6350608.02248  -4948525.63645  23666584.068    23666584.547
   3386450.03548                  24536782.526
 02  1  2  0  7 30.0000000  0  8G25G11G20G14G29G 1G22G21
 -24218906.79649 -18871867.33647  20474857.716    20474857.120
 -13466398.39349 -10493298.11645  22807979.453    22807977.961
 -17843957.38849 -13904379.23146  21933755.428    21933755.262
  -4992596.90349  -3890332.99846  22650527.561    22650527.190
 -13926471.43549 -10851793.08147  21120729.679    21120729.453
  -5177769.05548  -4034621.71945  24133049.929    24133051.916
  -6463880.33248  -5036789.75744  23645029.296    23645031.264
   3495627.37848                  24557558.676
 02  1  2  0  8  0.0000000  0  8G25G11G20G14G29G 1G22G21
 -24208799.76749 -18863991.73247  20476781.068    20476780.539
 -13407637.57649 -10447510.43545  22819160.577    22819158.986
 -17922473.84649 -13965560.87646  21918815.057    21918814.460
  -4919826.77849  -3833629.04746  22664374.633    22664374.380
 -13883009.20249 -10817926.41847  21129000.597    21129000.513
  -5259526.66048  -4098328.91045  24117490.788    24117492.085
  -6577092.07748  -5125006.70445  23623485.775    23623486.106
   3604954.32648                  24578362.627
 02  1  2  0  8 30.0000000  0  8G25G11G20G14G29G 1G22G21
 -24198245.25049 -18855767.43347  20478789.348    20478788.817
 -13348481.18749 -10401414.57645  22830417.797    22830417.555
 -18000664.70749 -14026488.80046  21903935.344    21903935.259
  -4846915.42549  -3776815.07646  22678249.250    22678248.139
 -13839326.38149 -10783887.85647  21137313.240    21137313.067
  -5341217.71548  -4161984.22345  24101946.561    24101946.825
  -6690232.64448  -5213168.18545  23601956.170    23601957.717
   3714436.37148                  24599195.301
 02  1  2  0  9  0.0000000  0  8G25G11G20G14G29G 1G22G21
 -24187252.08449 -18847201.33147  20480881.322    20480880.893
 -13288939.17449 -10355018.20145  22841749.049    22841747.192
 -18078535.26749 -14087167.14446  21889116.786    21889116.531
  -4773870.82649  -3719897.24545  22692149.612    22692149.719
 -13795430.51649 -10749683.29847  21145666.092    21145665.951
  -5422849.21648  -4225593.15745  24086412.293    24086414.860
  -6803306.29648  -5301277.52444  23580438.685    23580438.323
   3824064.66848                  24620057.167
 02  1  2  0  9 30.0000000  0  8G25G11G20G14G29G 1G22G21
 -24175816.21749 -18838290.26447  20483057.564    20483057.106
 -13229009.23549 -10308319.53845  22853152.252    22853151.715
 -18156078.03649 -14147590.06346  21874361.643    21874361.196
  -4700688.44549  -3662872.05045  22706075.683    22706075.660
 -13751316.83149 -10715309.00947  21154060.772    21154060.498
  -5504416.17648  -4289151.76245  24070889.704    24070892.305
  -6916304.88548  -5389328.34545  23558935.401    23558936.241
   3933842.36048                  24640946.217
 02  1  2  0 10  0.0000000  0  8G25G11G20G14G29G 1G22G21
 -24163939.00049 -18829035.28447  20485318.012    20485317.405
 -13168694.13849 -10261320.76245  22864629.933    22864628.663
 -18233290.94549 -14207755.95146  21859667.998    21859667.667
  -4627368.74149  -3605739.86045  22720028.089    22720028.432
 -13706985.67149 -10680765.25047  21162496.469    21162496.366
  -5585918.38448  -4352659.95945  24055381.343    24055382.086
  -7029225.59048  -5477318.51844  23537447.995    23537450.701
   4043767.01648                  24661865.689
 02  1  2  0 10 30.0000000  0  8G25G11G20G14G29G 1G22G21
 -24151622.74249 -18819438.19247  20487661.504    20487661.099
 -13107997.59849 -10214024.75145  22876181.516    22876180.886
 -18310172.57749 -14267663.70046  21845038.160    21845037.822
  -4553913.43849  -3548501.99845  22734005.909    22734005.147
 -13662438.29849 -10646053.01747  21170973.784    21170973.489
  -5667356.74148  -4416118.36145  24039882.283    24039885.870
  -7142066.16148  -5565246.22145  23515975.105    23515975.516
   4153835.56348                  24682811.197
 02  1  2  0 11  0.0000000  0  8G25G11G20G14G29G 1G22G21
 -24138879.96349 -18809508.74547  20490086.118    20490085.649
 -13046933.41848 -10166442.26745  22887800.282    22887799.614
 -18386731.82449 -14327320.24146  21830469.266    21830468.627
  -4480334.35749  -3491167.70345  22748008.090    22748007.347
 -13617686.49549 -10611181.49947  21179489.650    21179489.431
  -5748742.37648  -4479535.66445  24024397.768    24024397.904
  -7254835.12048  -5653118.14945  23494515.244    23494517.452
   4264034.87748                  24703781.011
 02  1  2  0 11 30.0000000  0  8G25G11G20G14G29G 1G22G21
 -24125704.45849 -18799242.11647  20492593.187    20492592.793
 -12985497.22748 -10118569.91745  22899491.171    22899491.419
 -18462959.26949 -14386718.23546  21815963.636    21815963.091
  -4406624.89949  -3433731.79345  22762034.175    22762034.354
 -13572723.41049 -10576145.34447  21188045.881    21188045.805
  -5830067.91148  -4542906.21645  24008920.374    24008921.801
  -7367522.00148  -5740926.11644  23473071.711    23473073.498
   4374369.97248                  24724777.618
 02  1  2  0 12  0.0000000  0  8G25G11G20G14G29G 1G22G21
 -24112083.79649 -18788628.61247  20495185.297    20495184.957
 -12923677.83349 -10070398.93445  22911256.062    22911255.227
 -18538838.70349 -14445845.05246  21801524.584    21801524.108
  -4332771.61249  -3376183.80545  22776088.196    22776088.495
 -13527535.22649 -10540933.77347  21196645.126    21196644.930
  -5911319.25248  -4606218.89145  23993458.749    23993461.957
  -7480110.14348  -5828657.11744  23451646.862    23451648.409
   4484852.79248                  24745801.996
 02  1  2  0 12 30.0000000  0  8G25G11G20G14G29G 1G22G21
 -24098017.58449 -18777667.92047  20497862.134    20497861.801
 -12861476.52048 -10021930.38845  22923091.224    22923091.583
 -18614366.50449 -14504697.86646  21787151.733    21787151.416
  -4258773.81149  -3318523.24545  22790169.250    22790169.052
 -13482121.06049 -10505546.12547  21205287.115    21205286.987
  -5992494.78348  -4669472.50345  23978011.403    23978013.279
  -7592594.89848  -5916307.59844  23430241.310    23430243.139
   4595482.64248                  24766854.865
 02  1  2  0 13  0.0000000  0  8G25G11G20G14G29G 1G22G21
 -24083514.44949 -18766366.76847  20500621.962    20500621.663
 -12798903.14148  -9973171.86945  22934999.551    22934997.875
 -18689547.23749 -14563280.24046  21772845.830    21772845.019
  -4184639.12949  -3260756.00345  22804277.169    22804276.971
 -13436488.30349 -10469988.13447  21213970.529    21213970.433
  -6073601.48548  -4732672.49845  23962577.876    23962579.152
  -7704980.32848  -6003880.65444  23408856.078    23408857.679
   4706250.62248                  24787932.974
 02  1  2  0 13 30.0000000  0  8G25G11G20G14G29G 1G22G21
 -24068577.92649 -18754727.91747  20503464.358    20503463.971
 -12735963.00148  -9924127.60045  22946976.955    22946977.509
 -18764381.11149 -14621592.34446  21758605.447    21758604.477
  -4110370.27549  -3202884.21845  22818409.866    22818409.397
 -13390639.52349 -10434261.81247  21222695.184    21222695.158
  -6154641.46248  -4795820.49045  23947157.038    23947160.083
  -7817265.81748  -6091375.82144  23387488.144    23387489.230
   4817152.24748                  24809036.280
 02  1  2  0 14  0.0000000  0  8G25G11G20G14G29G 1G22G21
 -24053214.56749 -18742756.46547  20506387.716    20506387.493
 -12672663.88048  -9874803.62445  22959020.423    22959019.323
 -18838871.18549 -14679636.53846  21744429.415    21744429.250
  -4035973.39048  -3144912.67645  22832566.534    22832566.375
 -13344580.44549 -10398371.62747  21231460.160    21231460.056
  -6235619.85548  -4858920.47345  23931745.800    23931749.588
  -7929453.64048  -6178794.90344  23366139.807    23366141.438
   4928180.42948                  24830164.984
 02  1  2  0 14 30.0000000  0  8G25G11G20G14G29G 1G22G21
 -24037434.59749 -18730460.38047  20509390.239    20509390.050
 -12609017.64549  -9825209.14345  22971134.721    22971131.895
 -18913023.99749 -14737417.93546  21730319.555    21730318.872
  -3961457.70549  -3086848.55445  22846747.625    22846747.032
 -13298320.26549 -10362324.72947  21240263.295    21240263.024
  -6316545.43048  -4921979.30545  23916347.381    23916346.975
  -8041549.61548  -6266142.42444  23344808.170    23344807.962
   5039324.27848                  24851315.554
 02  1  2  0 15  0.0000000  0  8G25G11G20G14G29G 1G22G21
 -24021222.78949 -18717827.79547  20512475.262    20512475.217
 -12545010.50648  -9775333.44345  22983313.247    22983312.670
 -18986820.61749 -14794921.78746  21716276.118    21716275.523
  -3886807.38049  -3028679.51745  22860952.547    22860952.628
 -13251842.65549 -10326108.41647  21249107.629    21249107.476
  -6397401.53148  -4984984.02945  23900959.678    23900962.280
  -8153534.24648  -6353403.17745  23323499.177    23323499.100
   5150598.02348                  24872489.954
 02  1  2  0 15 30.0000000  0  8G25G11G20G14G29G 1G22G21
 -24004582.71949 -18704861.50047  20515641.954    20515641.657
 -12480647.26448  -9725180.27545  22995560.671    22995560.165
 -19060260.87249 -14852147.94546  21702300.479    21702300.118
  -3812024.72949  -2970407.37645  22875183.123    22875183.113
 -13205150.06449 -10289724.58347  21257993.160    21257992.712
  -6478190.14548  -5047936.09545  23885586.717    23885588.517
  -8265406.43348  -6440576.32244  23302210.378    23302208.961
   5261997.28948                  24893688.018
 02  1  2  0 16  0.0000000  0  8G25G11G20G14G29G 1G22G21
 -23987515.95649 -18691562.71747  20518889.671    20518889.312
 -12415931.16848  -9674752.12945  23007877.145    23007877.000
 -19133343.10449 -14909095.12546  21688394.013    21688393.635
  -3737110.89549  -2912033.00945  22889439.421    22889438.812
 -13158243.24849 -10253173.82547  21266919.112    21266918.881
  -6558911.20148  -5110835.59445  23870226.765    23870228.332
  -8377163.43748  -6527659.66845  23280943.445    23280942.930
   5373519.95848                  24914911.023
 02  1  2  0 16 30.0000000  0  8G25G11G20G14G29G 1G22G21
 -23970031.66249 -18677938.58947  20522216.858    20522216.788
 -12350873.29248  -9624057.71545  23020255.438    23020253.668
 -19206072.79949 -14965767.60746  21674553.887    21674553.247
  -3662074.58349  -2853563.20845  22903717.440    22903716.724
 -13111130.61849 -10216462.69047  21275884.161    21275884.070
  -6639572.59048  -5173688.56745  23854876.348    23854878.732
  -8488810.21248  -6614657.16244  23259697.372    23259699.292
   5485155.51948                  24936153.792
 02  1  2  0 17  0.0000000  0  8G25G11G20G14G29G 1G22G21
 -23952131.43149 -18663990.34847  20525623.213    20525622.939
 -12285476.22348  -9573098.92845  23032701.500    23032699.793
 -19278447.71549 -15022163.63546  21660780.920    21660780.576
  -3586916.39449  -2794998.45145  22918019.902    22918019.480
 -13063812.38849 -10179591.34047  21284888.569    21284888.383
  -6720174.03348  -5236494.81645  23839538.986    23839540.500
  -8600343.90248  -6701566.53545  23238473.301    23238474.698
   5596902.50548                  24957419.785
 02  1  2  0 17 30.0000000  0  8G25G11G20G14G29G 1G22G21
 -23933818.24749 -18649720.32447  20529108.047    20529107.817
 -12219744.27448  -9521879.20445  23045209.368    23045208.700
 -19350467.33949 -15078282.80846  21647076.430    21647076.131
  -3511638.31749  -2736340.26745  22932345.690    22932344.313
 -13016290.51749 -10142561.31147  21293931.683    21293931.391
  -6800717.00548  -5299255.50745  23824211.218    23824213.964
  -8711762.92348  -6788386.52845  23217271.613    23217271.925
   5708756.81948                  24978704.128
 02  1  2  0 18  0.0000000  0  8G25G11G20G14G29G 1G22G21
 -23915082.63449 -18635121.13447  20532673.208    20532673.096
 -12153669.94548  -9470392.70944  23057782.653    23057782.690
 -19422118.69849 -15134115.02046  21633441.539    21633441.128
  -3436230.09848  -2677580.66345  22946694.220    22946694.642
 -12968554.67149 -10105364.55547  21303015.372    21303015.214
  -6881190.95248  -5361962.41045  23808897.962    23808898.524
  -8823053.51448  -6875106.48044  23196093.024    23196096.207
   5820727.67148                  25000012.672
 02  1  2  0 18 30.0000000  0  8G25G11G20G14G29G 1G22G21
 -23895915.44049 -18620185.65047  20536320.564    20536320.270
 -12087245.07348  -9418633.09745  23070423.443    23070423.103
 -19493388.59749 -15189649.99646  21619879.394    21619878.858
  -3360681.69149  -2618711.82645  22961071.634    22961071.441
 -12920594.20349 -10067992.76447  21312141.973    21312142.253
  -6961584.61048  -5424606.76945  23793599.910    23793601.277
  -8934201.71848  -6961715.45745  23174942.972    23174943.400
   5932823.29848                  25021342.767
 02  1  2  0 19  0.0000000  0  7G25G11G20G14G29G 1G22
 -23876325.30249 -18604920.60047  20540048.569    20540048.243
 -12020479.99748  -9366608.34245  23083127.736    23083126.260
 -19564282.26649 -15244891.80846  21606388.390    21606388.024
  -3285001.13949  -2559740.03245  22975473.236    22975472.899
 -12872417.01849 -10030452.09847  21321309.668    21321309.518
  -7041905.14648  -5487194.11645  23778315.296    23778316.485
  -9045211.94248  -7048216.93344  23153817.676    23153818.057
 02  1  2  0 19 30.0000000  0  7G25G11G20G14G29G 1G22
 -23856321.01949 -18589332.83847  20543855.188    20543854.853
 -11953384.94448  -9314326.48745  23095896.650    23095895.990
 -19634804.50249 -15299844.19046  21592969.034    21592968.667
  -3209195.94849  -2500671.08545  22989897.911    22989898.269
 -12824030.64649  -9992748.44447  21330517.305    21330517.166
  -7122159.63248  -5549730.01445  23763043.003    23763044.658
  -9156088.34848  -7134614.11045  23132719.407    23132719.338
 02  1  2  0 20  0.0000000  0  7G25G11G20G14G29G 1G22
 -23835922.65049 -18573437.98947  20547736.976    20547736.536
 -11885981.74648  -9261804.52545  23108722.569    23108722.905
 -19704972.25249 -15354520.34746  21579616.136    21579615.601
  -3133285.81449  -2441520.37045  23004343.723    23004344.000
 -12775454.18649  -9954896.64946  21339761.142    21339761.027
  -7202366.98848  -5612229.19045  23747779.692    23747780.535
  -9266846.72348  -7220919.33345  23111642.199    23111641.867
 02  1  2  0 20 30.0000000  0  7G25G11G20G14G29G 1G22
 -23815091.90349 -18557206.22847  20551701.235    20551700.880
 -11818233.13648  -9209013.40444  23121613.806    23121613.378
 -19774743.32349 -15408887.41546  21566339.124    21566338.497
  -3057231.19849  -2382257.07545  23018816.339    23018816.349
 -12726648.16149  -9916865.98647  21349048.577    21349048.807
  -7282487.03848  -5674660.34045  23732533.703    23732536.584
  -9377444.14648  -7307099.16045  23090596.588    23090597.035
 02  1  2  0 21  0.0000000  0  7G25G11G20G14G29G 1G22
 -23793849.16449 -18540653.43447  20555743.616    20555743.175
 -11750161.26248  -9155970.38845  23134569.241    23134568.621
 -19844134.16149 -15462958.19046  21553134.696    21553134.266
  -2981051.86249  -2322896.56945  23033312.591    23033312.007
 -12677631.82649  -9878671.45246  21358375.986    21358376.200
  -7362538.46148  -5737038.02545  23717301.343    23717301.048
  -9487896.45348  -7393165.90545  23069577.467    23069578.018
 02  1  2  0 21 30.0000000  0  8G25G11G20G14G29G 1G22G30
 -23772200.00349 -18523783.95447  20559863.056    20559862.725
 -11681773.30448  -9102681.05244  23147581.518    23147581.543
 -19913147.09349 -15516734.49646  21540001.534    21540001.086
  -2904752.40349  -2263442.48345  23047831.923    23047831.362
 -12628409.66149  -9840316.52046  21367743.040    21367743.010
  -7442525.39548  -5799365.43945  23702078.073    23702079.254
  -9598204.75248  -7479120.43545  23048587.024    23048587.714
         -.66458          .25254  23757688.918    23757688.559
 02  1  2  0 22  0.0000000  0  8G25G11G20G14G29G 1G22G30
 -23750130.58049 -18506586.99147  20564062.373    20564062.054
 -11613056.62448  -9049135.59644  23160657.671    23160657.297
 -19981764.48749 -15570202.59046  21526944.372    21526943.712
  -2828318.10049  -2203883.33845  23062377.142    23062376.885
 -12578966.93349  -9801789.71246  21377151.617    21377151.546
  -7522432.22248  -5861630.43845  23686874.516    23686875.295
  -9708350.85048  -7564948.54945  23027626.092    23027628.810
     58757.90048     45786.13644  23768869.516    23768871.144
 02  1  2  0 22 30.0000000  0  8G25G11G20G14G29G 1G22G30
 -23727649.70649 -18489069.41547  20568340.553    20568340.186
 -11544021.35148  -8995341.88344  23173795.336    23173794.878
 -20049991.04049 -15623366.13146  21513960.914    21513960.708
  -2751756.65749  -2144225.12145  23076946.106    23076945.750
 -12529310.82249  -9763096.64346  21386600.719    21386600.655
  -7602266.11648  -5923838.64445  23671680.598    23671682.974
  -9818338.49248  -7650653.21545  23006697.355    23006697.836
    118019.11448     91963.71144  23780147.633    23780148.098
 02  1  2  0 23  0.0000000  0  8G25G11G20G14G29G 1G22G30
 -23704766.24749 -18471238.14147  20572695.123    20572694.583
 -11474677.94748  -8941308.06444  23186990.911    23186989.948
 -20117832.29649 -15676229.43946  21501051.704    21501051.358
  -2675075.96648  -2084474.00245  23091537.781    23091538.110
 -12479449.24349  -9724243.46346  21396089.081    21396089.055
  -7682034.35848  -5985995.64745  23656502.190    23656503.536
  -9928172.11248  -7736237.85445  22985796.591    22985797.384
    177773.43848    138525.51144  23791517.736    23791518.925
 02  1  2  0 23 30.0000000  0  8G25G11G20G14G29G 1G22G30
 -23681478.54449 -18453091.87247  20577126.376    20577125.920
 -11405026.47748  -8887034.15244  23200244.874    23200241.804
 -20185282.76749 -15728788.24846  21488216.013    21488215.295
  -2598273.63349  -2024628.07845  23106153.559    23106153.520
 -12429379.32549  -9685227.94546  21405617.378    21405617.019
  -7761733.52448  -6048098.83245  23641335.740    23641336.491
 -10037845.70648  -7821697.81945  22964926.245    22964929.070
    238022.00348    185472.44144  23802983.146    23802983.723
 02  1  2  0 24  0.0000000  0  8G25G11G20G14G29G 1G22G30
 -23657788.23449 -18434631.87347  20581634.455    20581634.058
 -11335070.14748  -8832522.74744  23213556.851    23213554.555
 -20252340.45949 -15781040.99246  21475455.134    21475454.638
  -2521350.37349  -1964687.90945  23120791.315    23120790.953
 -12379101.82549  -9646050.67746  21415184.606    21415184.413
  -7841363.70648  -6110148.27945  23626181.124    23626184.197
 -10147356.18948  -7907030.65845  22944086.536    22944086.971
    298762.38348    232802.60844  23814540.823    23814541.630
 02  1  2  0 24 30.0000000  0  8G25G11G20G14G29G 1G22G30
 -23633687.82249 -18415852.32747  20586221.004    20586220.484
 -11264802.40748  -8777768.67644  23226929.137    23226927.833
 -20318993.86349 -15832978.70346  21462772.437    21462771.629
  -2444297.46248  -1904646.74845  23135453.376    23135453.251
 -12328607.52749  -9606704.47246  21424793.340    21424793.299
  -7920915.23848  -6172136.43045  23611043.211    23611045.509
 -10256691.28148  -7992226.84945  22923281.191    22923281.832
    360001.81748    280521.62344  23826194.940    23826194.599
 02  1  2  0 25  0.0000000  0  8G25G11G20G14G29G 1G22G30
 -23609172.52249 -18396749.49647  20590886.205    20590885.600
 -11194220.20148  -8722769.52244  23240360.132    23240360.728
 -20385234.67649 -15884594.91846  21450166.558    21450165.862
  -2367109.11149  -1844500.03445  23150142.892    23150142.477
 -12277890.71749  -9567184.88246  21434444.352    21434444.340
  -8000382.07448  -6234058.59845  23595921.474    23595922.707
 -10365841.81348  -8077279.20045  22902510.092    22902510.505
    421744.07048    328632.52144  23837944.547    23837944.008
 02  1  2  0 25 30.0000000  0  8G25G11G20G14G29G 1G22G30
 -23584252.53949 -18377331.32347  20595628.077    20595627.589
 -11123335.46048  -8667534.66444  23253848.490    23253848.086
 -20451069.62049 -15935894.87346  21437638.345    21437637.729
  -2289795.09048  -1784255.39145  23164854.423    23164854.018
 -12226960.59949  -9527499.08146  21444135.768    21444135.891
  -8079772.66048  -6295921.36745  23580814.953    23580816.054
 -10474813.33448  -8162192.06745  22881774.582    22881775.160
    483978.32648    377126.71144  23849786.974    23849788.734
 02  1  2  0 26  0.0000000  0  8G25G11G20G14G29G 1G22G30
 -23558944.38549 -18357610.68447  20600444.112    20600443.521
 -11052165.47548  -8612077.51244  23267392.531    23267391.035
 -20516510.99749 -15986888.14646  21425185.275    21425184.861
  -2212370.19248  -1723924.37945  23179587.968    23179587.660
 -12175832.08249  -9487658.67746  21453865.563    21453865.551
  -8159101.22348  -6357735.79745  23565718.960    23565720.675
 -10583617.42748  -8246974.48145  22861069.011    22861070.465
    546687.83348    425991.27944  23861719.881    23861720.630
 02  1  2  0 26 30.0000000  0  8G25G11G20G14G29G 1G22G30
 -23533249.23549 -18337588.49247  20605333.746    20605333.158
 -10980713.65448  -8556400.78444  23280989.164    23280987.535
 -20581556.75349 -16037573.15046  21412807.695    21412807.086
  -2134835.37448  -1663507.68545  23194343.089    23194342.976
 -12124505.65849  -9447664.05546  21463632.526    21463632.486
  -8238367.97448  -6419502.04545  23550633.074    23550635.562
 -10692251.19748  -8331624.16945  22840396.825    22840398.206
    609870.08848    475224.21244  23873743.375    23873744.288
 02  1  2  0 27  0.0000000  0  8G25G11G20G14G29G 1G22G30
 -23507163.16249 -18317261.68447  20610297.613    20610297.042
 -10908977.16548  -8500502.20244  23294639.453    23294637.103
 -20646198.97449 -16087943.70546  21400506.472    21400506.018
  -2057185.26548  -1603001.16345  23209118.764    23209118.717
 -12072975.80949  -9407510.91946  21473438.279    21473438.271
  -8317566.68648  -6481215.29245  23535565.027    23535565.608
 -10800705.55448  -8416134.06445  22819758.855    22819759.447
    673528.73848    524828.35544  23885857.514    23885859.484
 02  1  2  0 27 30.0000000  0  8G25G11G20G14G29G 1G22G30
 -23480672.10049 -18296619.30247  20615338.894    20615338.292
 -10836942.92948  -8444371.63244  23308347.836    23308346.939
 -20710419.87549 -16137985.96046  21388285.657    21388285.166
  -1979404.52248  -1542392.84945  23223920.302    23223919.840
 -12021226.95049  -9367187.13846  21483285.776    21483285.917
  -8396681.36648  -6542863.04845  23520508.461    23520510.791
 -10908961.78048  -8500489.55445  22799158.016    22799158.040
    737677.50448    574814.41944  23898064.370    23898063.920
 02  1  2  0 28  0.0000000  0  8G25G11G20G14G29G 1G22G30
 -23453773.20549 -18275659.12147  20620457.657    20620457.064
 -10764610.27348  -8388008.51044  23322112.759    23322110.908
 -20774212.98049 -16187694.86246  21376146.310    21376145.784
  -1901489.88048  -1481680.18445  23238747.110    23238747.791
 -11969255.60149  -9326689.98646  21493175.960    21493176.218
  -8475707.84048  -6604442.06045  23505471.011    23505472.588
 -11017012.66248  -8584685.03945  22778596.587    22778597.574
    802317.98448    625183.66144  23910364.389    23910366.139
 02  1  2  0 28 30.0000000  0  8G25G11G20G14G29G 1G22G30
 -23426489.97549 -18254399.45947  20625649.484    20625648.753
 -10692004.07848  -8331432.26444  23335928.558    23335927.554
 -20837598.08749 -16237085.84946  21364084.387    21364083.798
  -1823463.50548  -1420880.48145  23253594.775    23253594.902
 -11917083.66549  -9286036.53246  21503103.801    21503103.741
  -8554667.60148  -6665969.11045  23490445.297    23490445.822
 -11124876.99248  -8668735.16645  22758070.683    22758071.563
    867426.05748    675917.20644  23922754.648    23922755.105
 02  1  2  0 29  0.0000000  0  8G25G11G20G14G29G 1G22G30
 -23398815.51049 -18232834.94347  20630915.546    20630914.926
 -10619118.40448  -8274638.24945  23349799.292    23349796.349
 -20900564.19649 -16286150.34746  21352102.921    21352102.472
  -1745317.12648  -1359987.25345  23268466.438    23268465.770
 -11864702.77849  -9245220.24346  21513071.401    21513071.235
  -8633551.72748  -6727437.19545  23475433.909    23475435.659
 -11232542.64748  -8752630.47745  22737582.707    22737585.057
    933008.46448    727020.37544  23935234.555    23935237.701
 02  1  2  0 29 30.0000000  0  8G25G11G20G14G29G 1G22G30
 -23370762.76849 -18210975.66447  20636253.929    20636253.304
 -10545968.30748  -8217638.17544  23363718.979    23363718.299
 -20963120.87249 -16334895.80146  21340198.551    21340197.987
  -1667063.26648  -1299010.25145  23283356.826    23283357.219
 -11812125.19149  -9204250.69646  21523076.346    21523076.399
  -8712371.90748  -6788855.46345  23460435.277    23460435.623
 -11340018.57648  -8836377.96345  22717130.889    22717132.695
    999050.84848    778482.00945  23947802.011    23947802.249
 02  1  2  0 30  0.0000000  0  8G25G11G20G14G29G 1G22G30
 -23342309.20349 -18188804.05947  20641668.721    20641667.976
 -10472531.98748  -8160415.06444  23377692.839    23377689.719
 -21025241.43749 -16383301.43146  21328376.747    21328376.336
  -1588677.86948  -1237930.77645  23298273.535    23298273.548
 -11759326.49849  -9163108.86346  21533123.751    21533123.905
  -8791103.30248  -6850204.56845  23445453.398    23445454.392
 -11447276.84248  -8919955.83745  22696720.234    22696720.642
   1065575.59448    830319.44844  23960460.887    23960462.547
 02  1  2  0 30 30.0000000  0  8G25G11G20G14G29G 1G22G30
 -23313454.47149 -18166319.85047  20647159.410    20647158.788
 -10398811.13748  -8102970.21444  23391721.606    23391722.202
 -21086922.38449 -16431364.50146  21316639.835    21316639.345
  -1510159.81648  -1176747.92945  23313215.490    23313213.406
 -11706305.41849  -9121793.74446  21543213.534    21543213.845
  -8869743.97648  -6911482.96245  23430487.814    23430489.565
 -11554312.88748  -9003360.54145  22676352.047    22676352.814
   1132582.08148    882532.33044  23973211.596    23973212.165
 02  1  2  0 31  0.0000000  0  8G25G11G20G14G29G 1G22G30
 -23284215.97049 -18143536.60847  20652723.439    20652722.755
 -10324824.34848  -8045318.19844  23405801.257    23405799.082
 -21148177.22249 -16479095.53946  21304983.511    21304983.194
  -1431525.26148  -1115474.30345  23328178.493    23328178.152
 -11653078.05249  -9080317.88546  21553342.346    21553342.363
  -8948309.54348  -6972702.84145  23415537.910    23415538.553
 -11661139.24348  -9086601.85745  22656023.956    22656024.613
   1200052.10048    935106.40044  23986050.626    23986049.539
 02  1  2  0 31 30.0000000  0  8G25G11G20G14G29G 1G22G30
 -23254600.29149 -18120459.45847  20658359.256    20658358.480
 -10250580.03348  -7987465.50444  23419929.268    23419927.130
 -21209008.95849 -16526496.89046  21293406.934    21293406.346
  -1352779.99048  -1054114.39645  23343163.136    23343162.768
 -11599649.75349  -9038685.44746  21563509.224    21563509.147
  -9026804.87548  -7033868.00145  23400600.544    23400601.150
 -11767757.88448  -9169681.33545  22635734.013    22635735.202
   1267978.26248    988035.84244  23998977.059    23998978.618
 02  1  2  0 32  0.0000000  0  8G25G11G20G14G29G 1G22G30
 -23224600.66649 -18097083.12447  20664067.853    20664067.309
 -10176072.30948  -7929407.48144  23434106.906    23434104.833
 -21269406.49649 -16573559.90647  21281914.174    21281913.573
  -1273915.81848   -992661.86945  23358171.574    23358171.405
 -11546012.13949  -8996889.90546  21573716.439    21573715.983
  -9105220.81648  -7094971.27945  23385678.805    23385679.680
 -11874156.93948  -9252589.67445  22615487.506    22615488.218
   1336366.88948   1041325.68344  24011990.458    24011990.025
 02  1  2  0 32 30.0000000  0  8G25G11G20G14G29G 1G22G30
 -23194235.36249 -18073421.85247  20669846.033    20669845.525
 -10101321.10648  -7871159.85644  23448332.144    23448331.178
 -21329384.65549 -16620296.13047  21270500.833    21270500.185
  -1194949.81648   -931129.95245  23373197.531    23373197.065
 -11492182.20949  -8954944.51446  21583959.809    21583960.095
  -9183574.05648  -7156025.71545  23370768.311    23370768.876
 -11980350.06248  -9335337.57645  22595279.799    22595280.641
   1405198.96348   1094961.06544  24025088.959    24025085.886
 02  1  2  0 33  0.0000000  0  8G25G11G20G14G29G 1G22G30
 -23163493.53149 -18049467.18247  20675696.165    20675695.542
 -10026317.02948  -7812715.11844  23462604.422    23462603.957
 -21388928.99049 -16666694.31147  21259169.995    21259169.361
  -1115870.22948   -869509.54245  23388245.896    23388246.863
 -11438148.04949  -8912839.98946  21594242.179    21594242.312
  -9261851.88748  -7217021.37445  23355872.452    23355873.124
 -12086321.91748  -9417913.03945  22575113.773    22575115.556
   1474484.38948   1148949.76144  24038274.119    24038274.728
 02  1  2  0 33 30.0000000  0  8G25G11G20G14G29G 1G22G30
 -23132380.56349 -18025223.31647  20681616.796    20681616.256
  -9951066.88948  -7754078.60344  23476924.605    23476924.896
 -21448040.87349 -16712755.51947  21247921.040    21247920.475
  -1036681.37848   -807803.99545  23403315.209    23403315.746
 -11383913.59949  -8870579.38246  21604562.588    21604562.756
  -9340057.75048  -7277960.96145  23340989.517    23340991.911
 -12192072.83949  -9500316.36645  22554991.100    22554991.169
   1544217.22048   1203286.99644  24051542.137    24051543.789
 02  1  2  0 34  0.0000000  0  8G25G11G20G14G29G 1G22G30
 -23100874.55849 -18000673.18147  20687612.031    20687611.496
  -9875550.20548  -7695234.48444  23491294.655    23491294.346
 -21506694.95449 -16758459.99947  21236759.539    21236759.015
   -957360.22048   -745995.35945  23418409.576    23418409.266
 -11329455.57749  -8828144.56446  21614925.561    21614925.665
  -9418167.72048  -7338825.82145  23326126.639    23326127.123
 -12297576.17448  -9582526.77145  22534913.925    22534913.970
   1614418.41148   1257989.25344  24064902.878    24064903.109
 02  1  2  0 34 30.0000000  0  8G25G11G20G14G29G 1G22G30
 -23068985.52149 -17975824.58747  20693680.161    20693679.715
  -9799778.18248  -7636191.29944  23505714.395    23505712.801
 -21564897.14449 -16803812.34847  21225684.200    21225683.689
   -877915.43348   -684090.39145  23433526.956    23433527.481
 -11274782.48849  -8785542.16846  21625330.014    21625329.460
  -9496189.65848  -7399622.10645  23311279.076    23311279.604
 -12402837.12548  -9664548.30645  22514883.243    22514884.503
   1685077.43648   1313048.25844  24078347.845    24078352.167
 02  1  2  0 35  0.0000000  0  8G25G11G20G14G29G 1G22G30
 -23036723.49549 -17950685.34447  20699819.530    20699819.124
  -9723762.84248                  23520178.079
 -21622654.24349 -16848817.87847  21214693.516    21214692.908
   -798356.40548   -622096.40745  23448666.981    23448668.916
 -11219903.53549  -8742779.36846  21635772.642    21635772.092
  -9574132.16148  -7460356.48545  23296446.778    23296447.799
 -12507861.11949  -9746385.18145  22494898.127    22494897.751
   1756183.08148   1368455.23744  24091879.873    24091881.469
 02  1  2  0 35 30.0000000  0  8G25G11G20G14G29G 1G22G30
 -23004084.87549 -17925252.64447  20706030.348    20706029.855
  -9647501.88948  -7517534.43944  23534691.141    23534688.161
 -21679959.01249 -16893470.94847  21203788.546    21203787.993
   -718678.24948   -560009.59245  23463829.478    23463829.099
 -11164813.59049  -8699852.14546  21646256.324    21646255.755
  -9651989.53248  -7521024.51745  23281631.674    23281632.421
 -12612639.94448  -9828031.00645  22474958.762    22474959.372
   1827738.05248   1424212.35944  24105495.921    24105494.587
 02  1  2  0 36  0.0000000  0  8G25G11G20G14G29G 1G22G30
 -22971072.37949 -17899528.61547  20712312.477    20712312.053
  -9570999.23548                  23549248.010
 -21736810.16149 -16937770.54547  21192970.279    21192969.809
   -638882.47748   -497831.10145  23479014.058    23479015.078
 -11109513.75849  -8656761.36846  21656779.334    21656779.138
  -9729762.31548  -7581626.63745  23266831.938    23266832.860
 -12717171.06848  -9909483.83445  22455067.152    22455068.476
   1899739.32548   1480317.27244  24119196.378    24119196.619
 02  1  2  0 36 30.0000000  0  8G25G11G20G14G29G 1G22G30
 -22937692.67849 -17873518.45947  20718664.502    20718663.989
  -9494263.00448  -7398127.51144  23563851.499    23563850.810
 -21793210.78049 -16981719.07447  21182237.653    21182237.224
   -558974.47348   -435565.14445  23494220.049    23494219.462
 -11054009.82149  -8613511.56346  21667341.356    21667340.839
  -9807455.63048  -7642166.85045  23252047.148    23252047.534
 -12821456.80849  -9990745.44945  22435222.830    22435223.952
   1972179.03448   1536763.82444  24132981.660    24132983.810
 02  1  2  0 37  0.0000000  0  8G25G11G20G14G29G 1G22G30
 -22903956.50649 -17847230.53247  20725083.888    20725083.557
  -9417305.59948                  23578494.583
 -21849167.85549 -17025321.98647  21171589.058    21171588.613
   -478964.02248   -373219.37845  23509445.528    23509446.160
 -10998310.80049  -8570109.73146  21677940.659    21677940.306
  -9885078.12548  -7702651.87545  23237275.565    23237277.012
 -12925502.80249 -10071820.22745  22415423.217    22415424.650
   2045045.63248   1593542.98044  24146846.843    24146851.054
 02  1  2  0 37 30.0000000  0  8G25G11G20G14G29G 1G22G30
 -22869859.02249 -17820661.05947  20731572.141    20731571.818
  -9340123.19648                  23593182.479
 -21904672.39449 -17068572.27447  21161026.929    21161026.373
   -398844.99248   -310788.99545  23524691.703    23524692.228
 -10942410.35449  -8526550.94246  21688577.755    21688578.081
  -9962622.69148  -7763076.16745  23222519.628    23222520.662
 -13029299.30649 -10152700.61945  22395671.258    22395672.971
   2118343.60848   1650658.27444  24160796.006    24160795.536
 02  1  2  0 38  0.0000000  0  8G25G11G20G14G29G 1G22G30
 -22835397.86549 -17793808.20747  20738130.298    20738129.870
  -9262715.20848                  23607912.338
 -21959718.70349 -17111465.50047  21150552.119    21150551.716
   -318613.77348   -248271.17945  23539959.600    23539959.002
 -10886304.93749  -8482832.43246  21699254.452    21699254.043
 -10040085.15648  -7823436.50045  23207779.384    23207778.797
 -13132839.30049 -10233381.12845  22375968.204    22375969.593
   2192074.27648   1708110.80344  24174825.863    24174827.747
 02  1  2  0 38 30.0000000  0  8G25G11G20G14G29G 1G22G30
 -22800560.14749 -17766661.92847  20744759.904    20744759.491
  -9185070.20247                  23622686.924
 -22014290.44149 -17153988.93147  21140167.484    21140167.041
   -238256.61748   -185655.24445  23555250.307    23555250.921
 -10829980.55149  -8438943.31146  21709972.945    21709972.379
 -10117450.84348  -7883721.42145  23193057.130    23193058.777
 -13236105.46849 -10313848.26145  22356317.529    22356318.339
   2266249.41048   1765909.58444  24188940.865    24188940.600
 02  1  2  0 39  0.0000000  0  8G25G11G20G14G29G 1G22G30
 -22765357.75149 -17739231.48747  20751458.467    20751458.129
  -9107201.30248                  23637506.858
 -22068395.70149 -17196148.87547  21129871.718    21129871.114
   -157784.24548   -122949.50645  23570564.005    23570564.384
 -10773447.50649  -8394891.59146  21720730.508    21720730.083
 -10194729.50848  -7943938.51245  23178351.261    23178353.316
 -13339104.50449 -10394107.25745  22336717.116    22336717.447
   2340856.20448   1824044.74844  24203138.201    24203140.738
 02  1  2  0 39 30.0000000  0  8G25G11G20G14G29G 1G22G30
 -22729786.23449 -17711513.41947  20758227.672    20758227.243
  -9029105.82448                  23652367.091
 -22122026.56449 -17237939.15547  21119665.984    21119665.618
    -77191.22548    -60149.76745  23585900.738    23585900.398
 -10716700.30049  -8350672.99646  21731529.156    21731528.817
 -10271915.07948  -8004083.08745  23163664.097    23163663.752
 -13441827.44349 -10474151.09845  22317169.733    22317170.899
   2415898.37348   1882519.17044  24217417.724    24217423.083
 02  1  2  0 40  0.0000000  0  8G25G11G20G14G29G 1G22G30
 -22693854.86949 -17683514.95247  20765065.344    20765064.824
  -8950794.16848                  23667270.279
 -22175188.13049 -17279363.75047  21109550.076    21109549.532
      3514.82548      2738.01745  23601257.767    23601258.138
 -10659746.34049  -8306293.30746  21742367.148    21742367.297
 -10349014.56248  -8064160.58845  23148991.385    23148992.276
 -13544278.45349 -10553983.05645  22297674.346    22297675.672
   2491365.89648   1941325.06244  24231780.231    24231780.573
 02  1  2  0 40 30.0000000  0  8G25G11G20G14G29G 1G22G30
 -22657571.18949 -17655241.95047  20771969.752    20771969.408
  -8872275.50748                  23682210.747
 -22227884.66749 -17320425.98847  21099522.050    21099521.578
     84327.03048     65708.53145  23616636.764    23616635.077
 -10602592.22649  -8261757.64146  21753243.281    21753243.504
 -10426033.65148  -8124175.41745  23134335.404    23134336.348
 -13646460.38149 -10633605.32445  22278229.060    22278229.998
   2567250.30448   2000455.79644  24246220.124    24246222.468
 02  1  2  0 41  0.0000000  0  8G25G11G20G14G29G 1G22G30
 -22620947.88649 -17626704.30647  20778938.999    20778938.664
  -8793563.79348                  23697189.820
 -22280125.17349 -17361132.87447  21089580.648    21089580.174
    165233.98548    128752.86845  23632032.866    23632033.357
 -10545249.04449  -8217074.64046  21764155.451    21764155.226
 -10502982.90248  -8184135.83145  23119692.904    23119693.545
 -13748381.18549 -10713024.14945  22258834.653    22258834.632
   2643538.01648   2059900.74644  24260738.052    24260738.171
 02  1  2  0 41 30.0000000  0  8G25G11G20G14G29G 1G22G30
 -22583977.83849 -17597896.46847  20785974.231    20785973.809
  -8714652.87048                  23712206.295
 -22331898.24149 -17401475.52347  21079728.605    21079728.068
    246244.70348    191878.04245  23647447.776    23647447.706
 -10487707.68749  -8172237.23046  21775104.693    21775104.939
 -10579852.75548  -8244034.40445  23105064.417    23105065.111
 -13850028.38049 -10792229.75145  22239491.213    22239492.118
   2720235.67748   2119665.18244  24275332.498    24275330.673
 02  1  2  0 42  0.0000000  0  8G25G11G20G14G29G 1G22G30
 -22546655.89649 -17568814.43247  20793076.293    20793075.857
  -8635539.48948                  23727261.225
 -22383195.62649 -17441447.50947  21069967.092    21069966.381
    327365.11448    255088.73245  23662885.503    23662886.001
 -10429962.36149  -8127240.88146  21786093.247    21786092.993
 -10656636.48649  -8303865.85845  23090454.021    23090453.885
 -13951392.37549 -10871214.66346  22220202.960    22220203.788
   2797347.13948   2179752.02044  24290006.479    24290007.337
 02  1  2  0 42 30.0000000  0  8G25G11G20G14G29G 1G22G30
 -22508961.03849 -17539441.80947  20800249.463    20800249.006
  -8556203.99948                  23742357.367
 -22433992.64449 -17481029.60347  21060300.734    21060300.185
    408617.32748    318402.11345  23678347.516    23678347.077
 -10371990.29449  -8082067.86546  21797125.221    21797125.174
 -10733310.68148  -8363611.94645  23075862.349    23075863.261
 -14052447.28749 -10949958.74546  22200972.628    22200974.696
   2874892.65548   2240177.06644  24304763.521    24304764.056
 02  1  2  0 43  0.0000000  0  8G25G11G20G14G29G 1G22G30
 -22470900.89949 -17509784.55747  20807491.953    20807491.614
  -8476655.39648                  23757495.766
 -22484293.18549 -17520224.83147  21050728.713    21050728.192
    489995.00348    381813.26745  23693832.020    23693834.340
 -10313797.78749  -8036723.05946  21808199.216    21808198.718
 -10809881.23648  -8423277.27245  23061291.018    23061290.665
 -14153195.92049 -11028464.16046  22181801.180    22181802.178
   2952863.66248                  24319599.591
 02  1  2  0 43 30.0000000  0  8G25G11G20G14G29G 1G22G30
 -22432493.29149 -17479856.54847  20814800.460    20814800.049
  -8396912.97948                  23772671.120
 -22534111.47949 -17559044.28147  21041248.897    21041248.442
    571481.64948    445309.32545  23709339.216    23709340.049
 -10255401.38949  -7991219.41046  21819311.595    21819311.266
 -10886363.73349  -8482874.01545  23046737.508    23046737.995
 -14253651.32549 -11106741.09046  22162685.247    22162685.779
   3031241.37648   2362007.28044  24334515.708    24334515.241
 02  1  2  0 44  0.0000000  0  8G25G11G20G14G29G 1G22G30
 -22393741.86649 -17449660.62547  20822174.509    20822174.164
  -8316981.65348                  23787879.697
 -22583447.28649 -17597487.77047  21031860.557    21031860.168
    653074.56048    508888.19845  23724866.098    23724864.470
 -10196803.24949  -7945558.55146  21830462.240    21830462.182
 -10962759.65549  -8542403.26346  23032199.931    23032201.346
 -14353812.12949 -11184788.48146  22143625.195    22143625.555
   3110021.41848   2423394.34744  24349506.417    24349505.568
 02  1  2  0 44 30.0000000  0  8G25G11G20G14G29G 1G22G30
 -22354656.89349 -17419204.79747  20829612.429    20829612.069
  -8236873.22748                  23803125.493
 -22632307.64649 -17635560.77847  21022562.424    21022562.038
    734764.58448    572542.76345  23740410.754    23740410.276
 -10138012.21049  -7899747.36846  21841650.295    21841650.082
 -11039077.42149  -8601871.62645  23017677.394    23017677.500
 -14453683.96149 -11262610.68246  22124619.795    22124620.496
   3189192.44248   2485086.01244  24364571.475    24364570.090
 02  1  2  0 45  0.0000000  0  8G25G11G20G14G29G 1G22G30
 -22315232.18049 -17388484.23947  20837114.755    20837114.355
  -8156582.53148                  23818403.317
 -22680682.17049 -17673255.21547  21013357.407    21013357.100
    816559.56248    636279.07645  23755975.903    23755976.677
 -10079020.19349  -7853779.59046  21852875.766    21852875.601
 -11115308.14849  -8661272.17145  23003171.663    23003170.895
 -14553255.40849 -11340198.82246  22105672.162    22105673.572
   3268760.03848   2547086.75344  24379713.359    24379717.076
 02  1  2  0 45 30.0000000  0  8G25G11G20G14G29G 1G22G30
 -22275478.47249 -17357507.32647  20844679.209    20844678.991
  -8076122.22448                  23833715.712
 -22728578.70049 -17710577.18347  21004243.046    21004242.602
    898449.60348    700089.48745  23771559.466    23771560.102
 -10019837.09849  -7807662.91646  21864137.971    21864138.286
 -11191461.19048  -8720612.18345  22988678.582    22988679.643
 -14652532.83849 -11417557.84646  22086780.336    22086781.420
   3348712.26948   2609387.21844  24394928.121    24394928.129
 02  1  2  0 46  0.0000000  0  8G25G11G20G14G29G 1G22G30
 -22235376.29749 -17326258.88147  20852310.480    20852310.202
  -7995473.77948                  23849060.213
 -22775973.97749 -17747508.56647  20995223.965    20995223.468
    980455.60248    763990.23845  23787163.814    23787165.102
  -9960441.98549  -7761381.02246  21875440.586    21875439.961
 -11267514.77349  -8779874.67345  22974207.527    22974207.928
 -14751491.83149 -11494668.73746  22067949.022    22067950.102
   3429067.59648   2672001.73944  24410219.856    24410219.624
 02  1  2  0 46 30.0000000  0  8G25G11G20G14G29G 1G22G30
 -22194930.14749 -17294742.40347  20860007.265    20860006.782
  -7914643.90448                  23864443.466
 -22822869.43749 -17784050.48647  20986299.932    20986299.372
   1062573.85048    827978.44645  23802791.511    23802791.695
  -9900838.34549  -7714936.64146  21886782.917    21886782.611
 -11343471.59349  -8839061.79245  22959752.841    22959752.407
 -14850132.34149 -11571531.48046  22049178.335    22049179.531
   3509820.26948   2734926.01144  24425585.185    24425585.758
 02  1  2  0 47  0.0000000  0  8G25G11G20G14G29G 1G22G30
 -22154146.85349 -17262963.21947  20867768.084    20867767.652
  -7833640.52247                  23879856.264
 -22869267.75549 -17820205.01947  20977470.740    20977470.246
   1144798.80348    892049.79845  23818437.844    23818438.205
  -9841031.28549  -7668333.76646  21898163.463    21898163.689
 -11419336.22648  -8898177.05945  22945315.222    22945316.019
 -14948456.20949 -11648147.47946  22030467.955    22030468.487
   3590962.82148   2798153.90044  24441026.468    24441027.178
 02  1  2  0 47 30.0000000  0  8G25G11G20G14G29G 1G22G30
 -22113020.53749 -17230916.74447  20875594.208    20875593.759
  -7752458.46948                  23895305.899
 -22915159.49449 -17855964.81947  20968737.952    20968737.431
   1227137.98948    956210.14745  23834106.366    23834108.509
  -9781013.09249  -7621566.37646  21909585.116    21909584.826
 -11495100.31649  -8957213.98745  22930899.896    22930899.748
 -15046452.55249 -11724508.26346  22011820.222    22011820.955
   3672500.28748   2861689.58644  24456542.889    24456541.872
 02  1  2  0 48  0.0000000  0  8G25G11G20G14G29G 1G22G30
 -22071542.82049 -17198596.44747  20883487.239    20883486.827
  -7671091.19247                  23910788.584
 -22960532.76249 -17891320.61447  20960103.661    20960103.217
   1309600.86248   1020466.90045  23849798.941    23849799.793
  -9720774.22149  -7574627.02146  21921047.907    21921047.606
 -11570753.48348  -9016164.47845  22916501.289    22916502.563
 -15144108.12549 -11800603.53346  21993236.237    21993237.653
   3754440.10748   2925538.80044  24472134.806    24472133.285
 02  1  2  0 48 30.0000000  0  8G25G11G20G14G29G 1G22G30
 -22029742.64649 -17166024.88447  20891441.674    20891441.107
  -7589568.92347                  23926301.915
 -23005413.02949 -17926292.25247  20951563.218    20951562.789
   1392159.69748   1084798.41245  23865509.346    23865509.463
  -9660342.02649  -7527537.03146  21932547.435    21932547.499
 -11646322.57449  -9075049.46845  22902122.617    22902121.650
 -15241447.06949 -11876452.06046  21974713.915    21974714.606
   3836752.47648   2989678.30344  24487798.523    24487798.932
 02  1  2  0 49  0.0000000  0  8G25G11G20G14G29G 1G22G30
 -21987608.03749 -17133192.71947  20899459.764    20899459.215
  -7507881.00047                  23941845.776
 -23049784.56749 -17960867.47747  20943119.309    20943118.802
   1474827.74948   1149215.03145  23881240.453    23881240.957
  -9599703.30549  -7480286.11746  21944087.142    21944087.159
 -11721793.18449  -9133857.71745  22887761.244    22887761.746
 -15338452.41749 -11952040.65346  21956253.681    21956255.501
   3919448.28048   3054116.60644  24503535.409    24503535.784
 02  1  2  0 49 30.0000000  0  8G25G11G20G14G29G 1G22G30
 -21945149.31549 -17100108.00747  20907539.136    20907538.600
  -7426039.06047                  23957420.084
 -23093654.37349 -17995051.74347  20934771.230    20934770.735
   1557595.93248   1213709.71045  23896990.157    23896990.291
  -9538866.78449  -7432881.07346  21955663.907    21955663.756
 -11797173.75348  -9192595.79745  22873414.607    22873416.618
 -15435129.83649 -12027373.70846  21937857.101    21937858.437
   4002516.34848   3118844.97244  24519342.978    24519341.195
 02  1  2  0 50  0.0000000  0  8G25G11G20G14G29G 1G22G30
 -21902374.72249 -17066777.16047  20915678.854    20915678.344
  -7344053.21347                  23973020.704
 -23137027.45849 -18028848.95547  20926517.802    20926517.316
   1640457.13548   1278276.86345  23912759.167    23912758.439
  -9477839.56649  -7385327.43546  21967277.329    21967276.993
 -11872470.70049  -9251268.72545  22859088.539    22859088.087
 -15531482.92849 -12102454.04446  21919521.476    21919522.088
   4085947.04748   3183855.89444  24535219.004    24535218.554
 02  1  2  0 50 30.0000000  0  8G25G11G20G14G29G 1G22G30
 -21859285.21749 -17033200.92347  20923878.579    20923878.143
  -7261925.56047                  23988649.921
 -23179901.05749 -18062256.95347  20918359.153    20918358.926
   1723411.52448   1342916.59045  23928544.317    23928544.088
  -9416621.10149  -7337624.78646  21978926.376    21978926.133
 -11947682.48149  -9309875.28945  22844775.460    22844776.565
 -15627507.74249 -12177278.57446  21901248.929    21901250.102
   4169738.64948   3249148.02144  24551163.434    24551165.222
 02  1  2  0 51  0.0000000  0  8G25G11G20G14G29G 1G22G30
 -21815866.13549 -16999367.87847  20932141.075    20932140.641
  -7179642.70847                  24004309.046
 -23222256.99649 -18095261.58447  20910299.419    20910298.852
   1806475.28248   1407641.57445  23944350.314    23944351.983
  -9355195.06949  -7289760.38646  21990615.690    21990615.362
 -12022792.15348  -9368402.27746  22830481.230    22830482.428
 -15723184.71149 -12251832.06846  21883041.856    21883042.600
   4253905.02648   3314732.26144  24567180.471    24567178.106
 02  1  2  0 51 30.0000000  0  8G25G11G20G14G29G 1G22G30
 -21772122.25749 -16965281.74647  20940465.279    20940464.831
  -7097210.76647                  24019994.976
 -23264096.58949 -18127863.87047  20902337.485    20902336.920
   1889644.79948   1472448.90745  23960178.579    23960177.403
  -9293564.76249  -7241736.79846  22002343.407    22002343.119
 -12097802.44949  -9426851.85745  22816209.175    22816208.464
 -15818513.82049 -12326114.46846  21864901.437    21864903.213
   4338440.33348   3380603.93244  24583266.766    24583267.152
 02  1  2  0 52  0.0000000  0  8G25G11G20G14G29G 1G22G30
 -21728055.75549 -16930944.21847  20948850.551    20948850.253
  -7014633.35848                  24035708.621
 -23305418.48649 -18160062.75647  20894474.023    20894473.555
