     2.10           OBSERVATION DATA    G (GPS)             RINEX VERSION / TYPE
teqc  2004Apr5                          20041208 15:58:25UTCPGM / RUN BY / DATE
OBSERVATION MODE: Permanent                                 COMMENT
CHUM Chumysh (CHUM)                                         MARKER NAME
25601M001                                                   MARKER NUMBER
T136                ROGUE SNR-8000       3.20               REC # / TYPE / VERS
113                 AOAD/M_T        NONE                    ANT # / TYPE
        0.0900        0.0000        0.0000                  ANTENNA: DELTA H/E/N
  1228950.8663  4508079.8913  4327868.4923                  APPROX POSITION XYZ
  74.75109760  42.99850108  716.3251  LonLatAlt  S/W        COMMENT
Linux 2.0.36|Pentium II|gcc -static|Linux|486/DX+           COMMENT
BIT 2 OF LLI FLAGS DATA COLLECTED UNDER A/S CONDITION       COMMENT
Konovalov           IVTAN                                   OBSERVER / AGENCY
     1     1                                                WAVELENGTH FACT L1/2
     5    L1    L2    C1    P2    P1                        # / TYPES OF OBSERV
    30.0000                                                 INTERVAL
    P1 =    P1  TurboRogue; =    Y1  Benchmark              COMMENT
    L1 = L1(P1) TurboRogue; = L1(Y1) Benchmark              COMMENT
    P2 =    P2  TurboRogue; =    Y2  Benchmark              COMMENT
    L2 = L2(P2) TurboRogue; = L2(Y2) Benchmark              COMMENT
 SNR is mapped to RINEX snr flag value [1,4-9]              COMMENT
    SNR:  >=316 >=100 >=31.6 >=10 >=3.2    >0 bad=0         COMMENT
L1 & L2:      9     8     7     6     5     4     1         COMMENT
  2002     1    11     0     0    0.0000000     GPS         TIME OF FIRST OBS
  2002     1    11    23    59   30.0000000     GPS         TIME OF LAST OBS
                                                            END OF HEADER
 02  1 11  0  0  0.0000000  0  8G20G14G 1G29G30G22G11G25
 -21877756.25649 -17047597.76747  21179896.371    21179896.262
   1665038.01048   1297435.87945  23491118.135    23491116.687
  -9720967.06448  -7574776.57245  23254966.023    23254966.637
  -8130227.70449  -6335237.76446  22218906.136    22218906.446
   2285173.18148   1780653.69344  24152071.148    24152072.172
 -12925605.33149 -10071897.22745  22411359.102    22411361.543
  -9383447.76948                  23575591.619
 -22793429.17049 -17761104.86747  20738271.640    20738271.222
 02  1 11  0  0 30.0000000  0  8G20G14G 1G29G30G22G11G25
 -21933523.24049 -17091052.55747  21169284.068    21169283.838
   1744999.46748   1359743.47445  23506334.819    23506334.409
  -9798602.36948  -7635271.58645  23240191.917    23240193.461
  -8065670.05949  -6284933.13746  22231190.841    22231190.385
   2358737.53448   1837976.54444  24166070.032    24166068.978
 -13029406.71049 -10152781.38945  22391606.315    22391607.871
  -9306392.02048  -7251735.59744  23590253.396    23590253.399
 -22758681.48049 -17734028.74447  20744883.989    20744883.631
 02  1 11  0  1  0.0000000  0  8G20G14G 1G29G30G22G11G25
 -21988829.41449 -17134148.27747  21158759.601    21158759.171
   1825077.75148   1422142.10345  23521572.754    23521573.800
  -9876152.53748  -7695700.25445  23225435.257    23225436.547
  -8000930.97449  -6234487.11246  22243510.558    22243510.590
   2432736.64848   1895638.19744  24180152.228    24180152.781
 -13132947.85649 -10233462.76345  22371902.860    22371904.561
  -9229105.89948                  23604962.303
 -22723567.71049 -17706667.36047  20751565.811    20751565.752
 02  1 11  0  1 30.0000000  0  8G20G14G 1G29G30G22G11G25
 -22043672.14749 -17176882.87347  21148323.534    21148323.461
   1905272.80648   1484631.71745  23536833.913    23536832.307
  -9953616.70148  -7756061.90645  23210694.428    23210695.426
  -7936010.49349  -6183899.74846  22255864.765    22255864.695
   2507168.73448   1953637.22244  24194315.170    24194318.626
 -13236225.08849 -10313938.49345  22352250.113    22352251.644
  -9151591.65047                  23619710.388
 -22688089.32749 -17679021.86347  20758317.222    20758317.124
 02  1 11  0  2  0.0000000  0  8G20G14G 1G29G30G22G11G25
 -22098048.94749 -17219254.40547  21137976.027    21137976.048
   1985584.80848   1547212.46745  23552116.507    23552115.036
 -10030994.00348  -7816355.88745  23195970.299    23195972.724
  -7870908.16649  -6133170.67946  22268252.577    22268253.003
   2582032.02948   2011972.21444  24208561.634    24208564.428
 -13339234.52849 -10394205.56845  22332647.839    22332648.788
  -9073851.87148                  23634505.378
 -22652247.25749 -17651092.96947  20765137.929    20765137.688
 02  1 11  0  2 30.0000000  0  8G20G14G 1G29G30G22G11G25
 -22151967.26949 -17261268.68047  21127715.774    21127715.567
   2066003.14348   1609876.07645  23567419.786    23567418.955
 -10108294.16948  -7876589.74245  23181260.139    23181262.214
  -7805634.22649  -6082307.88746  22280674.434    22280675.011
   2657313.87648   2070633.44344  24222888.411    24222888.060
 -13441982.85949 -10474269.16345  22313095.260    22313098.217
  -8995899.64348                  23649338.503
 -22616053.15149 -17622889.76447  20772025.204    20772024.981
 02  1 11  0  3  0.0000000  0  8G20G14G 1G29G30G22G11G25
 -22205429.06049 -17302927.22147  21117542.386    21117542.256
   2146523.89448   1672619.47145  23582742.468    23582741.769
 -10185520.36649  -7936765.97845  23166565.109    23166565.418
  -7740192.65449  -6031314.47146  22293127.247    22293127.731
   2733008.34748   2129616.07944  24237291.857    24237295.694
 -13544470.69849 -10554129.79545  22293592.825    22293594.200
  -8917741.62848                  23664212.306
 -22579511.80249 -17594415.97747  20778978.960    20778978.716
 02  1 11  0  3 30.0000000  0  8G20G14G 1G29G30G22G11G25
 -22258404.66249 -17344206.90847  21107461.794    21107461.610
   2227174.02548   1735463.69645  23598089.509    23598088.897
 -10262644.59348  -7996862.74045  23151887.882    23151889.159
  -7674556.24449  -5980169.24246  22305617.535    22305617.011
   2809140.17848   2188939.58344  24251780.420    24251782.902
 -13646667.30149 -10633763.48345  22274144.848    22274146.490
  -8839353.22248                  23679129.060
 -22542597.62849 -17565651.67647  20786003.565    20786003.244
 02  1 11  0  4  0.0000000  0  8G20G14G 1G29G30G22G11G25
 -22310915.21749 -17385124.22147  21097469.008    21097468.649
   2307930.13848   1798390.51245  23613456.534    23613455.135
 -10339689.67048  -8056897.84345  23137227.141    23137228.682
  -7608748.29749  -5928890.34246  22318140.791    22318140.383
   2885683.93548   2248584.12544  24266344.703    24266342.421
 -13748592.52149 -10713185.69045  22254749.819    22254750.989
  -8760760.39648                  23694084.328
 -22505335.24649 -17536616.04347  20793094.239    20793094.042
 02  1 11  0  4 30.0000000  0  8G20G14G 1G29G30G22G11G25
 -22362952.78349 -17425672.97547  21087566.345    21087566.224
   2388797.46548   1861403.97745  23628846.178    23628845.010
 -10416649.26649  -8116866.31445  23122582.418    23122583.931
  -7542763.24549  -5877473.43346  22330697.166    22330696.665
   2962643.08648   2308552.23044  24280991.020    24280990.378
 -13850237.28249 -10792389.37445  22235406.946    22235408.920
  -8681960.98348                  23709079.991
 -22467720.59249 -17507305.91847  20800252.246    20800251.941
 02  1 11  0  5  0.0000000  0  8G20G14G 1G29G30G22G11G25
 -22414520.00049 -17465855.21847  21077753.470    21077753.318
   2469770.99448   1924500.19945  23644254.035    23644255.534
 -10493527.93248  -8176771.75145  23107952.103    23107954.100
  -7476606.29549  -5825922.59246  22343286.120    22343285.757
   3040010.09448   2368838.18444  24295713.561    24295714.668
 -13951603.30949 -10871375.86645  22216117.977    22216119.186
  -8602962.29148                  23724113.237
 -22429760.12049 -17477726.32347  20807475.964    20807475.852
 02  1 11  0  5 30.0000000  0  8G20G14G 1G29G30G22G11G25
 -22465596.79449 -17505655.31947  21068034.027    21068033.845
   2550868.15548   1987692.75445  23659686.176    23659686.514
 -10570307.02749  -8236599.58645  23093342.792    23093343.288
  -7410259.49649  -5774223.80446  22355911.729    22355912.036
   3117800.78648   2429454.28744  24310515.414    24310516.736
 -14052669.21849 -10950128.49446  22196885.370    22196887.709
  -8523749.36248                  23739186.686
 -22391437.56449 -17447864.58647  20814768.108    20814767.853
 02  1 11  0  6  0.0000000  0  8G20G14G 1G29G30G22G11G25
 -22516178.30649 -17545069.47947  21058408.699    21058408.617
   2632091.44648   2050983.58145  23675143.678    23675142.882
 -10646983.33349  -8296347.32846  23078750.743    23078752.309
  -7343720.29149  -5722375.10446  22368574.172    22368574.418
   3196015.24348   2490400.61444  24325400.411    24325399.701
 -14153428.99349 -11028642.58146  22177712.046    22177713.735
  -8444322.24048                  23754300.474
 -22352751.27149 -17417719.41747  20822129.772    20822129.679
 02  1 11  0  6 30.0000000  0  8G20G14G 1G29G30G22G11G25
 -22566276.66649 -17584107.16247  21048875.180    21048874.958
   2713426.77948   2114361.73145  23690620.167    23690620.806
 -10723570.44949  -8356025.56845  23064176.534    23064178.340
  -7277003.06449  -5670387.67946  22381269.486    22381270.111
   3274636.90348   2551664.26744  24340360.715    24340361.872
 -14253893.42249 -11106926.52846  22158594.204    22158595.502
  -8364698.09848                  23769454.283
 -22313717.11549 -17387303.18547  20829557.661    20829557.495
 02  1 11  0  7  0.0000000  0  8G20G14G 1G29G30G22G11G25
 -22615905.35149 -17622778.85847  21039431.273    21039431.270
   2794857.72848   2177814.37745  23706115.810    23706115.927
 -10800083.28249  -8415645.95345  23049616.763    23049617.710
  -7210123.43549  -5618273.69246  22393996.872    22393996.358
   3353647.95148   2613231.29044  24355396.107    24355397.234
 -14354074.78849 -11184989.89646  22139530.596    22139531.828
  -8284895.59848                  23784638.702
 -22274352.34549 -17356629.33747  20837048.903    20837048.724
 02  1 11  0  7 30.0000000  0  8G20G14G 1G29G30G22G11G25
 -22665050.89049 -17661074.08247  21030079.069    21030079.096
   2876395.43348   2241350.21845  23721632.951    23721631.239
 -10876510.07949  -8475199.26345  23035073.329    23035074.680
  -7143070.66749  -5566024.80646  22406756.136    22406756.221
   3433057.02748   2675108.48444  24370507.351    24370506.599
 -14453958.59449 -11262821.41646  22120522.773    22120524.712
  -8204906.17148                  23799860.852
 -22234647.01249 -17325690.11747  20844604.220    20844604.038
 02  1 11  0  8  0.0000000  0  8G20G14G 1G29G30G22G11G25
 -22713706.04349 -17698987.18947  21020820.348    21020820.443
   2958044.86048   2304973.11545  23737169.676    23737168.004
 -10952844.99749  -8534680.98445  23020547.670    23020548.266
  -7075839.22849  -5513636.70446  22419549.979    22419550.483
   3512867.04948   2737298.05244  24385694.880    24385696.014
 -14553536.11449 -11340414.26546  22101573.936    22101575.730
  -8124727.77148                  23815119.509
 -22194597.44149 -17294482.65447  20852225.216    20852225.293
 02  1 11  0  8 30.0000000  0  8G20G14G 1G29G30G22G11G25
 -22761866.82149 -17736515.06147  21011655.803    21011655.818
   3039807.54448   2368684.24645  23752728.899    23752730.640
 -11029085.59549  -8594089.21945  23006040.266    23006040.135
  -7008427.60549  -5461108.18146  22432377.624    22432378.858
   3593077.27648   2799799.53444  24400959.496    24400958.422
 -14652802.27749 -11417764.49446  22082684.255    22082686.043
  -8044361.25948                  23830412.054
 -22154203.41649 -17263006.79147  20859912.132    20859911.895
 02  1 11  0  9  0.0000000  0  8G20G14G 1G29G30G22G11G25
 -22809543.91449 -17773666.04047  21002583.159    21002583.097
   3121670.68848   2432473.67145  23768307.431    23768306.009
 -11105243.90949  -8653433.32945  22991545.958    22991547.958
  -6940848.60249  -5408449.24746  22445237.971    22445237.088
   3673672.81448   2862601.25044  24416294.416    24416295.490
 -14751766.22249 -11494879.22246  22063851.894    22063853.288
  -7963822.10748                  23845737.534
 -22113478.84749 -17231273.35847  20867661.867    20867661.523
 02  1 11  0  9 30.0000000  0  8G20G14G 1G29G30G22G11G25
 -22856724.76749 -17810430.34247  20993604.928    20993604.633
   3203644.14448   2496349.07545  23783905.474    23783905.612
 -11181309.08549  -8712704.86245  22977073.015    22977073.752
  -6873091.88749  -5355651.81846  22458131.834    22458131.974
   3754661.52848   2925709.29644  24431706.677    24431707.575
 -14850414.56649 -11571748.03846  22045079.697    22045080.872
  -7883103.07148                  23861097.739
 -22072415.04349 -17199275.58847  20875476.104    20875475.862
 02  1 11  0 10  0.0000000  0  8G14G 1G29G30G22G20G11G25
   3285723.77648   2560307.15045  23799525.614    23799524.908
 -11257284.52449  -8771906.47945  22962614.662    22962614.789
  -6805161.62849  -5302719.17646  22471058.112    22471059.662
   3836036.79348   2989118.55944  24447192.187    24447189.406
 -14948747.76849 -11648371.28146  22026367.737    22026368.018
 -22903411.20249 -17846809.38047  20984720.755    20984720.418
  -7802211.02148                  23876492.027
 -22031017.53349 -17167017.79047  20883353.938    20883353.514
 02  1 11  0 10 30.0000000  0  8G14G 1G29G30G22G20G11G25
   3367912.32948   2624350.15445  23815165.472    23815164.905
 -11333166.45248  -8831035.21545  22948173.587    22948175.921
  -6737055.02749  -5249649.11445  22484018.782    22484018.771
   3917799.40248   3052829.72644  24462750.429    24462751.080
 -15046759.44549 -11724743.99246  22007716.816    22007718.394
 -22949598.18049 -17882799.23247  20975931.756    20975931.446
  -7721145.64847                  23891914.932
 -21989284.80549 -17134498.78347  20891295.408    20891294.978
 02  1 11  0 11  0.0000000  0  8G14G 1G29G30G22G20G11G25
   3450209.52248   2688477.79445  23830825.912    23830824.335
 -11408954.10049  -8890090.50346  22933753.568    22933754.309
  -6668771.81149  -5196441.43745  22497012.699    22497011.756
   3999946.93748   3116840.69744  24478383.248    24478386.262
 -15144446.12549 -11800863.45846  21989127.170    21989129.087
 -22995283.41049 -17918398.11347  20967237.991    20967237.728
  -7639909.75748                  23907377.789
 -21947218.15549 -17101719.57947  20899300.575    20899300.136
 02  1 11  0 11 30.0000000  0  8G14G 1G29G30G22G20G11G25
   3532606.00448   2752682.79745  23846505.631    23846504.404
 -11484656.31448  -8949079.21045  22919345.862    22919348.127
  -6600321.64849  -5143103.66645  22510037.680    22510038.294
   4082467.70748   3181142.67744  24494086.002    24494084.944
 -15241813.81949 -11876734.36146  21970599.271    21970600.779
 -23040474.51549 -17953611.95947  20958638.575    20958638.293
  -7558515.53447                  23922864.590
 -21904828.50749 -17068688.68347  20907366.922    20907366.503
 02  1 11  0 12  0.0000000  0  8G14G 1G29G30G22G20G11G25
   3615112.17248   2816973.27145  23862206.064    23862206.534
 -11560261.75649  -9007992.51645  22904960.011    22904961.282
  -6531693.87849  -5089627.50545  22523097.756    22523098.210
   4165369.95148   3245741.81544  24509862.513    24509861.657
 -15338848.49649 -11952345.76446  21952133.328    21952135.139
 -23085158.45349 -17988430.60847  20950135.374    20950135.076
  -7476955.11147                  23938384.849
 -21862106.41849 -17035398.74947  20915496.601    20915496.269
 02  1 11  0 12 30.0000000  0  8G14G 1G29G30G22G20G11G25
   3697738.35248   2881357.28045  23877929.466    23877929.375
 -11635758.81349  -9066821.35846  22890593.698    22890594.811
  -6462877.88749  -5036004.68045  22536192.824    22536193.371
   4248661.69548   3310644.44144  24525712.011    24525713.753
 -15435536.21749 -12027686.81046  21933734.576    21933736.225
 -23129322.58249 -18022844.21647  20941730.985    20941730.767
  -7395220.59447                  23953937.859
 -21819043.07549 -17001842.90247  20923691.337    20923690.976
 02  1 11  0 13  0.0000000  0  8G14G 1G29G30G22G20G11G25
   3780475.37548   2945827.61145  23893673.201    23893674.084
 -11711156.05048  -9125572.41445  22876243.943    22876246.791
  -6393882.99749  -4982242.45145  22549322.047    22549322.495
   4332331.51648   3375841.65844  24541633.289    24541632.465
 -15531882.70349 -12102761.97446  21915400.396    21915401.884
 -23172973.95449 -18056858.27247  20933424.696    20933424.499
  -7313324.02147                  23969523.349
 -21775648.51449 -16968028.96447  20931949.204    20931948.885
 02  1 11  0 13 30.0000000  0  8G14G 1G29G30G22G20G11G25
   3863313.75848   3010376.97545  23909437.510    23909437.142
 -11786461.90349  -9184252.26945  22861916.108    22861916.615
  -6324718.17349  -4928347.80845  22562483.069    22562484.015
   4416367.88648   3441324.56444  24557625.565    24557625.545
 -15627893.68149 -12177575.69446  21897130.503    21897131.518
 -23216119.82749 -18090478.43447  20925214.293    20925214.090
  -7231277.41247                  23985135.425
 -21731933.75749 -16933965.51647  20940267.985    20940267.631
 02  1 11  0 14  0.0000000  0  8G14G 1G29G30G22G20G11G25
   3946257.72448   3075008.57045  23925221.102    23925219.858
 -11861671.06149  -9242856.79245  22847603.627    22847604.461
  -6255379.27149  -4874317.52045  22575679.050    22575678.493
   4500772.76648   3507094.62544  24573686.885    24573689.542
 -15723561.44349 -12252121.98346  21878925.261    21878926.689
 -23258753.54249 -18123699.50747  20917101.257    20917101.130
  -7149079.10648                  24000778.662
 -21687895.71549 -16899650.16147  20948647.771    20948647.432
 02  1 11  0 14 30.0000000  0  8G14G 1G29G30G22G20G11G25
   4029297.33548   3139714.72345  23941023.064    23941023.164
 -11936792.59048  -9301393.00645  22833306.818    22833309.892
  -6185876.00149  -4820159.13545  22588904.356    22588904.629
   4585534.03248   3573142.26544  24589816.214    24589816.720
 -15818892.12649 -12326405.58846  21860784.204    21860785.588
 -23300882.85949 -18156527.54647  20909084.654    20909084.334
  -7066741.46548                  24016446.878
 -21643545.51449 -16865091.56447  20957087.222    20957087.015
 02  1 11  0 15  0.0000000  0  8G14G 1G29G30G22G20G11G25
   4112449.00048   3204508.16045  23956845.977    23956846.419
 -12011809.12849  -9359847.41546  22819033.515    22819034.749
  -6116191.70348  -4765859.71445  22602164.404    22602165.034
   4670665.75548   3639478.69844  24606017.046    24606016.414
 -15913865.92049 -12400411.10646  21842711.378    21842713.455
 -23342489.17749 -18188948.05347  20901166.917    20901166.769
  -6984251.09648                  24032144.083
 -21598867.89149 -16830277.83647  20965589.289    20965588.877
 02  1 11  0 15 30.0000000  0  8G14G 1G29G30G22G20G11G25
   4195704.98948   3269382.91045  23972690.566    23972688.820
 -12086727.54549  -9418225.37446  22804776.619    22804777.496
  -6046334.26549  -4711425.37745  22615458.735    22615458.226
   4756157.97548   3706095.99344  24622284.836    24622286.459
 -16008486.98049 -12474141.78146  21824705.388    21824706.696
 -23383578.03649 -18220965.34347  20893348.016    20893347.763
  -6901618.18048                  24047869.145
 -21553872.20649 -16795216.26747  20974151.580    20974151.250
 02  1 11  0 16  0.0000000  0  8G14G 1G29G30G22G20G11G25
   4279080.48448   3334350.78345  23988554.298    23988553.129
 -12161531.67648  -9476514.27146  22790540.942    22790543.620
  -5976288.24548  -4656844.08845  22628787.375    22628788.094
   4842023.50248   3773004.15844  24638624.576    24638627.740
 -16102736.55049 -12547582.97146  21806770.669    21806772.190
 -23424131.90949 -18252565.76647  20885630.785    20885630.653
  -6818829.87948                  24063623.182
 -21508544.18849 -16759895.73447  20982777.047    20982776.748
 02  1 11  0 16 30.0000000  0  8G14G 1G29G30G22G20G11G25
   4362560.84148   3399400.34944  24004441.025    24004442.329
 -12236235.23649  -9534724.79746  22776326.897    22776328.106
  -5906068.13748  -4602127.13645  22642149.962    22642150.374
   4928245.43148   3840190.06144  24655032.095    24655032.851
 -16196625.76549 -12620743.37146  21788903.779    21788905.474
 -23464163.52349 -18283759.23347  20878012.908    20878012.793
  -6735903.85848                  24079404.344
 -21462900.14249 -16724328.94947  20991462.902    20991462.582
 02  1 11  0 17  0.0000000  0  8G14G 1G29G30G22G20G11G25
   4446140.03448   3464526.94345  24020346.103    24020346.332
 -12310843.42848  -9592861.00846  22762126.997    22762129.149
  -5835679.94148  -4547279.22645  22655544.719    22655544.505
   5014815.70448   3907647.37444  24671506.070    24671507.664
 -16290157.24949 -12693625.01646  21771105.715    21771106.912
 -23503676.77349 -18314548.77847  20870494.130    20870494.036
  -6652848.65348                  24095208.441
 -21416947.13049 -16688521.41047  21000207.367    21000206.994
 02  1 11  0 17 30.0000000  0  8G14G 1G29G30G22G20G11G25
   4529821.32848   3529733.07445  24036269.326    24036269.057
 -12385351.97549  -9650919.57946  22747949.488    22747950.779
  -5765120.09048  -4492297.54845  22668971.742    22668972.332
   5101735.26348   3975376.91344  24688046.225    24688047.672
 -16383323.99549 -12766222.45346  21753376.212    21753378.234
 -23542665.80849 -18344929.84547  20863074.780    20863074.569
  -6569663.21748                  24111037.648
 -21370682.81449 -16652471.29647  21009011.201    21009010.974
 02  1 11  0 18  0.0000000  0  8G14G 1G29G30G22G20G11G25
   4613598.34148   3595013.82144  24052211.775    24052211.623
 -12459766.17249  -9708904.63346  22733790.317    22733790.809
  -5694394.87648  -4437187.02245  22682430.202    22682430.545
   5188995.25848                  24704650.623
 -16476128.78249 -12838537.83846  21735716.550    21735717.986
 -23581135.18949 -18374905.98447  20855753.866    20855753.836
  -6486356.76048  -5054306.31344  24126891.835    24126889.947
 -21324115.26149 -16616184.89547  21017872.748    21017872.363
 02  1 11  0 18 30.0000000  0  8G14G 1G29G30G22G20G11G25
   4697475.92448   3660372.90245  24068173.673    24068172.131
 -12534080.51849  -9766811.88646  22719646.547    22719648.293
  -5623499.45148  -4381943.86845  22695921.229    22695921.203
   5276598.31448   4111633.82644  24721322.198    24721321.736
 -16568563.48349 -12910564.85646  21718126.467    21718127.841
 -23619078.05049 -18404471.84847  20848533.676    20848533.719
  -6402927.14348                  24142766.830
 -21277240.76849 -16579659.31747  21026793.148    21026792.561
 02  1 11  0 19  0.0000000  0  8G14G 1G29G30G22G20G11G25
   4781431.73048   3725792.96345  24084149.711    24084148.523
 -12608316.00449  -9824657.68846  22705521.582    22705522.680
  -5552455.83148  -4326585.23745  22709440.142    22709440.334
   5364519.90248   4180144.08744  24738051.678    24738053.545
 -16660646.80749 -12982318.06046  21700603.629    21700604.944
 -23656514.56149 -18433643.15547  20841409.939    20841409.635
  -6319399.27248  -4924209.68044  24158661.357    24158657.790
 -21230082.75849 -16542912.82047  21035766.814    21035766.214
 02  1 11  0 19 30.0000000  0  8G14G 1G29G30G22G20G11G25
   4865485.56648   3791289.38544  24100144.044    24100143.131
 -12682451.77749  -9882425.79946  22691413.968    22691415.184
  -5481244.13248  -4271095.62045  22722991.712    22722991.743
   5452777.51648   4248916.26144  24754847.492    24754847.781
 -16752355.44049 -13053779.30846  21683152.331    21683153.316
 -23693422.87949 -18462402.88347  20834386.520    20834386.271
  -6235755.96348                  24174578.178
 -21182622.63549 -16505930.91147  21044798.191    21044797.758
 02  1 11  0 20  0.0000000  0  8G14G 1G29G30G22G20G11G25
   4949653.17448   3856874.49144  24116162.115    24116160.901
 -12756471.27249  -9940103.31046  22677327.459    22677329.324
  -5409848.34348  -4215462.56145  22736577.375    22736577.930
   5541384.69948   4317960.80244  24771709.043    24771709.838
 -16843669.89949 -13124933.39846  21665775.319    21665776.630
 -23729784.84549 -18490736.88247  20827466.872    20827466.576
  -6151983.89648                  24190520.194
 -21134845.61849 -16468702.06947  21053889.864    21053889.373
 02  1 11  0 20 30.0000000  0  7G14G 1G29G22G20G11G25
   5033945.80948   3922557.01344  24132201.531    24132201.050
 -12830362.04249  -9997680.50346  22663267.604    22663268.189
  -5338257.32748  -4159677.38745  22750200.998    22750201.178
 -16934575.72549 -13195769.07446  21648476.785    21648478.129
 -23765587.50649 -18518635.05947  20820653.635    20820653.636
  -6068074.63148                  24206486.915
 -21086742.44149 -16431219.07447  21063043.505    21063042.891
 02  1 11  0 21  0.0000000  0  8G14G 1G29G 4G22G20G11G25
   5118321.42848   3988304.17345  24148257.829    24148257.395
 -12904165.29349 -10055189.51246  22649222.767    22649224.002
  -5266512.85848  -4103772.64745  22763853.594    22763853.368
         -.90258                  25327164.549
 -17025111.15949 -13266316.14246  21631248.660    21631250.126
 -23800870.72549 -18546128.47747  20813939.607    20813939.573
  -5984072.70548                  24222471.831
 -21038356.37449 -16393515.64747  21072250.983    21072250.532
 02  1 11  0 21 30.0000000  0  8G14G 1G29G 4G22G20G11G25
   5202791.01648   4054124.58345  24164332.545    24164333.110
 -12977868.98749 -10112620.93746  22635197.213    22635198.729
  -5194603.87048  -4047739.68445  22777537.458    22777538.658
    -53389.04548                  25317006.438
 -17115261.98349 -13336563.51646  21614093.004    21614094.439
 -23835621.70949 -18573207.16847  20807326.841    20807326.570
  -5899969.78948  -4597381.68544  24238477.149    24238476.677
 -20989677.33749 -16355583.92847  21081514.317    21081513.802
 02  1 11  0 22  0.0000000  0  8G14G 1G29G 4G22G20G11G25
   5287363.24448   4120024.96345  24180425.012    24180425.859
 -13051463.26749 -10169967.12046  22621193.122    22621193.840
  -5122521.63648  -3991571.74445  22791254.277    22791253.850
   -106320.24648                  25306934.317
 -17205016.11649 -13406501.77646  21597013.404    21597014.974
 -23869829.45449 -18599862.55347  20800817.493    20800817.264
  -5815759.43848                  24254500.206
 -20940697.89549 -16317418.12747  21090834.856    21090834.439
 02  1 11  0 22 30.0000000  0  8G14G 1G29G 4G22G20G11G25
   5372033.30348   4186001.57045  24196537.824    24196538.331
 -13124952.27649 -10227231.27446  22607208.242    22607208.741
  -5050270.77948  -3935272.40045  22805003.754    22805003.042
   -158797.22848                  25296947.762
 -17294375.00749 -13476132.05946  21580008.817    21580009.769
 -23903497.11149 -18626097.09047  20794410.530    20794410.409
  -5731449.48048  -4466067.21144  24270545.517    24270546.100
 -20891424.31149 -16279023.12847  21100211.181    21100210.768
 02  1 11  0 23  0.0000000  0  8G14G 1G29G 4G22G20G11G25
   5456817.64948   4252067.21844  24212671.520    24212672.853
 -13198318.13249 -10284399.45046  22593246.905    22593248.806
  -4977834.57148  -3878828.64645  22818787.142    22818788.306
   -210801.18948                  25287051.225
 -17383318.08949 -13545438.32546  21563083.656    21563084.907
 -23936605.84649 -18651896.10847  20788110.072    20788109.962
  -5647025.70348                  24286610.285
 -20841840.86449 -16240386.67547  21109646.859    21109646.454
 02  1 11  0 23 30.0000000  0  8G14G 1G29G 4G22G20G11G25
   5541715.54048   4318221.36244  24228827.020    24228826.628
 -13271560.77049 -10341471.60146  22579309.899    22579310.787
  -4905213.71448  -3822240.99045  22832606.654    22832606.831
   -262330.98648                  25277246.131
 -17471842.97349 -13614418.73146  21546238.139    21546239.035
 -23969154.64749 -18677258.81047  20781916.413    20781916.152
  -5562491.54048                  24302697.255
 -20791950.00349 -16201510.67647  21119140.494    21119140.069
 02  1 11  0 24  0.0000000  0  8G14G 1G29G 4G22G20G11G25
   5626702.01648   4384444.53744  24244999.758    24244999.053
 -13344704.34849 -10398466.57846  22565390.615    22565391.680
  -4832433.31748  -3765529.01245  22846456.801    22846456.815
   -313410.02248                  25267526.820
 -17559971.45449 -13683090.25046  21529467.096    21529468.826
 -24001166.83149 -18702203.36947  20775825.055    20775824.830
  -5477874.55048                  24318798.500
 -20741778.25049 -16162415.80547  21128687.688    21128687.457
 02  1 11  0 24 30.0000000  0  8G14G 1G29G 4G22G20G11G25
   5711775.37448   4450735.40344  24261188.395    24261187.677
 -13417749.20849 -10455384.62246  22551491.027    22551491.833
  -4759494.74348  -3708693.79445  22860335.767    22860337.377
   -364037.77348                  25257892.268
 -17647701.68649 -13751451.44846  21512773.157    21512774.248
 -24032641.78349 -18726729.30947  20769835.522    20769835.247
  -5393178.95448                  24334916.486
 -20691328.16249 -16123104.04847  21138288.621    21138288.201
 02  1 11  0 25  0.0000000  0  8G14G 1G29G 4G22G20G11G25
   5796945.06448   4517101.33344  24277395.353    24277394.363
 -13490684.84449 -10512217.56546  22537611.767    22537613.084
  -4686388.36748  -3651727.82845  22874247.352    22874247.900
   -414203.06148                  25248345.413
 -17735020.68249 -13819492.20446  21496156.518    21496158.209
 -24063568.29149 -18750827.88847  20763950.128    20763949.858
  -5308397.99248                  24351048.587
 -20640591.36849 -16083568.88047  21147943.028    21147942.920
 02  1 11  0 25 30.0000000  0  8G14G 1G29G 4G22G20G11G25
   5882221.53548   4583550.46744  24293623.659    24293622.631
 -13563499.84549 -10568956.49446  22523755.187    22523756.253
  -4613103.72948  -3594622.95345  22888194.026    22888193.837
   -463893.23848                  25238890.350
 -17821914.44749 -13887201.60746  21479621.576    21479622.698
 -24093933.88149 -18774489.38747  20758171.690    20758171.439
  -5223523.77748  -4070281.18444  24367199.472    24367202.677
 -20589558.88849 -16043803.30947  21157654.065    21157653.880
 02  1 11  0 26  0.0000000  0  8G14G 1G29G 4G22G20G11G25
   5967593.16748   4650073.76244  24309869.063    24309868.763
 -13636204.71049 -10625609.60646  22509920.489    22509921.791
  -4539652.26048  -3537388.07145  22902170.478    22902169.802
   -513118.08548                  25229522.863
 -17908391.33649 -13954586.16746  21463165.234    21463167.130
 -24123748.31849 -18797721.41847  20752498.125    20752498.086
  -5138570.24148                  24383366.423
 -20538243.43149 -16003817.23947  21167419.159    21167418.864
 02  1 11  0 26 30.0000000  0  8G14G 1G29G 4G22G20G11G25
   6053051.64348   4716664.71644  24326131.179    24326130.425
 -13708806.40349 -10682182.33946  22496104.678    22496105.640
  -4466041.83148  -3480029.34445  22916178.253    22916179.649
   -561884.04548                  25220242.513
 -17994456.05649 -14021649.55646  21446788.234    21446789.107
 -24153017.96849 -18820528.93447  20746928.340    20746928.104
  -5053548.05148                  24399545.524
 -20486654.25649 -15963617.87847  21177236.301    21177235.981
 02  1 11  0 27  0.0000000  0  8G14G 1G29G 4G22G20G11G25
   6138607.51248   4783331.54344  24342411.690    24342411.373
 -13781293.65049 -10738665.87746  22482310.132    22482311.663
  -4392262.34348  -3422538.86945  22930219.042    22930217.611
   -610178.59848                  25211051.411
 -18080094.97649 -14088381.15746  21430491.024    21430492.404
 -24181730.76949 -18842902.54847  20741464.857    20741464.541
  -4968449.66848                  24415739.008
 -20434782.48949 -15923198.31847  21187107.026    21187107.034
 02  1 11  0 27 30.0000000  0  8G14G 1G29G 4G22G20G11G25
   6224270.12048   4850081.58044  24358714.302    24358713.772
 -13853656.01549 -10795052.10446  22468540.808    22468542.128
  -4318304.12848  -3364909.13445  22944292.434    22944293.445
   -657990.73348                  25201954.724
 -18165295.27649 -14154770.97846  21414278.087    21414278.911
 -24209875.59149 -18864833.58247  20736108.911    20736108.750
  -4883268.18548                  24431949.109
 -20382619.83449 -15882552.09047  21197033.168    21197033.335
 02  1 11  0 28  0.0000000  0  8G14G 1G29G 4G22G20G11G25
   6310030.06848   4916907.47444  24375032.368    24375031.991
 -13925901.57249 -10851347.32146  22454792.632    22454793.270
  -4244176.32048  -3307147.23345  22958398.030    22958398.498
   -705327.71648                  25192946.667
 -18250062.79949 -14220823.57846  21398147.499    21398148.100
 -24237459.81249 -18886327.78347  20730859.738    20730859.493
  -4798015.34548                  24448171.556
 -20330176.96649 -15841687.51947  21207012.925    21207012.982
 02  1 11  0 28 30.0000000  0  8G14G 1G29G 4G22G20G11G25
   6395886.40448   4983808.41044  24391370.306    24391367.977
 -13998030.35249 -10907551.54546  22441066.760    22441067.855
  -4169880.00548  -3249254.03145  22972536.508    22972536.284
   -752188.94448                  25184028.577
 -18334395.28449 -14286537.17746  21382099.630    21382100.881
 -24264482.68249 -18907384.56547  20725717.489    20725717.376
  -4712695.06648                  24464408.839
 -20277456.17549 -15800606.37447  21217045.194    21217045.103
 02  1 11  0 29  0.0000000  0  8G14G 1G29G 4G22G20G11G25
   6481836.96248   5050782.85044  24407727.459    24407728.941
 -14070043.23549 -10963665.45546  22427363.226    22427365.348
  -4095417.05648  -3191230.99445  22986706.458    22986706.873
   -798574.67948                  25175201.664
 -18418291.40149 -14351910.75446  21366134.782    21366135.520
 -24290944.42749 -18928004.11047  20720681.834    20720681.776
  -4627311.58948                  24480655.314
 -20224460.65849 -15759311.16647  21227130.105    21227129.926
 02  1 11  0 29 30.0000000  0  8G14G 1G29G 4G22G20G11G25
   6567887.87348   5117835.43244  24424101.574    24424102.109
 -14141933.06149 -11019683.47246  22413683.548    22413684.165
  -4020781.08848  -3133073.13545  23000909.000    23000909.216
   -844477.00948                  25166467.176
 -18501741.54149 -14416936.81346  21350254.266    21350255.554
 -24316837.26749 -18948180.35347  20715754.484    20715754.536
  -4541861.32848                  24496916.730
 -20171185.68349 -15717798.19347  21237268.030    21237267.873
 02  1 11  0 30  0.0000000  0  8G14G 1G29G 4G22G20G11G25
   6654027.29348   5184956.97344  24440493.215    24440494.925
 -14213710.48549 -11075613.90246  22400023.719    22400024.055
  -3945983.97548  -3074789.71545  23015142.260    23015144.471
   -889905.72048                  25157821.964
 -18584754.30649 -14481622.06346  21334457.735    21334458.814
 -24342170.92549 -18967920.86847  20710933.456    20710933.561
  -4456358.58548                  24513186.862
 -20117644.27049 -15676077.60747  21247456.484    21247456.582
 02  1 11  0 30 30.0000000  0  7G14G 1G29G22G20G11G25
   6740245.34948   5252139.83044  24456900.611    24456899.411
 -14285384.24949 -11131463.57846  22386385.391    22386385.823
  -3871035.62348  -3016388.43545  23029404.738    23029404.564
 -18667336.29449 -14545971.63446  21318742.831    21318744.040
 -24366954.04449 -18987232.39147  20706217.532    20706217.629
  -4370815.96548                  24529465.033
 -20063847.57149 -15634158.09647  21257693.915    21257693.589
 02  1 11  0 31  0.0000000  0  7G14G 1G29G22G20G11G25
   6826588.05848   5319419.76944  24473330.834    24473331.193
 -14356907.12249 -11187195.66446  22372774.634    22372775.936
  -3795889.49348  -2957833.07145  23043704.403    23043704.665
 -18749438.12249 -14609947.06346  21303119.369    21303120.940
 -24391138.73949 -19006077.61247  20701615.355    20701615.597
  -4285190.16348                  24545760.511
 -20009750.64049 -15592004.64047  21267988.008    21267987.694
 02  1 11  0 31 30.0000000  0  7G14G 1G29G22G20G11G25
   6913029.76148   5386776.86144  24489779.470    24489779.157
 -14428303.90749 -11242829.49146  22359187.960    22359189.356
  -3720571.44648  -2899143.70845  23058037.409    23058038.479
 -18831082.20149 -14673565.79646  21287582.985    21287584.724
 -24414749.06249 -19024475.27147  20697122.752    20697122.847
  -4199508.95348                  24562063.536
 -19955380.18349 -15549638.04847  21278334.425    21278334.114
 02  1 11  0 32  0.0000000  0  7G14G 1G29G22G20G11G25
   6999549.22748   5454194.55944  24506245.374    24506242.170
 -14499594.71149 -11298380.73546  22345622.025    22345622.594
  -3645102.89148  -2840337.08145  23072398.271    23072398.781
 -18912286.60449 -14736841.92646  21272130.639    21272131.269
 -24437804.64749 -19042440.66647  20692735.551    20692735.511
  -4113795.88548                  24578375.913
 -19900759.24949 -15507076.27847  21288728.460    21288728.048
 02  1 11  0 32 30.0000000  0  7G14G 1G29G22G20G11G25
   7086144.21448   5521671.10344  24522722.698    24522722.584
 -14570780.47549 -11353850.14246  22332075.766    22332076.801
  -3569485.73748  -2781414.67145  23086787.680    23086787.766
 -18993050.20449 -14799774.58846  21256761.416    21256762.473
 -24460306.07249 -19059974.24747  20688453.486    20688453.385
  -4028056.06548                  24594689.455
 -19845890.93849 -15464321.74747  21299169.638    21299169.306
 02  1 11  0 33  0.0000000  0  7G14G 1G29G22G20G11G25
   7172831.04448   5589219.21044  24539218.491    24539219.427
 -14641843.51849 -11409223.91446  22318553.081    22318554.298
  -3493703.41048  -2722363.54645  23101208.996    23101209.297
 -19073353.25149 -14862348.36646  21241480.640    21241481.305
 -24482235.16949 -19077061.85747  20684280.299    20684280.403
  -3942275.40348                  24611014.469
 -19790759.81749 -15421362.42947  21309660.530    21309660.157
 02  1 11  0 33 30.0000000  0  7G14G 1G29G22G20G11G25
   7259614.78848   5656842.80744  24555733.690    24555733.050
 -14712777.74649 -11464497.31146  22305055.390    22305056.038
  -3417750.61348  -2663179.59045  23115662.052    23115662.646
 -19153187.22849 -14924556.63546  21226288.161    21226289.555
 -24503585.42249 -19093698.42147  20680217.611    20680217.652
  -3856451.24748                  24627344.688
 -19735361.85149 -15378195.17947  21320202.628    21320202.215
 02  1 11  0 34  0.0000000  0  7G14G 1G29G22G20G11G25
   7346500.41748   5724545.83344  24572266.707    24572269.090
 -14783577.04149 -11519665.57246  22291581.990    22291582.692
  -3341622.42648  -2603858.98345  23130149.585    23130149.153
 -19232544.23249 -14986393.24146  21211187.130    21211188.443
 -24524350.22249 -19109878.79047  20676266.481    20676266.487
  -3770581.43648                  24643685.547
 -19679693.64049 -15334817.35047  21330796.050    21330795.733
 02  1 11  0 34 30.0000000  0  7G14G 1G29G22G20G11G25
   7433452.95448   5792300.95644  24588813.320    24588817.180
 -14854274.99849 -11574754.86246  22278128.389    22278129.086
  -3265353.68048  -2544428.82845  23144661.578    23144662.868
 -19311455.75149 -15047882.71546  21196170.802    21196171.763
 -24544562.93249 -19125628.95547  20672420.292    20672420.223
  -3684703.32448                  24660027.099
 -19623791.37349 -15291257.14047  21341433.710    21341433.596
 02  1 11  0 35  0.0000000  0  7G14G 1G29G22G20G11G25
   7520499.93848   5860129.67744  24605378.909    24605378.148
 -14924843.00349 -11629742.88946  22264700.889    22264701.682
  -3188916.74648  -2484867.61645  23159208.310    23159209.066
 -19389891.17649 -15109001.20946  21181245.170    21181246.315
 -24564194.69349 -19140926.43647  20668683.891    20668684.022
  -3598790.97948                  24676376.451
 -19567628.75449 -15247494.06047  21352121.359    21352120.980
 02  1 11  0 35 30.0000000  0  6G14G 1G29G22G20G25
   7607643.85948   5928033.95844  24621960.919    24621961.479
 -14995277.39749 -11684626.80246  22251296.732    22251297.652
  -3112309.07348  -2425173.38245  23173785.035    23173786.058
 -19467844.75349 -15169744.23346  21166410.759    21166412.298
 -24583241.30549 -19155767.95647  20665059.494    20665059.612
 -19511204.45549 -15203527.07347  21362858.087    21362858.090
 02  1 11  0 36  0.0000000  0  6G14G 1G29G22G25G20
   7694880.67148   5996010.59944  24638561.927    24638563.467
 -15065581.23249 -11739408.98746  22237918.292    22237918.878
  -3035534.97048  -2365349.44845  23188395.797    23188397.164
 -19545317.48849 -15230112.58146  21151668.410    21151669.619
 -19454523.90149 -15159360.40947  21373643.951    21373643.848
 -24601705.25149 -19170155.44947  20661546.156    20661546.215
 02  1 11  0 36 30.0000000  0  6G14G 1G29G22G20G25
   7782217.54348   6064065.21244  24655182.607    24655184.886
 -15135745.96149 -11794082.77546  22224567.066    22224567.674
  -2958586.91748  -2305389.97945  23203037.987    23203039.488
 -19622299.00349 -15290098.16146  21137019.048    21137020.428
 -24619578.27849 -19184082.48747  20658145.017    20658144.964
 -19397581.00549 -15114989.32047  21384480.272    21384480.039
 02  1 11  0 37  0.0000000  0  8G14G 1G29G13G22G20G 4G25
   7869637.91748   6132184.88244  24671817.279    24671817.851
 -15205786.58049 -11848659.85646  22211238.094    22211239.652
  -2881480.91648  -2245307.42845  23217711.030    23217712.266
         -.25558                  25092927.766
 -19698802.23549 -15349711.05046  21122461.172    21122462.656
 -24636874.88849 -19197560.36947  20654853.270    20654853.254
         -.43158                  25046502.786
 -19340393.16049 -15070427.36747  21395362.459    21395362.498
 02  1 11  0 37 30.0000000  0  8G14G 1G29G13G22G20G 4G25
   7957150.35148   6200376.29444  24688470.750    24688472.375
 -15275693.53949 -11903132.79546  22197935.271    22197936.161
  -2804208.69948  -2185095.37545  23232415.984    23232417.799
    -91803.27547                  25075455.974
 -19774815.66749 -15408942.27846  21107996.553    21107997.476
 -24653585.21749 -19210581.41047  20651673.319    20651673.344
    -38081.57748    -29673.15144  25039257.015    25039255.735
 -19282953.20349 -15025668.96347  21406292.905    21406292.859
 02  1 11  0 38  0.0000000  0  8G 1G14G29G13G22G20G 4G25
 -15345473.05549 -11957506.42546  22184656.653    22184657.030
   8044747.22748   6268633.49144  24705139.652    24705139.636
  -2726777.48648  -2124759.40845  23247149.750    23247151.321
   -183622.02348                  25057984.556
 -19850343.63949 -15467795.22046  21093623.490    21093624.778
 -24669715.26849 -19223150.28747  20648604.216    20648604.190
    -75667.18548    -58960.63444  25032104.710    25032109.453
 -19225269.71249 -14980720.79047  21417270.165    21417269.871
 02  1 11  0 38 30.0000000  0  8G 1G14G29G13G22G20G 4G25
 -15415125.94949 -12011781.37946  22171401.885    22171402.848
   8132426.86648   6336955.19844  24721824.992    24721826.629
  -2649189.33548  -2064301.17345  23261914.991    23261913.727
   -275457.89048                  25040509.370
 -19925385.02849 -15526269.01246  21079343.978    21079345.063
 -24685265.84749 -19235267.62847  20645645.012    20645644.905
   -112757.64548                  25025045.487
 -19167345.54949 -14935585.08147  21428292.474    21428292.400
 02  1 11  0 39  0.0000000  0  8G 1G14G29G13G22G20G 4G25
 -15484644.89949 -12065951.97146  22158173.414    22158173.806
   8220195.01448   6405345.83844  24738526.777    24738527.034
  -2571438.20348  -2003715.91245  23276710.772    23276710.545
   -367304.10548                  25023031.258
 -19999930.74649 -15584356.57346  21065158.492    21065159.392
 -24700229.52249 -19246927.64047  20642797.637    20642797.645
   -149345.62648                  25018083.577
 -19109176.18849 -14890258.30747  21439361.548    21439361.310
 02  1 11  0 39 30.0000000  0  8G 1G14G29G13G22G20G 4G25
 -15554029.45249 -12120017.83946  22144970.041    22144970.408
   8308050.82748   6473804.79044  24755244.895    24755246.714
  -2493524.78348  -1943004.21445  23291536.281    23291536.453
   -459160.11548                  25005552.188
 -20073978.41649 -15642056.03946  21051067.587    21051068.604
 -24714605.83449 -19258129.96947  20640061.976    20640061.888
   -185430.55148                  25011217.430
 -19050763.60149 -14844742.01147  21450477.393    21450477.088
 02  1 11  0 40  0.0000000  0  8G 1G14G29G13G22G20G 4G25
 -15623279.20449 -12173978.66146  22131791.264    22131791.875
   8395993.28948   6542331.28944  24771980.701    24771984.348
  -2415449.90048  -1882166.66845  23306394.638    23306394.482
   -551026.44348                  24988069.237
 -20147526.00249 -15699365.82046  21037071.414    21037072.549
 -24728394.35349 -19268874.27547  20637438.218    20637437.985
   -221011.81748   -172216.11044  25004446.715    25004448.489
 -18992109.77449 -14799037.72947  21461638.920    21461638.422
 02  1 11  0 40 30.0000000  0  8G 1G29G14G13G22G20G 4G25
 -15692377.65749 -12227821.58246  22118643.230    22118644.091
  -2337198.32348  -1821191.49145  23321285.130    23321285.961
   8484037.55348   6610937.09444  24788734.167    24788734.658
   -642886.24648                  24970590.151
 -20220555.19049 -15756271.67246  21023175.250    21023176.102
 -24741578.53049 -19279147.66647  20634929.264    20634929.136
   -256072.89148                  24997773.948
 -18933200.85549 -14753134.67947  21472848.837    21472848.519
 02  1 11  0 41  0.0000000  0  8G 1G29G14G13G22G20G 4G25
 -15761339.88849 -12281558.36346  22105520.346    22105521.484
  -2258786.08448  -1760091.07245  23336205.710    23336204.704
   8572167.67948   6679609.79144  24805505.003    24805509.854
   -734755.31548                  24953108.236
 -20293079.12249 -15812783.81946  21009373.667    21009374.864
 -24754173.11449 -19288961.63647  20632532.435    20632532.406
   -290628.44948                  24991198.096
 -18874054.12349 -14707046.31347  21484104.067    21484103.665
 02  1 11  0 41 30.0000000  0  8G 1G29G14G13G22G20G 4G25
 -15830166.12049 -12335189.16646  22092422.202    22092423.692
  -2180214.65148  -1698866.65345  23351158.697    23351159.106
   8660382.07748   6748348.14644  24822292.189    24822293.699
   -826634.03048                  24935623.137
 -20365096.10649 -15868900.93946  20995669.087    20995670.507
 -24766178.48649 -19298316.47647  20630247.696    20630247.517
   -324678.85248                  24984718.298
 -18814672.47949 -14660774.90547  21495403.905    21495403.532
 02  1 11  0 42  0.0000000  0  8G 1G29G25G14G13G22G20G 4
 -15898848.41449 -12388707.81546  22079352.543    22079353.636
  -2101477.07248  -1637512.75645  23366141.256    23366142.539
 -18755049.87949 -14614315.73647  21506749.589    21506749.218
   8748687.42048   6817157.39444  24839096.282    24839099.219
   -918514.39648                  24918139.390
 -20436596.33449 -15924615.39146  20982063.507    20982064.694
 -24777586.56249 -19307205.89547  20628076.765    20628076.677
   -358215.86048   -279128.28144  24978337.172    24978338.286
 02  1 11  0 42 30.0000000  0  8G 1G29G25G14G13G22G20G 4
 -15967389.50049 -12442116.42746  22066310.477    22066311.001
  -2022577.62948  -1576032.73344  23381155.508    23381155.323
 -18695191.62349 -14567672.94147  21518140.261    21518140.063
   8837079.50948   6886034.19544  24855916.170    24855917.930
  -1010399.61448                  24900653.841
 -20507580.89449 -15979928.01246  20968555.574    20968556.877
 -24788400.23849 -19315632.14147  20626019.258    20626019.317
   -391242.33748   -304863.18744  24972052.486    24972053.312
 02  1 11  0 43  0.0000000  0  8G 1G29G25G14G13G22G20G 4
 -16035799.60749 -12495422.97446  22053291.719    22053292.907
  -1943527.58448  -1514435.34345  23396198.420    23396197.653
 -18635110.48749 -14520856.47647  21529573.535    21529573.202
   8925546.87748   6954969.73744  24872751.440    24872751.773
  -1102300.20948                  24883166.734
 -20578058.53049 -16034845.62746  20955144.014    20955145.164
 -24798629.93749 -19323603.34147  20624072.449    20624072.318
   -423768.39248                  24965862.266
 02  1 11  0 43 30.0000000  0  8G 1G29G25G14G13G22G20G 4
 -16104077.02449 -12548626.12746  22040298.233    22040299.592
  -1864326.54948  -1452720.29945  23411269.481    23411270.256
 -18574807.03849 -14473866.78147  21541048.704    21541048.706
   9014089.94748   7023964.16144  24889601.429    24889602.611
  -1194214.99148                  24865675.772
 -20648025.71649 -16089365.49446  20941829.565    20941830.696
 -24808274.04649 -19331118.23747  20622236.936    20622236.989
   -455792.67948                  24959768.527
 02  1 11  0 44  0.0000000  0  8G 1G29G25G14G13G22G20G 4
 -16172216.98249 -12601722.17946  22027333.088    22027333.453
  -1784971.09248  -1390884.95045  23426370.282    23426369.826
 -18514279.11549 -14426702.16947  21552566.697    21552566.662
   9102712.07648   7093020.22644  24906464.963    24906464.076
  -1286139.81248                  24848181.676
 -20717475.99049 -16143482.57146  20928614.052    20928615.421
 -24817327.93149 -19338173.21847  20620514.171    20620514.219
   -487310.10648                  24953771.159
 02  1 11  0 44 30.0000000  0  8G 1G29G25G14G13G22G20G 4
 -16240220.47749 -12654711.89246  22014392.064    22014392.696
  -1705463.62148  -1328931.14345  23441500.866    23441501.093
 -18453529.97549 -14379365.17947  21564126.930    21564126.738
   9191410.85848   7162135.97944  24923344.785    24923346.565
  -1378075.73648                  24830688.306
 -20786408.79549 -16197196.42246  20915496.086    20915497.202
 -24825792.73749 -19344769.17947  20618903.730    20618903.858
   -518321.98248   -403886.23944  24947870.165    24947870.608
 02  1 11  0 45  0.0000000  0  8G 1G29G25G14G13G22G20G 4
 -16308078.18249 -12707587.99046  22001478.206    22001479.243
  -1625795.57348  -1266852.18845  23456660.849    23456662.820
 -18392552.70249 -14331850.42047  21575730.518    21575730.391
   9280194.58648   7231317.93444  24940239.461    24940241.085
  -1470013.58848                  24813190.866
 -20854813.02849 -16250498.40446  20902479.762    20902480.391
 -24833659.16449 -19350898.86947  20617406.772    20617406.785
   -548818.82748   -427649.99744  24942066.897    24942065.935
 02  1 11  0 45 30.0000000  0  8G 1G29G25G14G13G22G20G 4
 -16375786.14549 -12760347.39246  21988594.749    21988595.323
  -1545964.58348  -1204646.29645  23471851.916    23471853.494
 -18331345.99249 -14284156.88647  21587377.714    21587377.716
   9369065.50548   7300567.87344  24957150.936    24957150.832
  -1561949.34948                  24795698.149
 -20922683.29349 -16303384.31646  20889564.064    20889565.112
 -24840923.67449 -19356559.53147  20616024.624    20616024.792
   -578797.04748   -451009.68244  24936361.718    24936362.503
 02  1 11  0 46  0.0000000  0  8G 1G29G25G14G13G22G20G 4
 -16443337.94049 -12812985.16446  21975739.897    21975740.433
  -1465965.60448  -1142309.49345  23487076.428    23487076.822
 -18269905.75849 -14236281.38247  21599069.529    21599069.298
   9458028.71548   7369889.58944  24974079.870    24974084.098
  -1653877.00548                  24778203.068
 -20990011.63449 -16355847.93346  20876751.906    20876753.086
 -24847580.02849 -19361746.31147  20614757.878    20614757.807
   -608250.26248   -473960.23644  24930756.376    24930758.894
 02  1 11  0 46 30.0000000  0  8G 1G29G25G14G13G22G20G 4
 -16510746.36849 -12865511.18646  21962911.998    21962913.050
  -1385812.62348  -1079852.66744  23502327.456    23502329.270
 -18208247.44449 -14188235.94947  21610802.778    21610802.458
   9547069.92448   7439272.20044  24991024.843    24991022.029
  -1745810.34348                  24760708.879
 -21056809.26049 -16407898.02146  20864041.002    20864041.826
 -24853641.43849 -19366469.49347  20613604.366    20613604.494
   -637191.69348   -496511.98144  24925249.715    24925252.435
 02  1 11  0 47  0.0000000  0  8G 1G29G25G14G13G22G20G 4
 -16578004.55449 -12917920.13846  21950113.119    21950114.384
  -1305500.07048  -1017271.53745  23517610.970    23517611.387
 -18146366.70649 -14140017.19547  21622578.534    21622577.994
   9636194.77048                  25007984.393
  -1837742.58348                  24743215.439
 -21123067.73049 -16459527.98346  20851431.786    20851432.937
 -24859101.50049 -19370724.09347  20612565.099    20612565.104
   -665614.36948   -518659.48644  24919841.246    24919842.770
 02  1 11  0 47 30.0000000  0  8G 1G29G25G14G13G22G20G 4
 -16645115.61949 -12970214.45046  21937342.720    21937343.229
  -1225032.38048   -954569.49445  23532923.608    23532925.101
 -18084268.61449 -14091629.07347  21634395.180    21634395.146
   9725398.71548   7578229.33144  25024958.707    25024960.355
  -1929677.09848                  24725719.114
 -21188788.75849 -16510739.15346  20838925.984    20838927.101
 -24863963.53149 -19374512.69547  20611639.792    20611639.720
   -693521.96248   -540405.62144  24914531.051    24914532.869
 02  1 11  0 48  0.0000000  0  8G 1G29G14G13G22G20G 4G25
 -16712065.70749 -13022383.33446  21924602.648    21924603.173
  -1144396.93348   -891736.75944  23548268.061    23548270.577
   9814694.32748   7647810.13344  25041952.044    25041956.525
  -2021600.12848                  24708229.231
 -21253956.87349 -16561519.48946  20826524.797    20826525.637
 -24868214.02049 -19377824.77247  20610831.178    20610831.382
   -720900.57648   -561739.67044  24909320.580    24909321.063
 -18021941.82349 -14043062.75147  21646255.512    21646255.239
 02  1 11  0 48 30.0000000  0  8G 1G29G14G13G22G20G 4G25
 -16778872.95249 -13074440.90946  21911889.012    21911889.844
  -1063613.32448   -828788.56944  23563640.663    23563643.263
   9904061.99148                  25058958.353
  -2113530.04848                  24690733.900
 -21318588.89749 -16611882.09147  20814225.335    20814226.632
 -24871871.30949 -19380674.61447  20610135.228    20610135.466
   -747768.66248                  24904206.842
 -17959407.17249 -13994334.45146  21658155.721    21658155.600
 02  1 11  0 49  0.0000000  0  8G 1G29G14G13G22G20G 4G25
 -16845535.85649 -13126386.01046  21899203.444    21899204.640
   -982681.28048   -765724.68345  23579041.484    23579041.912
   9993501.73848                  25075978.253
  -2205465.75848                  24673240.285
 -21382681.89649 -16661824.66847  20802029.281    20802030.484
 -24874934.59249 -19383061.59747  20609552.064    20609552.225
   -774125.29048                  24899191.659
 -17896665.56149 -13945444.89246  21670094.888    21670094.622
 02  1 11  0 49 30.0000000  0  8G 1G29G14G13G22G20G 4G25
 -16912052.90849 -13178217.46446  21886546.182    21886546.974
   -901600.81848   -702545.19444  23594471.167    23594471.733
  10083013.82148                  25093011.232
  -2297406.10448                  24655744.534
 -21446232.79749 -16711344.82947  20789936.073    20789936.741
 -24877402.66149 -19384984.77447  20609082.445    20609082.551
   -799969.06948   -623351.45244  24894274.798    24894274.640
 -17833718.04449 -13896394.88746  21682073.301    21682073.329
 02  1 11  0 50  0.0000000  0  8G 1G29G14G13G22G20G 4G25
 -16978416.00049 -13229928.94546  21873917.328    21873917.970
   -820365.14948   -639244.71744  23609929.305    23609930.324
  10172604.63048   7926700.33244  25110061.186    25110061.001
  -2389343.50948                  24638249.125
 -21509232.35949 -16760435.37947  20777947.169    20777948.097
 -24879268.26849 -19386438.50047  20608727.633    20608727.679
   -825292.40848   -643083.90244  24889456.980    24889457.601
 -17770559.04949 -13847180.09446  21694092.124    21694091.805
 02  1 11  0 50 30.0000000  0  8G 1G14G29G13G22G20G 4G25
 -17044623.35649 -13281519.07946  21861318.461    21861319.311
  10262274.27048   7996572.59944  25127124.271    25127129.621
   -738974.13748   -575823.25044  23625417.884    23625417.482
  -2481276.56548  -1933461.22644  24620754.868    24620754.198
 -21571677.55349 -16809093.95847  20766064.725    20766065.511
 -24880530.28749 -19387421.89947  20608487.297    20608487.524
   -850094.29048                  24884736.690
 -17707189.32249 -13797801.09746  21706150.882    21706150.885
 02  1 11  0 51  0.0000000  0  8G 1G14G29G13G22G20G 4G25
 -17110677.68149 -13332989.96246  21848749.084    21848750.111
  10352019.10348                  25144202.137
   -657431.38748   -512283.49844  23640935.111    23640936.176
  -2573207.94448                  24603260.051
 -21633569.55949 -16857321.47747  20754287.064    20754287.653
 -24881191.52849 -19387937.15847  20608361.186    20608361.291
   -874377.35848                  24880114.411
 -17643613.85649 -13748261.77146  21718249.084    21718248.897
 02  1 11  0 51 30.0000000  0  8G 1G14G29G13G22G20G 4G25
 -17176570.90849 -13384335.31546  21836209.801    21836210.829
  10441845.70448                  25161296.941
   -575730.32548   -448620.38444  23656481.861    23656482.278
  -2665130.09348  -2076723.58944  24585769.379    24585770.574
 -21694899.09949 -16905110.71447  20742615.730    20742617.177
 -24881244.60349 -19387978.52147  20608351.259    20608351.590
   -898134.16548                  24875592.121
 -17579826.82549 -13698557.59846  21730386.919    21730386.805
 02  1 11  0 52  0.0000000  0  8G 1G14G29G13G22G20G 4G25
 -17242297.22949 -13435550.61046  21823702.264    21823703.190
  10531758.41048                  25178406.057
   -493866.71448   -384830.65344  23672060.689    23672061.685
  -2757036.97348                  24568278.522
 -21755658.98349 -16952456.06347  20731054.273    20731054.960
 -24880684.36549 -19387541.98347  20608458.072    20608458.226
   -921359.25148                  24871173.834
 -17515825.02749 -13648686.07746  21742566.114    21742565.986
 02  1 11  0 52 30.0000000  0  8G 1G14G29G13G22G20G 4G25
 -17307861.75049 -13486639.82846  21811226.311    21811226.896
  10621750.34248                  25195530.614
   -411847.09148   -320919.34044  23687668.504    23687667.897
  -2848934.74148  -2219947.84244  24550792.144    24550793.496
 -21815853.19549 -16999360.63247  20719599.418    20719600.270
 -24879516.62049 -19386632.05947  20608680.471    20608680.604
   -944058.16548                  24866855.164
 -17451616.03549 -13598653.10346  21754784.951    21754784.515
 02  1 11  0 53  0.0000000  0  8G 1G14G29G13G22G20G 4G25
 -17373267.18449 -13537605.08746  21798780.088    21798780.693
  10711817.27448                  25212669.980
   -329675.56648   -256889.66144  23703304.973    23703306.983
  -2940826.35848                  24533305.047
 -21875483.31249 -17045825.64047  20708251.914    20708252.731
 -24877745.00849 -19385251.58947  20609017.473    20609017.574
   -966234.79148   -752909.09044  24862636.620    24862635.873
 -17387205.27449 -13548462.90446  21767041.804    21767041.602
 02  1 11  0 53 30.0000000  0  8G 1G14G29G13G22G20G 4G25
 -17438516.51549 -13588448.70946  21786362.980    21786363.913
  10801954.90548   8417101.32544  25229823.173    25229823.982
   -247356.47848   -192744.98344  23718969.605    23718970.534
  -3032714.67248  -2363152.91744  24515819.404    24515819.357
 -21934551.03849 -17091852.42347  20697011.992    20697012.771
 -24875372.77849 -19383403.10647  20609468.869    20609468.811
