     2.11           OBSERVATION DATA    G (GPS)             RINEX VERSION / TYPE
teqc  2019Feb25     Salamtina Y.M.      20230920 03:20:34UTCPGM / RUN BY / DATE
OBSERVATION MODE: Permanent                                 COMMENT
CHUM Chumysh (CHUM)                                         MARKER NAME
25601M001                                                   MARKER NUMBER
4549261325          TRIMBLE NETRS        1.3-2              REC # / TYPE / VERS
237                 AOAD/M_T        NONE                    ANT # / TYPE
        0.0900        0.0000        0.0000                  ANTENNA: DELTA H/E/N
  1228950.3076  4508080.0132  4327868.5436                  APPROX POSITION XYZ
  74.75110460  42.99850160  716.3386  LonLatAlt  S/W        COMMENT
ANT ADDED FROM RCV_ANT.txt                                  COMMENT
Linux 2.6.32-573.12.1.x86_64|x86_64|gcc|Linux 64|=+         COMMENT
BIT 2 OF LLI FLAGS DATA COLLECTED UNDER A/S CONDITION       COMMENT
Konovalov S.M.      RS_RAS                                  OBSERVER / AGENCY
     1     1                                                WAVELENGTH FACT L1/2
     7    L1    L2    C1    P1    P2    S1    S2            # / TYPES OF OBSERV
    30.0000                                                 INTERVAL
    18                                                      LEAP SECONDS
TIME: 2023.01.09                                            COMMENT
TOUR: cont                                                  COMMENT
RSET: RAS02                                                 COMMENT
ASET: DS24                                                  COMMENT
OPER: skon (Konovalov S.M.)                                 COMMENT
SOUR: chum202301090000d.dat                                 COMMENT
SUPP: chum202301090000d.eph                                 COMMENT
SUPP: chum202301090000d.ion                                 COMMENT
SUPP: chum202301090000d.mes                                 COMMENT
Forced Modulo Decimation to 30 seconds                      COMMENT
 SNR is mapped to RINEX snr flag value [0-9]                COMMENT
  L1 & L2: min(max(int(snr_dBHz/6), 0), 9)                  COMMENT
  2023     1     9     0     0    0.0000000     GPS         TIME OF FIRST OBS
  2023     1     9    23    59   30.0000000     GPS         TIME OF LAST OBS
                                                            END OF HEADER
 23  1  9  0  0  0.0000000  0 11G27G23G08G22G24G21G10G18G31G01G32
  -9519450.63046  -7122122.14345  23807070.8364                   23807063.4064
        36.2504         34.0004
 -11956988.80547 -11712906.11046  21768427.4304                   21768416.4264
        45.5004         37.7504
  -9809247.52447  -7598973.17446  23621572.9614                   23621564.7704
        43.5004         38.5004
 -16263257.28747  -8407372.89545  22105155.8914                   22105144.6524
        44.7504         31.2504
 -12734325.27846 -10525438.28846  22696770.8134                   22696761.2154
        40.0004         41.0004
 -10042293.50646  -7307903.57044  23734338.0864                   23734326.1454
        41.0004         26.0004
 -27650830.34549 -21435072.32849  20520383.0784                   20520373.5984
        54.0004         55.0004
 -11542395.51246  -8531118.74344  24092388.8674                   24092377.9224
        38.5004         24.0004
  -2178932.34645  -1638871.28445  25061847.3204                   25061836.9024
        34.0004         31.5004
   -908708.95255   -565733.79353  25304619.8914                   25304609.8834
        32.2504         18.2504
 -24433187.27148 -20383244.17349  20690651.7274                   20690642.5984
        51.7504         54.7504
 23  1  9  0  0 30.0000000  0 11G27G23G08G22G24G21G10G18G31G01G32
  -9433665.56546  -7055276.68545  23823396.4614                   23823388.8554
        37.5004         34.0004
 -11895676.90647 -11665130.60246  21780094.8914                   21780084.0044
        45.2504         38.2504
  -9766730.11547  -7565842.74146  23629663.8594                   23629655.0234
        43.2504         38.0004
 -16336007.50147  -8464061.35645  22091311.1484                   22091300.0274
        44.5004         31.2504
 -12671879.40746 -10476779.16945  22708653.2424                   22708644.8164
        38.5004         34.0004
 -10118746.85346  -7367477.56944  23719789.4694                   23719777.6454
        41.5004         26.0004
 -27645233.03848 -21430710.79649  20521448.3284                   20521438.7304
        52.7504         54.7504
 -11429729.62646  -8443327.17344  24113828.1094                   24113817.3984
        39.0004         25.0004
  -2297617.22346  -1731352.98445  25039264.3284                   25039251.9184
        37.2504         30.5004
  -1021440.90815                  25283166.875
        30.000
 -24461697.49248 -20405459.91949  20685226.4694                   20685217.0474
        51.5004         54.7504
 23  1  9  0  1  0.0000000  0 11G27G23G08G22G24G21G10G18G31G01G32
  -9347669.34546  -6988266.66645  23839760.5864                   23839752.9224
        37.7504         34.0004
 -11834127.32947 -11617169.89546  21791807.2504                   21791796.5984
        45.0004         37.5004
  -9723759.40847  -7532359.09746  23637840.4454                   23637832.3714
        42.7504         37.7504
 -16408452.66247  -8520512.10545  22077525.5634                   22077515.0274
        44.5004         30.0004
 -12608897.98346 -10427702.74544  22720639.0234                   22720629.8364
        40.0004         29.7504
 -10194959.31747  -7426863.91144  23705287.1884                   23705274.6024
        42.0004         27.0004
 -27639344.62248 -21426122.42049  20522568.6484                   20522559.5204
        53.0004         54.7504
 -11316927.15146  -8355429.10744  24135292.9534                   24135283.0044
        39.2504         24.5004
  -2416366.17545  -1823884.70445  25016664.9774                   25016654.5594
        33.7504         30.2504
  -1134097.36545   -647171.17852  25261729.2734                   25261720.4384
        32.7504         17.2504
 -24489793.00048 -20427352.50549  20679880.2114                   20679870.9064
        51.2504         54.7504
 23  1  9  0  1 30.0000000  0 11G27G23G08G22G24G21G10G18G31G01G32
  -9261462.70546  -6921092.68445  23856166.1334                   23856157.3554
        37.7504         34.5004
 -11772338.12947 -11569022.47746  21803564.9534                   21803554.4184
        45.2504         37.7504
  -9680335.90947  -7498522.64046  23646104.1484                   23646095.8404
        43.7504         38.2504
 -16480589.79447  -8576722.84245  22063797.1484                   22063786.9064
        44.2504         30.7504
 -12545381.01546 -10378208.99245  22732724.8754                   22732716.3914
        39.2504         30.0004
 -10270927.01847  -7486059.50344  23690830.9304                   23690818.2854
        42.5004         26.0004
 -27633162.09248 -21421304.86449  20523745.1024                   20523736.0904
        52.2504         54.7504
 -11203987.85046  -8267424.47044  24156785.3594                   24156774.2974
        39.5004         24.0004
  -2535174.37946  -1916462.52445  24994058.3284                   24994046.2114
        36.7504         31.5004
                                  25240306.3054                   25240299.6954
        28.0004         15.5004
 -24517471.71848 -20448920.32449  20674612.6804                   20674603.4924
        51.2504         55.0004
 23  1  9  0  2  0.0000000  0 11G27G23G08G22G24G21G10G18G31G01G32
  -9175052.54046  -6853760.10445  23872608.7814                   23872600.5904
        37.5004         34.5004
 -11710313.15847 -11520691.33446  21815368.9534                   21815358.0084
        46.0004         37.0004
  -9636465.47347  -7464337.89346  23654452.6334                   23654444.1484
        43.2504         38.2504
 -16552421.51847  -8632695.58645  22050129.2344                   22050118.3484
        44.5004         31.2504
 -12481334.31946 -10328302.46944  22744912.0784                   22744904.2974
        38.0004         29.7504
 -10346651.17647  -7545065.30944  23676422.5704                   23676409.5744
        43.0004         27.0004
 -27626688.83048 -21416260.75949  20524976.9064                   20524968.0704
        52.5004         54.7504
 -11090917.54846  -8179317.73044  24178301.5234                   24178291.1644
        39.2504         24.5004
  -2654042.62846  -2009087.17545  24971438.9694                   24971426.7344
        36.2504         32.5004
  -1359180.11755   -794142.19853  25218899.2974                   25218890.0514
        32.5004         19.2504
 -24544737.50148 -20470166.37749  20669424.7034                   20669415.3404
        51.5004         54.7504
 23  1  9  0  2 30.0000000  0 10G27G23G08G22G24G21G10G18G31G32
  -9088437.89946  -6786268.20845  23889090.3754                   23889082.8874
        37.5004         34.0004
 -11648048.71447 -11472173.58846  21827217.0004                   21827206.2894
        45.0004         37.2504
  -9592145.70847  -7429803.04246  23662886.5704                   23662878.8484
        43.0004         38.2504
 -16623943.29747  -8688426.81945  22036518.9694                   22036508.3754
        44.0004         31.5004
 -12416756.08146 -10277981.76844  22757201.1094                   22757193.0354
        38.2504         29.5004
 -10422126.14546  -7603876.97144  23662057.6414                   23662045.4654
        40.7504         26.2504
 -27619920.31848 -21410986.60249  20526265.0784                   20526255.8324
        52.2504         54.7504
 -10977714.55046  -8091107.58943  24199842.8284                   24199833.0554
        38.5004         22.7504
  -2772964.76046  -2101753.79645  24948810.2894                   24948796.5314
        37.5004         32.0004
 -24571586.60448 -20491087.73949  20664315.3524                   20664305.8134
        51.7504         55.0004
 23  1  9  0  3  0.0000000  0 11G27G23G08G22G24G21G10G18G31G01G32
  -9001625.58946  -6718622.27445  23905612.8444                   23905603.0704
        39.0004         34.7504
 -11585548.64847 -11423472.24746  21839110.0704                   21839099.4184
        44.7504         37.2504
  -9547382.82447  -7394922.90946  23671403.8054                   23671395.8484
        42.0004         37.2504
 -16695157.85547  -8743918.66545  22022967.9384                   22022956.7584
        44.5004         30.7504
 -12351652.26646 -10227251.51244  22769591.4304                   22769581.8324
        39.7504         28.5004
 -10497353.77347  -7662495.89444  23647743.6954                   23647730.5824
        42.5004         28.0004
 -27612859.33248 -21405484.53749  20527608.4694                   20527599.0474
        51.5004         55.0004
 -10864384.41046  -8002798.38243  24221408.2814                   24221398.8014
        38.0004         22.5004
  -2891941.16845  -2194462.76345  24926165.1094                   24926156.4494
        33.0004         31.5004
  -1583926.27655   -867869.84252  25176132.3284                   25176124.4884
        31.7504         17.2504
 -24598022.78848 -20511687.35249  20659284.5864                   20659275.1644
        51.5004         54.7504
 23  1  9  0  3 30.0000000  0 11G27G23G08G22G24G21G10G18G31G01G32
  -8914616.11146  -6650822.71445  23922168.6094                   23922160.2424
        37.0004         33.7504
 -11522810.61847 -11374585.50046  21851048.4924                   21851038.0164
        44.5004         36.7504
  -9502176.52047  -7359697.23746  23680006.4304                   23679997.8284
        42.0004         37.0004
 -16766061.93847  -8799168.58145  22009474.6884                   22009463.9184
        44.5004         31.2504
 -12286022.53546 -10176111.46244  22782078.0164                   22782070.7034
        37.5004         29.5004
 -10572328.83546  -7720918.02144  23633475.4064                   23633464.1684
        41.5004         26.5004
 -27605503.25748 -21399752.52749  20529008.1954                   20528999.1844
        52.0004         54.7504
 -10750926.80346  -7914389.88143  24242999.3674                   24242989.7114
        39.5004         22.7504
  -3010966.69745  -2287209.98445  24903518.1954                   24903506.6644
        35.5004         31.7504
  -1696167.60355   -955330.62352  25154773.0864                   25154766.1254
        32.0004         16.7504
 -24624043.73848 -20531963.40649  20654333.0784                   20654323.2464
        51.5004         54.7504
 23  1  9  0  4  0.0000000  0 10G27G23G08G22G24G21G10G18G31G32
  -8827412.45546  -6582871.81645  23938764.6724                   23938754.8404
        38.5004         34.2504
 -11459834.66047 -11325513.32946  21863033.1094                   21863022.5744
        45.2504         36.7504
  -9456528.77247  -7324127.58446  23688693.0784                   23688684.4774
        42.2504         37.5004
 -16836654.68747  -8854175.89945  21996041.2274                   21996030.8094
        44.2504         31.2504
 -12219868.98246 -10124563.24044  22794669.3284                   22794659.3794
        39.7504         29.2504
 -10647049.58346  -7779141.93144  23619256.5234                   23619243.8794
        41.5004         26.2504
 -27597850.87248 -21393789.63349  20530464.5704                   20530455.5594
        51.5004         55.0004
 -10637343.66946  -7825883.52744  24264614.4144                   24264603.6454
        39.5004         24.7504
  -3130038.65346  -2379993.32545  24880859.7894                   24880847.4964
        37.2504         32.5004
 -24649649.45648 -20551915.88849  20649460.3674                   20649451.1214
        51.5004         55.0004
 23  1  9  0  4 30.0000000  0 11G27G23G08G22G24G21G10G18G31G01G32
  -8740020.64746  -6514774.31345  23955394.3364                   23955385.3244
        38.0004         34.0004
 -11396624.06147 -11276258.31946  21875061.4454                   21875050.7934
        44.7504         37.0004
  -9410444.79447  -7288218.00546  23697462.9454                   23697454.6374
        42.0004         36.5004
 -16906938.08447  -8908942.15445  21982666.7344                   21982656.1994
        43.5004         31.0004
 -12153196.82746 -10072610.88944  22807354.5234                   22807346.5664
        38.0004         28.5004
 -10721516.67447  -7837168.26344  23605087.3054                   23605074.6604
        42.5004         27.0004
 -27589904.96648 -21387598.02449  20531976.8444                   20531967.5984
        53.7504         54.7504
 -10523639.98146  -7737283.25544  24286250.1564                   24286240.4414
        38.5004         24.2504
  -3249157.16045  -2472812.98245  24858190.3204                   24858179.9614
        35.2504         32.5004
                                  25112108.1484                   25112099.6644
        31.2504         16.2504
 -24674843.11148 -20571547.28849  20644666.2734                   20644656.7934
        52.0004         54.7504
 23  1  9  0  5  0.0000000  0 11G27G23G08G22G24G21G10G18G31G01G32
  -8652441.18046  -6446530.60445  23972058.0164                   23972050.6454
        36.2504         34.0004
 -11333176.32747 -11226818.54346  21887134.6954                   21887124.2774
        44.5004         36.7504
  -9363923.71646  -7251967.82846  23706315.0554                   23706308.1524
        41.5004         36.5004
 -16976908.87047  -8963464.80745  21969352.0394                   21969341.0354
        44.2504         32.2504
 -12086005.67146 -10020254.16444  22820141.7274                   22820132.4224
        38.7504         28.0004
 -10795725.87346  -7894993.57644  23590963.6804                   23590953.2624
        40.7504         26.5004
 -27581662.33648 -21381175.18949  20533545.6094                   20533536.0124
        52.5004         54.7504
 -10409815.40046  -7648588.76043  24307910.7114                   24307900.8204
        39.0004         23.0004
  -3368316.58645  -2565664.57745  24835516.9454                   24835505.2384
        35.7504         32.7504
                                  25090800.3054                   25090794.5164
        32.5004         17.2504
 -24699622.37848 -20590855.79049  20639950.9454                   20639941.5824
        51.5004         54.7504
 23  1  9  0  5 30.0000000  0 11G27G23G08G22G24G21G10G18G31G01G32
  -8564678.48246  -6378144.10545  23988759.6094                   23988751.1844
        37.0004         34.2504
 -11269493.10347 -11177195.27246  21899254.1094                   21899243.2234
        44.7504         36.5004
  -9316969.45346  -7215380.14546  23715250.0084                   23715243.5164
        41.0004         36.7504
 -17046567.63847  -9017744.35545  21956095.9924                   21956085.5164
        44.0004         30.7504
 -12018299.25846  -9967495.91044  22833025.2424                   22833016.5234
        38.0004         28.0004
 -10869676.37846  -7952617.33844  23576893.0234                   23576879.6764
        41.7504         27.2504
 -27573123.68548 -21374521.69849  20535170.2114                   20535160.7894
        51.5004         54.7504
 -10295873.28646  -7559802.69943  24329594.4064                   24329583.9304
        39.2504         23.0004
  -3487515.99946  -2658547.27745  24812833.6024                   24812822.4804
        36.2504         32.2504
                                  25069514.1564                   25069506.7854
        30.2504         14.7504
 -24723988.78448 -20609842.59349  20635314.1884                   20635304.6484
        51.5004         55.0004
 23  1  9  0  6  0.0000000  0 11G27G23G08G22G24G21G10G18G31G01G32
  -8476735.31246  -6309616.97145  24005494.7734                   24005486.6414
        36.2504         33.5004
 -11205574.14747 -11127388.29846  21911418.1414                   21911406.4924
        45.2504         36.5004
  -9269583.70046  -7178456.20046  23724267.0474                   23724259.5004
        41.7504         36.5004
 -17115913.08847  -9071779.73745  21942900.7584                   21942889.3444
        44.7504         31.5004
 -11950079.47846  -9914337.62544  22846007.8444                   22845998.7734
        38.5004         27.0004
 -10943365.39346  -8010037.35144  23562869.8054                   23562858.2154
        41.0004         27.5004
 -27564287.86748 -21367636.64549  20536851.5314                   20536842.4614
        52.0004         54.7504
 -10181815.34146  -7470926.37443  24351298.2034                   24351287.4924
        39.5004         23.5004
  -3606751.99945  -2751458.50945  24790143.0704                   24790132.4774
        35.5004         32.2504
                                  25048243.9304                   25048238.1994
        29.5004         15.5004
 -24747942.14448 -20628507.53449  20630755.8204                   20630746.2814
        52.0004         55.0004
 23  1  9  0  6 30.0000000  0 11G27G23G08G22G24G21G10G18G31G01G32
  -8388616.55546  -6240953.05745  24022263.9534                   24022255.2344
        37.5004         32.5004
 -11141421.64647 -11077399.34646  21923624.5784                   21923614.1604
        44.2504         36.0004
  -9221771.05147  -7141199.60545  23733365.9454                   23733356.5824
        42.0004         35.7504
 -17184946.65047  -9125572.10845  21929763.4304                   21929752.3674
        44.2504         32.0004
 -11881350.48546  -9860782.56744  22859086.3594                   22859076.7624
        39.2504         28.2504
 -11016793.03646  -8067253.66344  23548896.4224                   23548885.0084
        41.5004         27.2504
 -27555156.68548 -21360521.43849  20538589.0474                   20538579.8014
        51.0004         54.7504
 -10067645.70046  -7381963.01543  24373022.9144                   24373014.0204
        38.7504         22.5004
  -3726023.62246  -2844397.50445  24767447.8204                   24767436.0554
        37.0004         33.5004
  -2367640.75755  -1421284.90452  25026997.0554                   25026987.5744
        31.2504         16.7504
 -24771484.62148 -20646852.30149  20626276.1334                   20626266.3014
        51.5004         54.7504
 23  1  9  0  7  0.0000000  0 10G27G23G08G22G24G21G10G18G31G32
  -8300320.23646  -6172150.73245  24039066.1564                   24039056.9694
        36.7504         32.5004
 -11077030.60347 -11027224.53346  21935878.1644                   21935867.5124
        45.0004         36.0004
  -9173528.23546  -7103607.79445  23742547.1254                   23742537.5274
        41.0004         35.7504
 -17253662.38047  -9179116.80345  21916687.3134                   21916676.9534
        44.5004         32.5004
 -11812109.47346  -9806828.50844  22872262.5394                   22872253.4104
        39.5004         28.5004
 -11089952.26946  -8124260.86444  23534974.3524                   23534962.4104
        41.2504         26.5004
 -27545723.96948 -21353171.26949  20540383.9144                   20540374.6684
        51.7504         55.0004
  -9953361.14546  -7292910.09243  24394772.2504                   24394761.1294
        39.2504         23.7504
  -3845323.07546  -2937358.13845  24744745.4454                   24744733.6214
        37.5004         33.2504
 -24794611.30248 -20664873.09449  20621874.9924                   20621865.4534
        52.0004         55.0004
 23  1  9  0  7 30.0000000  0 11G27G23G08G22G24G21G10G18G31G01G32
  -8211856.21046  -6103217.74845  24055900.1334                   24055891.5904
        36.5004         33.5004
 -11012408.14947 -10976869.36646  21948176.1414                   21948164.6684
        45.5004         36.5004
  -9124864.90746  -7065688.34446  23751806.4064                   23751799.7974
        41.5004         36.5004
 -17322065.87247  -9232418.20945  21903670.1174                   21903659.8164
        44.5004         31.7504
 -11742365.59046  -9752482.63444  22885533.8134                   22885525.0354
        37.7504         27.0004
 -11162847.81847  -8181062.56744  23521104.3134                   23521091.9614
        42.5004         27.2504
 -27535996.13548 -21345591.14449  20542235.0864                   20542225.8984
        50.7504         55.0004
  -9838970.77046  -7203774.72644  24416539.5944                   24416529.5274
        38.7504         25.0004
  -3964654.37046  -3030343.59445  24722038.0554                   24722025.9384
        37.5004         33.2504
  -2590636.40755  -1495656.31053  24984557.3754                   24984546.7814
        33.0004         19.0004
 -24817329.29948 -20682575.41249  20617551.9384                   20617542.1644
        51.5004         55.0004
 23  1  9  0  8  0.0000000  0 10G27G23G08G22G24G21G10G18G31G32
  -8123220.70546  -6034151.13445  24072766.8524                   24072757.4304
        37.0004         32.2504
 -10947547.57647 -10926328.67846  21960517.5634                   21960507.0864
        44.2504         36.0004
  -9075776.00646  -7027437.30346  23761147.9454                   23761141.6884
        41.0004         36.5004
 -17390150.16647  -9285470.88145  21890714.5314                   21890703.8204
        45.0004         32.7504
 -11672114.38846  -9697741.42344  22898902.1334                   22898893.2974
        38.5004         28.0004
 -11235470.92346  -8237651.99144  23507283.9064                   23507272.1994
        41.7504         28.5004
 -27525966.05648 -21337775.50249  20544143.7034                   20544134.7504
        51.5004         54.7504
  -9724469.67746  -7114553.09643  24438327.8134                   24438317.6884
        39.0004         22.7504
  -4084007.71346  -3123346.23345  24699324.8284                   24699314.2344
        37.5004         33.5004
 -24839631.95748 -20699954.09349  20613307.6334                   20613298.2704
        52.5004         55.0004
 23  1  9  0  8 30.0000000  0 11G27G23G08G22G24G21G10G18G31G01G32
  -8034423.72446  -5964958.70545  24089664.0944                   24089655.8444
        36.2504         32.0004
 -10882456.11747 -10875608.09046  21972904.3834                   21972893.8484
        45.0004         36.0004
  -9026270.82546  -6988861.85846  23770569.2894                   23770560.8634
        40.7504         36.0004
 -17457921.38747  -9338279.60545  21877818.3524                   21877807.4654
        45.5004         33.2504
 -11601365.16046  -9642612.16744  22912365.5864                   22912356.4574
        39.0004         26.5004
 -11307826.17447  -8294032.68344  23493515.2734                   23493502.3954
        42.0004         27.0004
 -27515639.76348 -21329729.04349  20546108.9384                   20546099.6914
        51.2504         54.7504
  -9609867.06546  -7025252.33944  24460135.2814                   24460126.2704
        38.0004         25.5004
  -4203387.37446  -3216369.38545  24676607.2814                   24676597.2154
        37.2504         34.0004
  -2813217.80215                  24942202.508
        32.500
 -24861526.62848 -20717014.84949  20609141.3594                   20609132.1724
        52.2504         54.7504
 23  1  9  0  9  0.0000000  0 11G27G23G08G22G24G21G10G18G31G01G32
  -7945463.37546  -5895638.98845  24106593.4144                   24106584.2274
        37.2504         32.2504
 -10817128.93547 -10824703.80745  21985336.1954                   21985325.1914
        45.2504         35.5004
  -8976346.87546  -6949960.07445  23780069.0944                   23780059.3794
        41.0004         34.7504
 -17525373.67447  -9390839.81445  21864982.2664                   21864971.9654
        45.2504         33.5004
 -11530115.25246  -9587092.74044  22925923.2504                   22925914.5904
        37.7504         26.2504
 -11379906.84647  -8350199.46144  23479799.5864                   23479786.6484
        42.7504         28.2504
 -27505011.93548 -21321447.62649  20548131.3054                   20548122.4104
        51.5004         54.7504
  -9495159.94146  -6935870.15743  24481964.5474                   24481954.1294
        38.5004         22.7504
  -4322785.45146  -3309406.86545  24653887.7664                   24653876.2344
        37.7504         34.5004
  -2924335.80455  -1589431.84452  24921055.5634                   24921048.9534
        30.0004         17.2504
 -24883008.43648 -20733753.91549  20605053.7584                   20605044.1024
        52.5004         54.7504
 23  1  9  0  9 30.0000000  0 11G27G23G08G22G24G21G10G18G31G01G32
  -7856343.51945  -5826194.95445  24123550.6804                   24123542.9574
        35.5004         31.2504
 -10751567.10147 -10773616.68046  21997811.5704                   21997800.9774
        45.5004         36.0004
  -8926006.80446  -6910734.05145  23789647.9924                   23789639.0394
        39.2504         34.5004
 -17592507.04847  -9443151.50745  21852207.4144                   21852196.5864
        46.0004         33.5004
 -11458367.84146  -9531185.68044  22939576.2974                   22939567.6954
        37.5004         26.0004
 -11451711.99647  -8406151.48844  23466134.9454                   23466122.9454
        42.2504         27.7504
 -27494082.66748 -21312931.31149  20550211.2504                   20550202.0044
        51.5004         55.0004
  -9380351.33046  -6846408.86143  24503810.6564                   24503801.4104
        37.5004         22.7504
  -4442199.92446  -3402457.14145  24631163.3134                   24631152.7194
        37.5004         34.0004
  -3035334.91655  -1658530.46252  24899934.6954                   24899924.9804
        32.5004         17.2504
 -24904078.61248 -20750172.22349  20601044.0634                   20601034.5824
        51.7504         54.7504
 23  1  9  0 10  0.0000000  0 11G27G23G08G22G24G21G10G18G31G01G32
  -7767069.80745  -5756631.05745  24140539.1954                   24140531.7074
        35.5004         31.0004
 -10685773.34447 -10722348.83445  22010332.0394                   22010321.2114
        45.0004         35.5004
  -8875255.78746  -6871187.82945  23799306.6414                   23799299.3874
        40.2504         35.5004
 -17659323.61647  -9495216.35645  21839492.4534                   21839481.9774
        46.0004         34.0004
 -11386127.99246  -9474894.86744  22953323.5634                   22953314.9024
        38.5004         26.2504
 -11523241.80847  -8461889.01644  23452523.6334                   23452510.1094
        42.0004         27.7504
 -27482853.96348 -21304181.67949  20552347.9694                   20552338.4884
        50.7504         54.7504
  -9265445.73346  -6756872.03443  24525676.1884                   24525667.5274
        36.7504         22.5004
  -4561630.32546  -3495519.79745  24608437.5634                   24608425.7384
        38.5004         34.2504
  -3146216.95745  -1744932.06142  24878834.0234                   24878826.4774
        31.0004         16.7504
 -24924739.93948 -20766271.94549  20597112.1564                   20597102.7344
        51.2504         55.0004
 23  1  9  0 10 30.0000000  0 11G27G23G08G22G24G21G10G18G31G01G32
  -7677643.05445  -5686947.89445  24157555.9064                   24157548.5354
        35.5004         31.5004
 -10619745.70847 -10670898.73146  22022896.6484                   22022885.9964
        45.5004         36.0004
  -8824093.98846  -6831321.52145  23809041.5784                   23809035.5554
        40.0004         35.5004
 -17725820.37847  -9547031.99945  21826838.5704                   21826828.0354
        46.0004         33.5004
 -11313395.78746  -9418220.44844  22967162.7974                   22967155.1334
        36.7504         25.5004
 -11594492.22547  -8517408.81444  23438963.8914                   23438952.0084
        42.0004         28.0004
 -27471322.86848 -21295196.41149  20554542.0164                   20554532.8284
        50.7504         55.0004
  -9150443.14346  -6667259.59844  24547562.5474                   24547551.4264
        38.2504         24.2504
  -4681071.93246  -3588591.21845  24585706.7424                   24585696.5594
        37.0004         34.7504
  -3256976.17255  -1831237.93052  24857757.7734                   24857749.8164
        31.7504         16.2504
 -24944990.55048 -20782051.63249  20593258.3914                   20593249.0274
        51.0004         54.7504
 23  1  9  0 11  0.0000000  0 11G27G23G08G22G24G21G10G18G31G01G32
  -7588067.81346  -5617149.02045  24174603.5004                   24174594.4884
        37.5004         32.0004
 -10553485.96547 -10619267.77545  22035505.1094                   22035494.4574
        46.0004         35.5004
  -8772525.24346  -6791138.13145  23818854.4064                   23818847.5044
        39.2504         34.7504
 -17791998.25347  -9598599.15245  21814245.6094                   21814234.4884
        46.5004         34.0004
 -11240175.20246  -9361165.42044  22981098.8054                   22981088.8554
        39.2504         26.7504
 -11665463.05247  -8572710.72444  23425458.6334                   23425446.8094
        43.0004         28.0004
 -27459490.48448 -21285976.36949  20556793.8834                   20556784.5204
        51.0004         54.7504
  -9035347.09146  -6577574.32943  24569462.3524                   24569453.6914
        36.2504         22.7504
  -4800523.29646  -3681670.20145  24562976.3834                   24562965.8484
        36.7504         34.5004
                                  24836703.9774                   24836697.6024
        31.5004         16.2504
 -24964832.26348 -20797512.70549  20589483.2734                   20589473.3244
        51.5004         54.7504
 23  1  9  0 11 30.0000000  0 11G27G23G08G22G24G21G10G18G31G01G32
  -7498345.82946  -5547235.80945  24191676.7974                   24191667.7274
        38.5004         32.2504
 -10486992.96447 -10567455.07645  22048158.6174                   22048148.1994
        46.0004         35.7504
  -8720550.50546  -6750638.34245  23828745.4844                   23828735.6524
        39.0004         33.5004
 -17857855.10947  -9649916.16545  21801712.8754                   21801702.4574
        46.0004         34.2504
 -11166467.35146  -9303730.71944  22995122.5944                   22995114.9884
        36.5004         26.2504
 -11736150.19446  -8627791.61844  23412007.2344                   23411995.3524
        41.5004         27.2504
 -27447355.10348 -21276520.23649  20559103.1884                   20559094.2934
        51.7504         54.7504
  -8920158.50746  -6487816.98143  24591382.6334                   24591373.4454
        37.7504         22.2504
  -4919980.47246  -3774753.68745  24540246.1564                   24540234.0984
        39.5004         35.5004
  -3478118.15955  -2003556.44652  24815677.1804                   24815668.2274
        34.0004         16.2504
 -24984264.08048 -20812654.36049  20585785.3284                   20585775.9064
        52.0004         55.2504
 23  1  9  0 12  0.0000000  0 11G27G23G08G22G24G21G10G18G31G01G32
  -7408481.91446  -5477212.00445  24208777.0944                   24208768.2584
        37.7504         31.0004
 -10420268.70447 -10515462.15946  22060855.8204                   22060845.3444
        46.5004         36.0004
  -8668174.35746  -6709825.74445  23838712.6954                   23838704.0354
        39.5004         35.0004
 -17923392.17047  -9700983.98645  21789242.2664                   21789231.0274
        46.5004         34.2504
 -11092276.41446  -9245919.61944  23009242.3284                   23009232.8484
        39.2504         26.5004
 -11806553.77747  -8682651.53944  23398610.4774                   23398598.2424
        42.5004         27.7504
 -27434917.72148 -21266828.77249  20561469.6024                   20561460.5904
        52.0004         54.7504
  -8804881.18046  -6397990.47343  24613318.2974                   24613309.7544
        37.5004         22.0004
  -5039441.91646  -3867840.54745  24517510.5474                   24517501.0084
        37.5004         35.2504
  -3588496.25845  -2089565.44942  24794671.0784                   24794663.4144
        32.2504         17.7504
 -25003288.07348 -20827478.23749  20582164.9304                   20582155.6254
        52.5004         55.0004
 23  1  9  0 12 30.0000000  0 11G27G23G08G22G24G21G10G18G31G01G32
  -7318477.69746  -5407078.87245  24225905.5164                   24225895.8014
        38.5004         32.5004
 -10353312.03347 -10463288.14545  22073597.6414                   22073586.6954
        45.5004         35.5004
  -8615397.47746  -6668700.92945  23848753.7664                   23848748.9184
        38.2504         34.2504
 -17988607.24647  -9751800.91745  21776832.3984                   21776820.8674
        46.0004         34.0004
 -11017603.48746  -9187732.90444  23023451.6724                   23023442.4264
        38.0004         26.0004
 -11876670.53147  -8737287.96244  23385267.1484                   23385255.2664
        42.5004         26.7504
 -27422176.49848 -21256900.54649  20563894.6024                   20563885.1804
        50.5004         55.0004
  -8689515.81346  -6308095.38043  24635272.1884                   24635263.4104
        36.5004         23.0004
  -5158903.48846  -3960927.47545  24494779.5784                   24494768.1644
        38.7504         35.5004
  -3698741.57245  -2175470.86842  24773692.8364                   24773684.8204
        33.2504         17.2504
 -25021903.21748 -20841983.53849  20578622.5864                   20578613.1644
        51.0004         55.0004
 23  1  9  0 13  0.0000000  0 11G27G23G08G22G24G21G10G18G31G01G32
  -7228336.90745  -5336839.33645  24243055.1174                   24243048.2734
        35.7504         32.5004
 -10286123.89847 -10410933.76645  22086382.9144                   22086372.2034
        46.0004         35.7504
  -8562222.57146  -6627265.98745  23858873.4144                   23858867.1564
        38.0004         33.5004
 -18053500.51047  -9802367.07045  21764483.3364                   21764472.1564
        46.7504         34.7504
 -10942451.59746  -9129172.99644  23037751.9224                   23037743.6134
        37.5004         26.0004
 -11946498.71946  -8791699.53444  23371979.2814                   23371967.3404
        41.2504         26.7504
 -27409131.45648 -21246735.58549  20566376.8134                   20566367.8014
        51.5004         54.7504
  -8574065.06446  -6218133.74243  24657242.6954                   24657232.1024
        37.0004         21.7504
  -5278363.07346  -4054012.90545  24472046.0864                   24472035.9614
        38.2504         35.5004
  -3808851.69145  -2261271.03543  24752740.3984                   24752731.0354
        34.0004         18.5004
 -25040110.50348 -20856171.02449  20575157.9384                   20575148.4574
        52.7504         55.0004
 23  1  9  0 13 30.0000000  0 11G27G23G08G22G24G21G10G18G31G01G32
  -7138062.26946  -5266495.47345  24260235.4304                   24260227.3554
        37.2504         32.2504
 -10218704.00947 -10358398.80346  22099212.9064                   22099201.6094
        46.0004         36.0004
  -8508652.48546  -6585523.09445  23869069.4844                   23869060.1214
        39.2504         33.5004
 -18118070.98547  -9852681.71645  21752195.8054                   21752184.9184
        46.5004         34.5004
 -10866823.00746  -9070241.62544  23052145.7584                   23052135.2234
        39.7504         26.0004
 -12016036.10347  -8845884.48044  23358747.1804                   23358735.0044
        42.0004         29.0004
 -27395781.65948 -21236333.14549  20568917.5554                   20568908.0744
        51.7504         54.7504
  -8458530.89246  -6128107.05943  24679227.9774                   24679218.2624
        37.5004         22.7504
  -5397817.16046  -4147094.02445  24449315.6804                   24449304.3834
        39.2504         35.7504
  -3918824.00045  -2346963.70743  24731811.8984                   24731804.4694
        33.0004         18.2504
 -25057909.96848 -20870040.73549  20571770.5554                   20571761.4844
        52.7504         55.0004
 23  1  9  0 14  0.0000000  0 11G27G23G08G22G24G21G10G18G31G01G32
  -7047421.05746  -5195865.97745  24277485.5634                   24277476.5514
        39.0004         32.7504
 -10150816.95247 -10305499.80745  22112130.7974                   22112120.4384
        45.7504         35.5004
  -8454453.50046  -6543290.10945  23879383.6954                   23879373.4534
        38.7504         33.7504
 -18182082.04647  -9902560.44745  21740015.3754                   21740003.7274
        47.5004         34.7504
 -10790484.37546  -9010756.99044  23066670.3054                   23066661.9384
        37.5004         26.2504
 -12085044.98647  -8899657.64744  23345615.8524                   23345603.0904
        42.5004         28.5004
 -27381890.58248 -21225508.92649  20571560.7344                   20571551.7234
        51.7504         54.7504
  -8342679.52946  -6037833.29243  24701275.4144                   24701263.3554
        38.2504         21.5004
  -5517027.34146  -4239985.07845  24426629.5944                   24426619.3524
        37.5004         35.0004
  -4028419.82945  -2432363.09642  24710957.5704                   24710948.6764
        34.0004         17.2504
 -25075066.28048 -20883409.28049  20568505.7034                   20568496.6334
        53.0004         54.7504
 23  1  9  0 14 30.0000000  0 11G27G23G08G22G24G21G10G18G31G01G32
  -6957125.89546  -5125506.15745  24294668.7894                   24294659.0164
        39.0004         32.5004
 -10083172.52847 -10252789.86845  22125003.0944                   22124992.7934
        46.0004         35.5004
  -8400337.43046  -6501121.74845  23889678.7424                   23889671.9574
        37.5004         33.2504
 -18246242.87347  -9952555.88745  21727805.2194                   21727794.0984
        46.5004         34.5004
 -10714147.82546  -8951273.94444  23081197.2664                   23081188.6644
        38.0004         26.0004
 -12154233.51447  -8953570.75744  23332448.9304                   23332436.8714
        42.0004         27.5004
 -27368167.65748 -21214815.74049  20574172.3364                   20574162.9734
        51.5004         54.7504
  -8227222.72446  -5947866.89043  24723244.6644                   24723234.8914
        37.7504         22.2504
  -5636700.47246  -4333236.88646  24403858.0864                   24403846.8484
        38.5004         36.7504
  -4138346.14345  -2518019.92642  24690036.9454                   24690030.4534
        32.0004         16.7504
 -25092289.30148 -20896829.81249  20565228.8054                   20565218.9734
        53.0004         54.7504
 23  1  9  0 15  0.0000000  0 11G27G23G08G22G24G21G10G18G31G01G32
  -6866470.55546  -5054865.64845  24311919.5084                   24311909.8524
        38.2504         32.2504
 -10015061.72647 -10199716.52046  22137964.4694                   22137953.4654
        46.2504         36.5004
  -8345597.59246  -6458467.40045  23900096.8444                   23900089.4144
        36.7504         33.0004
 -18309843.52247 -10002114.82145  21715702.8834                   21715691.7034
        45.5004         34.2504
 -10637106.57746  -8891241.80244  23095858.5314                   23095848.6414
        38.5004         27.0004
 -12222889.43147  -9007068.87744  23319385.7344                   23319371.9184
        43.0004         28.0004
 -27353902.92548 -21203700.36549  20576886.4614                   20576877.2734
        50.7504         54.7504
  -8111453.12546  -5857656.78343  24745274.8834                   24745263.9964
        37.0004         21.5004
  -5756124.05346  -4426294.23745  24381131.1094                   24381121.0434
        38.5004         35.5004
  -4247890.90445  -2603379.46043  24669193.8284                   24669185.1684
        35.5004         19.5004
 -25108870.20248 -20909749.98649  20562073.2664                   20562063.8444
        52.5004         54.7504
 23  1  9  0 15 30.0000000  0 11G27G23G08G22G24G21G10G18G31G01G32
  -6775692.88746  -4984129.84145  24329192.4924                   24329184.9454
        37.5004         33.5004
  -9946719.69147 -10146463.00345  22150969.2814                   22150958.8634
        46.0004         35.0004
  -8290471.54446  -6415512.05545  23910587.5704                   23910579.3204
        39.5004         33.5004
 -18373118.37447 -10051419.88245  21703662.0784                   21703650.6054
        45.2504         35.0004
 -10559598.01046  -8830845.51044  23110606.9144                   23110597.9614
        37.5004         27.0004
 -12291246.11346  -9060333.81244  23306375.9454                   23306364.9414
        41.2504         27.2504
 -27339330.43948 -21192345.18049  20579659.7274                   20579650.5394
        51.2504         54.7504
  -7995607.96346  -5767387.81943  24767318.8444                   24767308.7194
        37.0004         21.5004
  -5875530.33446  -4519338.11045  24358409.4384                   24358398.6094
        37.7504         35.2504
  -4357286.43545  -2688622.75043  24648374.2344                   24648367.6254
        32.5004         18.2504
 -25125044.27548 -20922353.14449  20558995.4224                   20558985.9414
        53.0004         55.0004
 23  1  9  0 16  0.0000000  0 11G27G23G08G22G24G21G10G18G31G01G32
  -6684798.41546  -4913303.02945  24346489.4384                   24346481.1294
        37.5004         33.5004
  -9878149.04647 -10093031.34945  22164017.7974                   22164007.3204
        46.0004         35.2504
  -8234963.65246  -6372259.13945  23921149.9694                   23921140.5474
        38.7504         32.2504
 -18436069.33347 -10100472.56545  21691682.6414                   21691671.5784
        46.5004         34.5004
 -10481627.11946  -8770088.97244  23125444.9304                   23125436.1524
        38.7504         25.5004
 -12359304.05847  -9113365.95444  23293425.8754                   23293413.2304
        42.2504         27.5004
 -27324452.20148 -21180751.74849  20582490.7274                   20582481.6564
        51.0004         55.0004
  -7879691.66446  -5677063.39343  24789377.8284                   24789367.1174
        37.2504         21.7504
  -5994918.67446  -4612368.01445  24335691.7034                   24335680.1724
        38.0004         35.7504
  -4466532.31746  -2773749.54343  24627588.9844                   24627578.7424
        36.5004         19.5004
 -25140814.30648 -20934641.46549  20555994.6254                   20555985.2624
        53.0004         55.0004
 23  1  9  0 16 30.0000000  0 11G27G23G08G22G24G21G10G18G31G01G32
  -6593788.46846  -4842386.20445  24363808.0084                   24363800.1094
        36.5004         33.0004
  -9809348.38047 -10039420.45545  22177110.5394                   22177099.3594
        46.2504         35.2504
  -8179075.55645  -6328709.99145  23931783.9924                   23931776.8554
        35.5004         32.0004
 -18498694.14447 -10149271.10945  21679765.1484                   21679754.4384
        45.7504         34.7504
 -10403194.73846  -8708972.83144  23140370.6414                   23140361.0434
        39.0004         25.5004
 -12427059.46147  -9166162.38044  23280532.1024                   23280519.2814
        42.5004         27.7504
 -27309266.22148 -21168918.51449  20585380.4144                   20585371.1684
        51.7504         55.5004
  -7763704.59446  -5586683.83443  24811448.6884                   24811438.9144
        36.0004         21.5004
  -6114284.48346  -4705380.36645  24312974.6254                   24312965.5554
        36.2504         34.5004
  -4575624.10745  -2858756.12943  24606825.8594                   24606820.0124
        32.0004         18.2504
 -25156179.09648 -20946614.02349  20553070.7504                   20553061.2114
        53.0004         55.0004
 23  1  9  0 17  0.0000000  0 11G27G23G08G22G24G21G10G18G31G01G32
  -6502666.80746  -4771382.35745  24381148.6884                   24381139.2664
        38.0004         33.0004
  -9740318.67147  -9985631.08645  22190245.9454                   22190235.3524
        45.7504         35.0004
  -8122810.08446  -6284866.81845  23942492.5704                   23942484.4964
        37.0004         33.0004
 -18560992.59747 -10197815.33445  21667910.7274                   21667899.6054
        46.0004         34.7504
 -10324304.18546  -8647499.68044  23155381.1564                   23155373.0824
        37.2504         26.2504
 -12494510.87347  -9218721.92844  23267696.4454                   23267684.2704
        42.5004         29.0004
 -27293772.53148 -21156845.50549  20588329.1644                   20588319.5664
        51.7504         55.0004
  -7647649.64846  -5496251.40843  24833533.1094                   24833522.6334
        36.0004         22.0004
  -6233624.96546  -4798372.96545  24290266.8594                   24290255.6804
        38.5004         35.0004
  -4684560.01145  -2943641.25843  24586098.3364                   24586089.5004
        34.7504         20.0004
 -25171139.82548 -20958271.72349  20550223.7584                   20550214.2774
        52.5004         55.0004
 23  1  9  0 17 30.0000000  0 11G27G23G08G22G24G21G10G18G31G01G32
  -6411436.99146  -4700294.22345  24398509.4774                   24398500.4064
        38.0004         32.7504
  -9671060.69547  -9931663.85245  22203425.5164                   22203415.0394
        45.5004         35.2504
  -8066170.18946  -6240731.85045  23953271.2274                   23953262.5664
        38.2504         32.2504
 -18622964.95847 -10246105.46445  21656117.2584                   21656106.3134
        45.5004         35.0004
 -10244958.56146  -8585671.91444  23170481.6564                   23170472.0004
        39.7504         26.2504
 -12561656.93247  -9271043.52544  23254919.0554                   23254906.8794
        42.2504         28.2504
 -27277971.17248 -21144532.75549  20591335.9384                   20591326.4574
        52.0004         55.0004
  -7531529.47145  -5405768.11043  24855629.6954                   24855620.2734
        35.5004         21.5004
  -6352938.42646  -4891344.51545  24267562.2274                   24267551.2234
        37.0004         34.5004
  -4793337.65545  -3028403.11343  24565396.5314                   24565389.6884
        33.5004         18.5004
 -25185697.38848 -20969615.26949  20547453.6094                   20547444.4804
        52.7504         54.7504
 23  1  9  0 18  0.0000000  0 11G27G23G08G22G24G21G10G18G31G01G32
  -6320101.04846  -4629123.36045  24415889.3754                   24415880.6564
        36.2504         32.5004
  -9601573.74847  -9877518.19745  22216648.8834                   22216638.1134
        46.0004         35.0004
  -8009157.48046  -6196306.37145  23964119.0704                   23964110.1764
        36.0004         31.5004
 -18684609.71647 -10294140.32245  21644387.1644                   21644375.9844
        46.0004         35.2504
 -10165159.43546  -8523490.76644  23185666.2504                   23185657.2384
        38.7504         26.7504
 -12628494.89547  -9323125.04144  23242200.0864                   23242187.1484
        43.2504         29.0004
 -27261860.43948 -21131978.93649  20594401.7504                   20594392.5634
        52.0004         55.2504
  -7415345.20946  -5315234.91743  24877740.7584                   24877729.3444
        37.0004         21.5004
  -6472221.09945  -4984292.05545  24244862.0084                   24244852.4694
        35.7504         34.2504
  -4901953.30546  -3113038.69143  24544730.8834                   24544721.4024
        36.2504         19.5004
 -25199851.33148 -20980644.31349  20544760.0004                   20544750.9304
        52.7504         55.0004
 23  1  9  0 18 30.0000000  0 11G27G23G08G22G24G21G10G18G31G01G32
  -6228662.83646  -4557872.83145  24433290.1484                   24433281.0204
        38.2504         32.5004
  -9531858.92347  -9823194.97545  22229915.4844                   22229904.0124
        46.5004         35.0004
  -7951774.97545  -6151592.74745  23975038.4924                   23975030.5944
        35.7504         32.2504
 -18745926.84947 -10341919.90145  21632718.5314                   21632707.4694
        45.5004         34.7504
 -10084910.27046  -8460958.93444  23200938.1884                   23200928.3554
        40.0004         27.2504
 -12695023.69047  -9374965.65444  23229540.4064                   23229527.9964
        43.0004         29.2504
 -27245440.61348 -21119184.26549  20597526.2274                   20597516.9804
        52.0004         55.0004
  -7299099.74945  -5224653.99043  24899859.5634                   24899850.1414
        35.0004         21.0004
  -6591470.32746  -5077213.54245  24222172.7734                   24222159.8364
        38.7504         34.7504
  -5010405.07345  -3197546.59542  24524090.4384                   24524083.0664
        34.7504         16.7504
 -25213602.90148 -20991359.82049  20542143.0944                   20542133.7894
        53.0004         54.7504
 23  1  9  0 19  0.0000000  0 11G27G23G08G22G24G21G10G18G31G01G32
  -6137125.25246  -4486544.89245  24450708.5704                   24450699.8524
        37.2504         31.7504
  -9461916.39047  -9768694.30745  22243224.4384                   22243213.6094
        46.0004         34.7504
  -7894025.57446  -6106593.25245  23986029.4144                   23986020.8134
        37.5004         32.7504
 -18806916.24047 -10389444.07745  21621113.0864                   21621101.7304
        46.5004         34.7504
 -10004213.51546  -8398078.36744  23216293.5084                   23216284.6724
        38.5004         26.7504
 -12761240.84847  -9426563.43444  23216939.8204                   23216927.4104
        43.5004         29.7504
 -27228711.05348 -21106148.25349  20600709.5004                   20600700.3134
        52.5004         54.7504
  -7182795.14745  -5134027.00343  24921991.4384                   24921982.0164
        34.5004         21.5004
  -6710683.32346  -5170106.78745  24199484.5554                   24199474.4884
        36.2504         34.5004
  -5118690.15646  -3281924.61743  24503486.3594                   24503477.9344
        37.2504         19.0004
 -25226952.46948 -21001762.06549  20539603.0634                   20539593.6414
        53.0004         54.7504
 23  1  9  0 19 30.0000000  0 11G27G23G08G22G24G21G10G18G31G01G32
  -6045491.89846  -4415142.26845  24468145.2114                   24468136.9024
        36.2504         32.2504
  -9391746.86347  -9714016.77445  22256577.2734                   22256567.0314
        45.5004         35.0004
  -7835912.41945  -6061310.25945  23997086.6174                   23997078.7194
        35.7504         31.5004
 -18867577.82947 -10436712.83545  21609569.6334                   21609558.4534
        46.2504         35.0004
  -9923072.29446  -8334851.43644  23231733.5944                   23231724.6994
        38.7504         26.2504
 -12827145.24347  -9477917.51444  23204397.7344                   23204385.4414
        42.5004         29.5004
 -27211672.18248 -21092871.20149  20603951.9224                   20603942.6174
        52.5004         54.7504
  -7066433.98945  -5043355.94943  24944135.4454                   24944124.2664
        35.2504         20.5004
  -6829857.58946  -5262969.85145  24176808.0864                   24176795.6764
        38.2504         34.5004
  -5226806.19545  -3366170.85743  24482909.9534                   24482903.3444
        34.7504         18.2504
 -25239901.01448 -21011851.83349  20537139.3204                   20537129.6054
        53.2504         54.7504
 23  1  9  0 20  0.0000000  0 11G27G23G08G22G24G21G10G18G31G01G32
  -5953764.75345  -4343666.61345  24485601.0864                   24485593.3054
        35.7504         31.5004
  -9321349.78547  -9659161.90745  22269973.9064                   22269962.7274
        46.5004         35.0004
  -7777436.82845  -6015744.93145  24008213.1024                   24008205.7894
        33.5004         31.0004
 -18927909.93547 -10483724.83945  21598088.3834                   21598077.5554
        46.5004         35.5004
  -9841488.30246  -8271279.49844  23247259.9454                   23247249.8204
        40.5004         26.7504
 -12892734.24647  -9529025.80644  23191917.8834                   23191905.0044
        44.2504         29.7504
 -27194321.99048 -21079351.57649  20607254.0474                   20607244.9184
        51.7504         55.0004
  -6950017.50945  -4952641.80943  24966289.5944                   24966278.5904
        35.7504         20.0004
  -6948989.40746  -5355799.83445  24154138.0004                   24154126.4104
        38.0004         35.5004
  -5334749.64346  -3450282.68343  24462371.7734                   24462362.2344
        37.7504         18.2504
 -25252448.16648 -21021628.82149  20534751.1094                   20534742.6844
        52.7504         55.0004
 23  1  9  0 20 30.0000000  0 11G27G23G08G22G24G21G10G18G31G01G32
  -5861947.92346  -4272121.04145  24503073.5394                   24503064.1174
        36.5004         31.7504
  -9250726.44747  -9604130.75545  22283412.7274                   22283401.8404
        45.7504         34.7504
  -7718602.49546  -5969899.99145  24019411.3594                   24019401.5864
        36.0004         31.2504
 -18987913.24547 -10530480.64545  21586670.2974                   21586659.1174
        45.7504         35.0004
  -9759465.27146  -8207365.45144  23262867.0554                   23262858.1604
        38.0004         25.5004
 -12958006.35447  -9579887.19345  23179496.6724                   23179484.3794
        44.2504         30.2504
 -27176661.30948 -21065590.01149  20610615.3444                   20610605.7464
        51.7504         55.0004
  -6833548.82945  -4861886.93943  24988451.3284                   24988441.2034
        35.2504         20.5004
  -7068076.79046  -5448595.21145  24131474.8754                   24131464.4574
        37.0004         34.2504
  -5442518.65245  -3534258.49443  24441862.6564                   24441855.2854
        35.7504         19.7504
 -25264595.45148 -21031094.23849  20532439.6024                   20532430.5904
        53.5004         54.7504
 23  1  9  0 21  0.0000000  0 11G27G23G08G22G24G21G10G18G31G01G32
  -5770043.74046  -4200507.39145  24520561.4144                   24520553.2814
        36.0004         32.7504
  -9179876.33547  -9548922.88445  22296894.8984                   22296884.1294
        45.7504         34.5004
  -7659411.68746  -5923777.30545  24030674.8284                   24030665.9924
        36.2504         31.2504
 -19047586.47847 -10576979.24445  21575314.5784                   21575304.1024
        46.5004         35.5004
  -9677005.07446  -8143110.74544  23278560.5394                   23278549.7114
        40.7504         25.5004
 -13022959.18747  -9630499.75144  23167135.9384                   23167123.0594
        43.7504         29.5004
 -27158688.61948 -21051585.32049  20614034.7584                   20614025.5124
        52.5004         54.7504
  -6717029.28846  -4771092.50743  25010625.3674                   25010613.5434
        37.2504         20.0004
  -7187115.84046  -5541352.93345  24108822.1254                   24108812.9384
        36.7504         35.5004
  -5550109.80846  -3618095.75843  24421388.7664                   24421380.5164
        38.5004         20.0004
 -25276342.59348 -21040247.86049  20530204.6334                   20530194.7424
        53.2504         54.7504
 23  1  9  0 21 30.0000000  0 11G27G23G08G22G24G21G10G18G31G01G32
  -5678056.52046  -4128829.07345  24538066.7584                   24538058.6844
        36.2504         31.7504
  -9108801.20647  -9493539.67845  22310420.4454                   22310409.6174
        45.7504         34.5004
  -7599867.86645  -5877379.53745  24042002.0084                   24041997.1024
        33.0004         31.0004
 -19106930.56247 -10623221.36045  21564022.2424                   21564010.4184
        46.7504         35.5004
  -9594111.70746  -8078518.49244  23294332.1254                   23294323.9924
        38.5004         26.5004
 -13087591.65247  -9680862.72045  23154838.2114                   23154824.6294
        45.0004         30.5004
 -27140404.82148 -21037338.20049  20617513.8524                   20617504.5474
        51.5004         55.2504
  -6600462.49946  -4680261.19743  25032809.2424                   25032796.0124
        37.5004         21.0004
  -7306105.23646  -5634071.89745  24086179.4924                   24086169.4264
        37.7504         35.0004
  -5657521.66246  -3701793.32743  24400948.2344                   24400940.1024
        36.2504         18.2504
 -25287691.53948 -21049091.18149  20528044.5234                   20528035.3954
        52.7504         55.0004
