     2.11           OBSERVATION DATA    G (GPS)             RINEX VERSION / TYPE
teqc  2019Feb25     Salamtina Y.M.      20230920 03:20:33UTCPGM / RUN BY / DATE
OBSERVATION MODE: Permanent                                 COMMENT
CHUM Chumysh (CHUM)                                         MARKER NAME
25601M001                                                   MARKER NUMBER
4549261325          TRIMBLE NETRS        1.3-2              REC # / TYPE / VERS
237                 AOAD/M_T        NONE                    ANT # / TYPE
        0.0900        0.0000        0.0000                  ANTENNA: DELTA H/E/N
  1228950.3077  4508080.0111  4327868.5432                  APPROX POSITION XYZ
  74.75110459  42.99850161  716.3369  LonLatAlt  S/W        COMMENT
ANT ADDED FROM RCV_ANT.txt                                  COMMENT
Linux 2.6.32-573.12.1.x86_64|x86_64|gcc|Linux 64|=+         COMMENT
BIT 2 OF LLI FLAGS DATA COLLECTED UNDER A/S CONDITION       COMMENT
Konovalov S.M.      RS_RAS                                  OBSERVER / AGENCY
     1     1                                                WAVELENGTH FACT L1/2
     7    L1    L2    C1    P1    P2    S1    S2            # / TYPES OF OBSERV
    30.0000                                                 INTERVAL
    18                                                      LEAP SECONDS
TIME: 2023.01.07                                            COMMENT
TOUR: cont                                                  COMMENT
RSET: RAS02                                                 COMMENT
ASET: DS24                                                  COMMENT
OPER: skon (Konovalov S.M.)                                 COMMENT
SOUR: chum202301070000d.dat                                 COMMENT
SUPP: chum202301070000d.eph                                 COMMENT
SUPP: chum202301070000d.ion                                 COMMENT
SUPP: chum202301070000d.mes                                 COMMENT
Forced Modulo Decimation to 30 seconds                      COMMENT
 SNR is mapped to RINEX snr flag value [0-9]                COMMENT
  L1 & L2: min(max(int(snr_dBHz/6), 0), 9)                  COMMENT
  2023     1     7     0     0    0.0000000     GPS         TIME OF FIRST OBS
  2023     1     7    23    59   30.0000000     GPS         TIME OF LAST OBS
                                                            END OF HEADER
 23  1  7  0  0  0.0000000  0  9G24G23G22G27G08G21G10G18G32
 -12940194.65146 -10682771.09247  22515060.5164                   22515051.4454
        40.0004         42.5004
 -12749179.21347 -12089219.96046  21582737.4774                   21582726.6484
        46.2504         38.7504
  -8183430.18347  -6665521.96544  22333402.5784                   22333391.0474
        43.0004         27.5004
 -11087117.00546  -8449691.81346  23545621.5554                   23545613.0704
        38.5004         37.5004
  -9385599.52046  -7213157.44046  23502048.7504                   23502040.3834
        40.5004         38.5004
  -9450030.29046  -6659049.64844  23980040.4384                   23980027.9104
        40.0004         25.0004
 -25433162.94248 -21474898.62149  20510462.1884                   20510452.8244
        53.7504         55.0004
  -3036251.32446  -9689469.37944  23747468.2664                   23747457.9064
        37.5004         24.2504
 -17692763.97948 -20011185.94749  20789080.5164                   20789071.3284
        51.7504         54.7504
 23  1  7  0  0 30.0000000  0  9G24G23G22G27G08G21G10G18G32
 -12886877.10446 -10641224.91347  22525207.3594                   22525197.6454
        41.0004         42.2504
 -12691827.61347 -12044530.40446  21593650.7034                   21593639.9344
        46.0004         38.2504
  -8260968.59547  -6725941.47844  22318646.3054                   22318635.8874
        42.0004         29.2504
 -11005257.78446  -8385905.41646  23561199.5634                   23561190.0824
        39.2504         37.5004
  -9350845.82646  -7186076.63246  23508662.4844                   23508653.3554
        41.5004         38.5004
  -9530181.88446  -6721505.43944  23964788.3054                   23964775.6604
        39.7504         25.2504
 -25432239.70948 -21474179.21849  20510637.9844                   20510628.5634
        52.2504         54.7504
  -2926125.41446  -9603656.93144  23768423.7664                   23768414.9304
        36.7504         24.7504
 -17728060.14748 -20038689.43649  20782364.0704                   20782354.3554
        51.5004         55.0004
 23  1  7  0  1  0.0000000  0  9G24G23G22G27G08G21G10G18G32
 -12832987.54346 -10599233.07747  22535460.5704                   22535452.9654
        39.7504         42.0004
 -12634231.57847 -11999650.38946  21604611.3444                   21604600.3404
        46.0004         38.7504
  -8338212.73547  -6786131.68844  22303947.9694                   22303937.0824
        43.5004         29.0004
 -10923133.38246  -8321912.39646  23576827.3444                   23576818.0394
        39.2504         37.2504
  -9315603.43046  -7158615.03346  23515368.3674                   23515360.0594
        41.7504         39.0004
  -9610122.20747  -6783796.56644  23949576.2584                   23949564.1414
        42.0004         25.5004
 -25431030.83048 -21473237.23549  20510867.9064                   20510858.5434
        53.5004         55.0004
  -2815825.73646  -9517709.14944  23789414.7584                   23789403.8714
        38.7504         24.7504
 -17762937.47048 -20065866.55249  20775726.6254                   20775717.7304
        51.5004         54.7504
 23  1  7  0  1 30.0000000  0  9G24G23G22G27G08G21G10G18G32
 -12778529.76846 -10556798.44647  22545823.3594                   22545815.8714
        39.5004         42.0004
 -12576393.21147 -11954581.54246  21615616.5944                   21615606.4694
        45.5004         39.0004
  -8415163.94746  -6846093.65644  22289303.8054                   22289293.3874
        41.5004         29.2504
 -10840748.80946  -8257716.65346  23592504.5314                   23592495.2274
        39.0004         36.7504
  -9279876.33346  -7130775.76146  23522166.7734                   23522158.5234
        40.7504         39.0004
  -9689851.34046  -6845923.17444  23934404.5704                   23934391.8094
        40.7504         26.5004
 -25429537.44749 -21472073.56349  20511152.0164                   20511142.5354
        54.0004         54.7504
  -2705356.12246  -9431628.92943  23810436.1254                   23810425.6484
        38.7504         23.7504
 -17797397.73548 -20092718.69549  20769169.3204                   20769159.7814
        52.5004         54.7504
 23  1  7  0  2  0.0000000  0  9G24G23G22G27G08G21G10G18G32
 -12723505.95846 -10513922.74347  22556295.8054                   22556285.8554
        40.5004         42.0004
 -12518312.90647 -11909324.18346  21626669.3754                   21626658.6054
        45.5004         38.5004
  -8491821.28247  -6905826.62044  22274717.3524                   22274705.9384
        43.0004         28.7504
 -10758107.38346  -8193320.74646  23608228.8284                   23608221.1644
        37.2504         36.5004
  -9243666.06746  -7102559.99046  23529057.3834                   23529048.8984
        41.5004         38.5004
  -9769367.58146  -6907883.86044  23919273.4844                   23919260.3134
        41.5004         26.0004
 -25427759.32648 -21470688.01449  20511490.5394                   20511481.4694
        53.0004         54.7504
  -2594718.91046  -9345418.15943  23831490.5084                   23831479.3874
        38.2504         22.7504
 -17831441.28848 -20119246.13249  20762690.9844                   20762681.6804
        51.7504         54.7504
 23  1  7  0  2 30.0000000  0 10G24G23G22G27G08G21G10G18G31G32
 -12667918.80046 -10470608.05046  22566872.1254                   22566863.8754
        39.7504         41.5004
 -12459991.73347 -11863879.12346  21637768.0554                   21637756.8754
        46.2504         38.2504
  -8568184.80247  -6965330.64944  22260185.8284                   22260174.8834
        42.5004         29.7504
 -10675212.99346  -8128727.74446  23624005.3204                   23623995.8404
        39.2504         36.7504
  -9206975.95446  -7073970.30346  23536039.7974                   23536031.3714
        41.7504         38.7504
  -9848669.56046  -6969677.61544  23904182.2194                   23904169.8094
        41.2504         26.2504
 -25425697.02148 -21469081.03349  20511882.6884                   20511873.6764
        53.5004         55.0004
  -2483917.12346  -9259079.05143  23852574.1954                   23852563.9534
        37.2504         22.5004
    -47427.00716                  25321186.266
        38.000
 -17865068.85048 -20145449.41449  20756291.6414                   20756282.8054
        51.7504         54.7504
 23  1  7  0  3  0.0000000  0 10G24G23G22G27G08G21G10G18G31G32
 -12611768.29146 -10426854.43646  22577557.5704                   22577549.1454
        40.0004         41.7504
 -12401428.01847 -11818245.06546  21648912.1884                   21648901.0664
        46.2504         38.2504
  -8644251.71947  -7024603.52745  22245711.1414                   22245699.4924
        43.5004         30.0004
 -10592066.80546  -8063938.52846  23639825.4144                   23639817.8674
        37.2504         36.0004
  -9169805.67247  -7045006.46246  23543112.7664                   23543104.3984
        42.2504         38.5004
  -9927753.28246  -7031301.26944  23889132.6484                   23889120.4734
        41.5004         25.7504
 -25423347.99748 -21467250.63549  20512329.5864                   20512320.5164
        53.2504         55.0004
  -2372950.77346  -9172611.78443  23873690.1804                   23873680.2894
        36.7504         22.2504
   -165194.46155    -99657.85655  25298776.1954                   25298764.6644
        33.5004         30.0004
 -17898278.56048 -20171327.09749  20749972.3834                   20749962.9024
        52.0004         54.7504
 23  1  7  0  3 30.0000000  0 10G24G23G22G27G08G21G10G18G31G32
 -12555058.86646 -10382665.26747  22588349.1484                   22588340.1954
        40.2504         42.0004
 -12342624.34747 -11772424.03346  21660101.9304                   21660090.9264
        45.2504         38.5004
  -8720023.08447  -7083646.13545  22231292.0394                   22231280.5084
        43.0004         31.2504
 -10508674.40946  -7998957.47145  23655697.3444                   23655686.8674
        38.7504         35.5004
  -9132159.66647  -7015671.92846  23550277.0634                   23550267.8164
        43.0004         38.5004
 -10006619.52046  -7092755.48944  23874124.8674                   23874112.3984
        40.7504         26.0004
 -25420713.87348 -21465198.07649  20512831.3284                   20512822.0234
        53.0004         54.7504
  -2261824.49246  -9086019.87643  23894837.6884                   23894827.2114
        37.5004         22.5004
   -283056.58145   -191498.39444  25276347.9384                   25276336.4064
        33.7504         27.0004
 -17931072.83848 -20196881.07649  20743731.8834                   20743722.6374
        51.7504         55.0004
 23  1  7  0  4  0.0000000  0 10G24G23G22G27G08G21G10G18G31G32
 -12497790.67746 -10338040.69746  22599246.7344                   22599237.7814
        40.0004         41.5004
 -12283579.16747 -11726414.82346  21671338.0554                   21671327.1094
        45.7504         38.2504
  -8795496.43247  -7142456.49845  22216929.8524                   22216918.3794
        44.0004         30.0004
 -10425037.06946  -7933785.50645  23671611.2344                   23671603.1024
        38.0004         35.5004
  -9094038.65847  -6985967.24746  23557531.2034                   23557522.4264
        43.2504         39.0004
 -10085264.24946  -7154037.07444  23859159.3914                   23859147.5664
        40.7504         25.7504
 -25417792.61948 -21462921.77649  20513387.0704                   20513377.5904
        53.5004         55.0004
  -2150538.49346  -8999303.55043  23916013.3054                   23916003.8244
        36.0004         22.0004
   -401008.90945   -283409.37844  25253901.8524                   25253890.4964
        34.5004         28.2504
 -17963449.91948 -20222109.96249  20737570.4534                   20737561.0314
        52.2504         55.0004
 23  1  7  0  4 30.0000000  0 10G24G23G22G27G08G21G10G18G31G32
 -12439966.29646 -10292982.72746  22610250.6484                   22610241.4614
        39.7504         41.5004
 -12224293.23547 -11680218.00146  21682620.2974                   21682609.0004
        46.0004         38.0004
  -8870671.47747  -7201034.44545  22202624.6024                   22202613.3054
        44.5004         30.0004
 -10341158.37346  -7868425.52345  23687572.6484                   23687564.1054
        36.7504         34.0004
  -9055444.25147  -6955893.69046  23564875.4924                   23564866.5984
        42.2504         38.5004
 -10163685.89546  -7215144.84444  23844236.3984                   23844224.0474
        41.5004         26.0004
 -25414584.27348 -21460421.77249  20513997.5084                   20513988.2624
        53.7504         54.7504
  -2039095.43146  -8912464.77843  23937222.0084                   23937211.2384
        37.0004         23.0004
   -519049.40445   -375388.96144  25231441.1644                   25231428.6954
        35.2504         29.7504
 -17995410.37448 -20247014.20249  20731488.5314                   20731479.4024
        51.2504         55.0004
 23  1  7  0  5  0.0000000  0 10G24G23G22G27G08G21G10G18G31G32
 -12381588.44846 -10247493.50746  22621359.3594                   22621350.9924
        39.5004         41.5004
 -12164767.46947 -11633834.29746  21693947.4224                   21693935.7734
        46.0004         38.0004
  -8945548.06647  -7259379.82245  22188376.3834                   22188364.9694
        44.0004         30.7504
 -10257042.21646  -7802880.45945  23703580.2344                   23703570.9304
        38.2504         34.7504
  -9016379.68447  -6925453.77046  23572307.8984                   23572300.0594
        42.5004         38.7504
 -10241883.46746  -7276077.99444  23829354.7974                   23829343.8524
        41.0004         27.2504
 -25411088.89348 -21457698.10449  20514662.5394                   20514653.2344
        53.5004         54.7504
  -1927498.13646  -8825505.85443  23958457.1484                   23958447.3754
        37.2504         22.5004
   -637176.25655   -467435.95954  25208960.5944                   25208949.0044
        33.0004         28.7504
 -18026955.02148 -20271594.43449  20725485.9844                   20725476.3874
        51.7504         55.0004
 23  1  7  0  5 30.0000000  0 10G24G23G22G27G08G21G10G18G31G32
 -12322656.72546 -10201572.67146  22632574.2814                   22632564.8594
        39.7504         41.5004
 -12104999.55847 -11587261.91446  21705320.0704                   21705309.5944
        45.5004         38.0004
  -9020122.72647  -7317489.92645  22174184.7504                   22174173.6884
        44.5004         32.0004
 -10172689.13046  -7737150.83645  23719631.6954                   23719623.5044
        37.5004         34.5004
  -8976843.67846  -6894646.52246  23579831.4144                   23579823.7504
        41.7504         38.5004
 -10319852.45846  -7336833.01544  23814518.6804                   23814507.0904
        41.2504         25.5004
 -25407303.12048 -21454748.15549  20515383.1414                   20515373.8364
        53.2504         55.0004
  -1815746.13446  -8738426.41843  23979723.0784                   23979712.8954
        37.0004         22.0004
   -755384.13155   -559546.02055  25186468.2974                   25186456.4734
        35.5004         31.5004
 -18058081.37648 -20295848.72649  20719563.0554                   20719553.6334
        52.2504         54.7504
 23  1  7  0  6  0.0000000  0 10G24G23G22G27G08G21G10G18G31G32
 -12263175.61746 -10155223.77546  22643892.6094                   22643883.4224
        39.2504         41.0004
 -12044992.40347 -11540503.10846  21716740.1484                   21716728.5004
        46.0004         38.0004
  -9094397.21647  -7375366.12645  22160050.8204                   22160039.4654
        44.7504         31.2504
 -10088104.92946  -7671241.05245  23735727.3834                   23735718.6644
        37.5004         33.7504
  -8936841.45747  -6863475.97246  23587444.0004                   23587436.2194
        42.2504         38.5004
 -10397593.45846  -7397410.39844  23799724.3914                   23799712.4494
        39.7504         24.5004
 -25403229.58248 -21451573.97049  20516158.2894                   20516149.1024
        52.5004         54.7504
  -1703844.28146  -8651230.14543  24001017.4614                   24001007.2194
        37.2504         22.7504
   -873673.60845   -651719.68845  25163955.7274                   25163947.3014
        31.2504         31.7504
 -18088792.16648 -20319779.19249  20713718.6804                   20713709.6094
        52.2504         54.7504
 23  1  7  0  6 30.0000000  0 10G24G23G22G27G08G21G10G18G31G32
 -12203146.10446 -10108447.50446  22655316.3444                   22655306.6884
        39.7504         41.5004
 -11984744.90947 -11493557.02346  21728204.8444                   21728193.1954
        46.5004         38.0004
  -9168369.40647  -7433006.79145  22145974.9924                   22145963.0514
        44.7504         31.2504
 -10003291.42446  -7605152.62645  23751866.5314                   23751858.1644
        36.5004         32.7504
  -8896373.94547  -6831942.86046  23595144.7114                   23595136.9884
        42.5004         38.2504
 -10475102.92546  -7457807.35844  23784975.7584                   23784963.6414
        41.2504         25.7504
 -25398866.15948 -21448173.90649  20516988.4224                   20516979.5864
        51.5004         55.0004
  -1591793.21546  -8563917.65643  24022339.8914                   24022329.6484
        37.0004         22.7504
                                  25141436.531
        40.250
 -18119086.16148 -20343384.89349  20707954.0944                   20707944.4964
        52.0004         55.0004
 23  1  7  0  7  0.0000000  0 11G24G23G22G27G08G21G10G18G31G01G32
 -12142574.01946 -10061248.47846  22666842.5084                   22666833.4384
        40.0004         41.0004
 -11924261.17947 -11446426.84446  21739714.0474                   21739703.3364
        45.5004         38.0004
  -9242042.21247  -7490414.15445  22131954.6884                   22131943.8014
        45.0004         31.2504
  -9918255.51946  -7538890.89145  23768049.1484                   23768040.0784
        36.7504         33.5004
  -8855446.84247  -6800051.61346  23602934.0474                   23602924.3914
        43.0004         38.0004
 -10552382.79146  -7518025.38844  23770269.3134                   23770258.1914
        40.5004         26.5004
 -25394216.17148 -21444550.53649  20517873.3834                   20517864.2544
        52.7504         55.0004
  -1479599.06546  -8476493.64743  24043691.2734                   24043679.5084
        38.5004         23.0004
    -21974.52855   -794949.45654  25118893.0944                   25118883.4964
        33.5004         29.2504
     32017.44815                  25356623.578
        31.750
 -18148967.38148 -20366668.93949  20702267.6884                   20702258.3244
        51.5004         54.7504
 23  1  7  0  7 30.0000000  0 11G24G23G22G27G08G21G10G18G31G01G32
 -12081453.18346 -10013621.85346  22678472.9844                   22678464.6764
        39.0004         41.0004
 -11863533.02147 -11399106.21946  21751270.2034                   21751259.3164
        46.0004         38.0004
  -9315406.47747  -7547581.10245  22117993.9224                   22117982.8014
        44.7504         31.2504
  -9832991.99446  -7472451.80045  23784273.1414                   23784265.0084
        36.5004         33.0004
  -8814054.06947  -6767797.51846  23610810.1254                   23610800.9964
        43.2504         37.7504
 -10629422.87546  -7578056.59244  23755609.5554                   23755596.5004
        41.0004         25.5004
 -25389271.04548 -21440697.20049  20518814.4614                   20518805.4494
        53.2504         55.0004
  -1367255.46446  -8388953.22743  24065069.2504                   24065058.0124
        38.7504         22.2504
                                  25096344.0554                   25096332.6414
        32.0004         31.2504
    -80886.52545     96011.16653  25335139.0474                   25335131.4414
        30.5004         18.5004
 -18178427.51348 -20389624.87249  20696661.7114                   20696652.2304
        52.0004         55.0004
 23  1  7  0  8  0.0000000  0 11G24G23G22G27G08G21G10G18G31G01G32
 -12019795.08146  -9965576.57846  22690206.3594                   22690197.4654
        39.0004         41.0004
 -11802570.18547 -11351602.71246  21762870.7894                   21762860.1954
        46.5004         37.5004
  -9388470.82147  -7604514.32945  22104090.6644                   22104079.3674
        45.5004         30.7504
  -9747513.44045  -7405845.14445  23800538.4774                   23800531.7504
        34.7504         33.2504
  -8772206.65747  -6735189.16446  23618773.0944                   23618764.5514
        42.0004         38.0004
 -10706230.93746  -7637907.02244  23740993.2734                   23740980.9804
        41.5004         27.0004
 -25384039.44048 -21436620.62849  20519810.0704                   20519800.6484
        53.2504         54.7504
  -1254774.09946  -8301305.39043  24086472.5004                   24086462.5514
        37.5004         23.5004
   -259074.42455   -979702.68355  25073775.4144                   25073763.4734
        35.5004         31.0004
   -193724.69144      8085.31742  25313666.1334                   25313658.9384
        28.2504         15.5004
 -18207476.19348 -20412260.20149  20691133.8834                   20691124.6954
        51.7504         54.7504
 23  1  7  0  8 30.0000000  0 11G24G23G22G27G08G21G10G18G31G01G32
 -11957596.40746  -9917110.07046  22702042.5164                   22702033.6214
        39.5004         41.0004
 -11741367.26247 -11303912.14146  21774517.9224                   21774506.9774
        46.0004         37.7504
  -9461228.78647  -7661208.84745  22090244.7814                   22090233.5434
        44.0004         31.2504
  -9661817.36646  -7339068.98945  23816847.8754                   23816838.2774
        37.2504         33.0004
  -8729901.10347  -6702223.80646  23626824.3134                   23626815.5354
        43.0004         38.2504
 -10782798.89646  -7697570.31544  23726423.2584                   23726410.9064
        40.2504         25.5004
 -25378515.15048 -21432315.98349  20520861.4454                   20520852.0234
        52.5004         54.7504
  -1142151.34646  -8213547.38743  24107904.2114                   24107893.8524
        37.5004         22.5004
   -377727.69645  -1072159.82745  25051196.5164                   25051184.5164
        35.5004         31.5004
   -306488.42645    -79782.54942  25292208.0944                   25292201.3094
        31.2504         15.5004
 -18236107.94748 -20434570.64949  20685685.3134                   20685676.1254
        52.2504         55.0004
 23  1  7  0  9  0.0000000  0 11G24G23G22G27G08G21G10G18G31G01G32
 -11894860.23346  -9868224.75746  22713980.7344                   22713971.7234
        39.0004         40.7504
 -11679925.54747 -11256035.48346  21786209.7344                   21786198.7894
        45.5004         37.5004
  -9533680.57547  -7717664.75845  22076457.4384                   22076446.9024
        44.0004         31.0004
  -9575907.85446  -7272126.54445  23833194.5864                   23833186.5704
        36.2504         33.5004
  -8687140.70247  -6668904.01946  23634961.4454                   23634952.9614
        42.5004         38.0004
 -10859125.84446  -7757045.85144  23711898.5704                   23711885.3984
        41.2504         26.2504
 -25372698.92048 -21427783.85349  20521967.8834                   20521958.9304
        53.0004         54.7504
  -1029390.44446  -8125681.78243  24129363.9224                   24129351.8634
        39.2504         22.5004
   -496445.83546  -1164667.43245  25028605.0864                   25028594.1414
        36.2504         31.5004
   -419176.81855   -167591.66752  25270764.2504                   25270757.9924
        31.5004         16.7504
 -18264323.94748 -20456557.15149  20680316.1024                   20680306.6804
        52.5004         54.7504
 23  1  7  0  9 30.0000000  0 11G24G23G22G27G08G21G10G18G31G01G32
 -11831589.70346  -9818923.02746  22726020.9614                   22726012.3014
        39.5004         41.0004
 -11618246.14947 -11207973.62746  21797946.5394                   21797936.0044
        45.2504         37.5004
  -9605826.26847  -7773882.15945  22062729.3444                   22062717.5204
        45.0004         31.2504
  -9489789.04646  -7205020.97645  23849582.7274                   23849574.8284
        36.5004         33.2504
  -8643928.80647  -6635232.42846  23643183.5864                   23643175.5124
        43.0004         37.7504
 -10935210.98846  -7816332.93844  23697419.8914                   23697407.8324
        41.5004         26.0004
 -25366591.04948 -21423024.48249  20523130.5164                   20523121.5044
        53.0004         55.0004
   -916494.37246  -8037710.84543  24150846.4224                   24150834.7734
        39.0004         23.0004
   -615226.38045  -1257223.79645  25006001.9064                   25005989.6724
        34.2504         30.0004
   -531788.42545   -255341.13442  25249334.7344                   25249327.7154
        31.5004         15.5004
 -18292125.23348 -20478220.48249  20675025.8284                   20675015.9964
        52.0004         55.0004
 23  1  7  0 10  0.0000000  0 10G24G23G22G27G08G21G10G18G31G32
 -11767786.21246  -9769206.01846  22738161.1724                   22738153.5664
        38.0004         40.5004
 -11556328.54947 -11159726.16646  21809729.5314                   21809718.5274
        46.0004         37.5004
  -9677664.31447  -7829859.83845  22049058.4304                   22049047.3674
        44.5004         31.0004
  -9403463.17046  -7137754.11245  23866011.2114                   23866001.4384
        37.5004         32.7504
  -8600266.50747  -6601209.88546  23651492.5474                   23651484.2384
        42.7504         37.5004
 -11011051.20047  -7875429.19444  23682988.5164                   23682975.8714
        42.2504         27.7504
 -25360189.84548 -21418036.52349  20524348.4144                   20524339.4614
        51.5004         55.0004
   -803464.54046  -7949635.65244  24172355.1484                   24172344.0274
        38.5004         25.0004
                                  24983386.5394                   24983376.4144
        33.7504         32.2504
 -18319511.23748 -20499560.21749  20669814.2584                   20669804.7774
        52.0004         54.7504
 23  1  7  0 10 30.0000000  0 11G24G23G22G27G08G21G10G18G31G01G32
 -11703450.94146  -9719074.65446  22750405.1884                   22750395.7074
        39.5004         40.2504
 -11494171.95647 -11111292.45746  21821557.6254                   21821546.7384
        45.0004         37.0004
  -9749192.83147  -7885596.30845  22035446.9144                   22035436.3204
        44.2504         30.5004
  -9316932.41746  -7070327.54245  23882477.2504                   23882468.2384
        37.5004         34.0004
  -8556155.32247  -6566837.54746  23659887.1334                   23659877.4774
        42.2504         37.0004
 -11086643.60646  -7934332.33844  23668602.6724                   23668590.7304
        41.2504         27.0004
 -25353494.28848 -21412819.21649  20525622.7504                   20525613.6214
        52.0004         54.7504
   -690301.98046  -7861457.06543  24193889.7034                   24193878.3484
        39.0004         22.2504
   -852961.68145  -1442472.15545  24960763.1884                   24960750.8364
        34.5004         31.2504
                                  25206522.719
        29.750
 -18346481.09848 -20520575.69149  20664681.9454                   20664672.5234
        51.5004         54.7504
 23  1  7  0 11  0.0000000  0 11G24G23G22G27G08G21G10G18G31G01G32
 -11638589.02446  -9668532.88546  22762747.0164                   22762738.4734
        38.2504         40.2504
 -11431779.40047 -11062674.89746  21833429.5234                   21833419.5744
        44.5004         36.7504
  -9820413.99047  -7941093.29445  22021894.2424                   22021883.1804
        44.5004         31.0004
  -9230202.68146  -7002745.95345  23898981.8524                   23898972.2544
        37.0004         33.0004
  -8511599.53047  -6532118.75246  23668364.8284                   23668356.6954
        42.5004         37.2504
 -11161989.37747  -7993043.30744  23654265.9384                   23654253.0594
        42.0004         26.2504
 -25346506.42748 -21407374.13849  20526952.0784                   20526943.2424
        51.5004         54.7504
   -577011.66246  -7773178.88943  24215445.7034                   24215435.8714
        38.0004         22.5004
   -971912.89646  -1535161.41645  24938127.9384                   24938114.9414
        36.7504         31.7504
   -869142.99255   -387754.71853  25185139.7344                   25185131.3674
        33.0004         19.0004
 -18373037.82848 -20541269.24849  20659628.6724                   20659619.0744
        52.0004         55.0004
 23  1  7  0 11 30.0000000  0 11G24G23G22G27G08G21G10G18G31G01G32
 -11573200.52646  -9617580.80146  22775189.9614                   22775182.0634
        39.0004         39.7504
 -11369149.08347 -11013872.06946  21845348.1644                   21845337.5124
        45.5004         36.7504
  -9891324.68247  -7996348.34945  22008400.4064                   22008389.3444
        44.5004         30.7504
  -9143274.97446  -6935010.08545  23915522.0944                   23915514.2544
        36.5004         32.2504
  -8466599.57946  -6497053.86646  23676929.0084                   23676920.0554
        41.7504         37.0004
 -11237083.91846  -8051558.50944  23639974.6024                   23639963.0704
        40.7504         27.0004
 -25339223.93948 -21401699.47149  20528337.8914                   20528328.9384
        51.7504         54.7504
   -463593.69546  -7684801.27443  24237030.1094                   24237019.2234
        39.0004         22.7504
  -1090915.29145  -1627890.53045  24915477.7504                   24915469.9694
        31.2504         30.7504
   -981421.80955   -475244.65952  25163774.4844                   25163766.5274
        30.7504         16.2504
 -18399179.55648 -20561639.42149  20654654.0554                   20654644.1644
        51.5004         54.7504
 23  1  7  0 12  0.0000000  0 11G24G23G22G27G08G21G10G18G31G01G32
 -11507287.68346  -9566220.17546  22787732.5314                   22787724.9264
        38.2504         40.0004
 -11306281.16647 -10964884.08946  21857312.0864                   21857300.7894
        45.0004         36.7504
  -9961924.39947  -8051361.09145  21994965.6644                   21994954.6604
        44.2504         31.0004
  -9056152.41346  -6867122.38845  23932101.9064                   23932093.1294
        37.0004         32.7504
  -8421157.81047  -6461644.72246  23685575.6094                   23685567.5944
        42.5004         36.5004
 -11311925.56847  -8109876.66344  23625733.1724                   23625720.8204
        42.0004         27.0004
 -25331645.96548 -21395794.56249  20529780.1414                   20529771.1294
        51.7504         54.7504
   -350050.10846  -7596325.78044  24258636.9844                   24258625.9224
        39.0004         24.0004
  -1209965.52546  -1720657.02645  24892828.0314                   24892815.1524
        36.5004         32.2504
                                  25142426.6024                   25142418.2344
        30.7504         15.5004
 -18424906.42648 -20581686.32449  20649758.3054                   20649748.6484
        51.5004         55.0004
 23  1  7  0 12 30.0000000  0 11G24G23G22G27G08G21G10G18G31G01G32
 -11440854.86946  -9514454.32845  22800375.3754                   22800366.1884
        39.7504         33.7504
 -11243178.02647 -10915712.81046  21869320.2734                   21869309.0354
        45.0004         37.0004
 -10032214.49447  -8106132.55745  21981589.5164                   21981578.8634
        44.7504         31.0004
  -8968840.20346  -6799086.90845  23948717.1804                   23948707.9924
        36.0004         32.7504
  -8375278.35647  -6425894.51046  23694307.3364                   23694297.5044
        42.2504         36.2504
 -11386514.03946  -8167997.53444  23611538.8524                   23611526.9104
        41.5004         27.5004
 -25323774.03248 -21389660.59349  20531278.1644                   20531268.9184
        52.5004         54.7504
   -236385.06246  -7507755.62743  24280266.0004                   24280255.4654
        38.5004         22.5004
  -1329063.37846  -1813460.55645  24870165.5554                   24870151.9144
        37.0004         31.5004
  -1205704.29615                  25121092.086
        32.250
 -18450220.77548 -20601411.78049  20644941.2504                   20644931.4774
        52.2504         54.7504
 23  1  7  0 13  0.0000000  0 11G24G23G22G27G08G21G10G18G31G01G32
 -11373901.54246  -9462282.91244  22813114.0314                   22813106.7194
        37.0004         27.2504
 -11179837.06247 -10866356.23546  21881372.7504                   21881362.1564
        44.5004         36.5004
 -10102191.30647  -8160659.91645  21968273.3134                   21968262.5434
        44.2504         31.7504
  -8881338.57646  -6730903.86345  23965367.8054                   23965359.2624
        36.7504         33.2504
  -8328960.60047  -6389802.75646  23703122.0944                   23703112.6134
        42.2504         36.7504
 -11460844.91146  -8225917.66544  23597395.3594                   23597383.0084
        41.5004         26.2504
 -25315604.98748 -21383295.10549  20532832.8594                   20532823.7304
        51.7504         54.7504
   -122598.01446  -7419090.42944  24301919.7114                   24301908.0634
        40.0004         24.7504
  -1448203.41646  -1906296.92345  24847491.3284                   24847480.0314
        36.0004         32.0004
                                  25099781.4144                   25099772.6954
        31.5004         16.7504
 -18475120.06048 -20620813.81149  20640202.8524                   20640193.4304
        51.5004         54.7504
 23  1  7  0 13 30.0000000  0 11G24G23G22G27G08G21G10G18G31G01G32
 -11306432.48946  -9409709.61344  22825955.4304                   22825946.0664
        39.2504         29.2504
 -11116260.85847 -10816816.34446  21893471.5314                   21893460.8204
        44.5004         36.7504
 -10171856.41147  -8214944.38345  21955016.9064                   21955005.7854
        45.2504         31.7504
  -8793653.12945  -6662577.56445  23982053.7504                   23982045.2664
        35.7504         32.5004
  -8282209.18447  -6353373.09146  23712017.2034                   23712008.8954
        42.2504         36.2504
 -11534918.74246  -8283637.52544  23583299.4534                   23583285.9884
        41.5004         25.7504
 -25307140.42548 -21376699.34349  20534443.6564                   20534434.4104
        51.5004         54.7504
     -8693.35046  -7330333.52743  24323594.1954                   24323584.0704
        38.7504         23.7504
  -1567385.00245  -1999165.78945  24824812.3054                   24824800.4804
        34.2504         31.5004
                                  25078482.6414                   25078476.7344
        30.5004         17.2504
 -18499606.83448 -20639894.40449  20635543.2114                   20635533.6134
        51.5004         54.7504
 23  1  7  0 14  0.0000000  0 11G24G23G22G27G08G21G10G18G31G01G32
 -11238448.84446  -9356735.34644  22838892.0004                   22838883.4574
        38.5004         29.0004
 -11052448.66647 -10767092.55846  21905614.6884                   21905603.6254
        45.0004         36.5004
 -10241208.08047  -8268984.61345  21941819.3754                   21941808.3714
        45.5004         32.0004
  -8705785.82446  -6594109.52345  23998774.7504                   23998765.5044
        36.0004         32.5004
  -8235025.24247  -6316606.40045  23720995.3834                   23720987.4844
        42.2504         35.7504
 -11608731.84246  -8341154.20744  23569252.1254                   23569241.3554
        41.5004         27.2504
 -25298379.03048 -21369872.28649  20536110.9304                   20536101.2734
        52.5004         55.0004
    105327.77946  -7241485.94244  24345293.1174                   24345281.2934
        40.2504         24.2504
  -1686604.43246  -2092064.05845  24802125.9144                   24802113.9144
        36.5004         32.7504
                                  25057208.4224                   25057199.0004
        32.5004         19.0004
 -18523680.35548 -20658652.98349  20630962.1644                   20630952.6254
        52.2504         55.0004
 23  1  7  0 14 30.0000000  0 10G24G23G22G27G08G21G10G18G31G32
 -11169953.08246  -9303362.04544  22851925.8914                   22851916.8204
        39.0004         27.0004
 -10988400.85347 -10717185.18046  21917802.0554                   21917791.6954
        44.5004         36.2504
 -10310245.69847  -8322780.12945  21928682.3284                   21928671.0904
        45.0004         31.7504
  -8617739.98445  -6525502.40145  24015528.4844                   24015520.5274
        35.5004         32.0004
  -8187411.23346  -6279504.60146  23730055.8914                   23730047.9924
        40.5004         36.2504
 -11682282.68146  -8398466.53844  23555256.9844                   23555244.2234
        41.2504         27.0004
 -25289320.39448 -21362813.60849  20537834.5234                   20537825.2774
        51.2504         54.7504
    219463.13046  -7152549.30343  24367011.0784                   24367001.0704
        38.7504         23.5004
  -1805859.19446  -2184989.85945  24779431.3444                   24779420.7504
        36.0004         33.0004
 -18547340.97848 -20677089.83649  20626459.9694                   20626450.1374
        51.7504         55.0004
 23  1  7  0 15  0.0000000  0 11G24G23G22G27G08G21G10G18G31G01G32
 -11100947.85946  -9249591.71244  22865057.3444                   22865048.1564
        39.0004         28.0004
 -10924117.81447 -10667094.52846  21930034.7344                   21930024.1994
        44.5004         36.2504
 -10378968.62147  -8376330.42545  21915604.4694                   21915593.5824
        44.7504         32.5004
  -8529518.86746  -6456758.69245  24032317.8054                   24032308.8524
        36.2504         32.0004
  -8139369.87846  -6242069.80545  23739198.7504                   23739189.0944
        41.0004         35.5004
 -11755569.36446  -8455573.02844  23541310.5944                   23541297.8324
        41.0004         28.0004
 -25279963.82948 -21355522.78549  20539614.9224                   20539605.9104
        51.7504         54.7504
    333710.34846  -7063525.53144  24388752.3054                   24388741.4774
        39.5004         24.0004
  -1925146.73746  -2277941.21845  24756731.7814                   24756720.8364
        36.7504         32.2504
                                  25014712.664
        33.750
 -18570589.19648 -20695205.32249  20622035.9534                   20622026.1804
        51.7504         55.0004
 23  1  7  0 15 30.0000000  0 11G24G23G22G27G08G21G10G18G31G01G32
 -11031435.72446  -9195426.42344  22878284.7034                   22878276.1024
        38.5004         28.0004
 -10859600.15247 -10616821.02546  21942312.9304                   21942301.4574
        45.5004         36.2504
 -10447376.55447  -8429635.28545  21902586.8914                   21902576.0044
        45.2504         32.0004
  -8441125.93145  -6387881.06645  24049137.4924                   24049128.8914
        35.0004         31.5004
  -8090903.58647  -6204303.84545  23748422.0704                   23748411.9454
        42.2504         35.2504
 -11828590.53347  -8512472.62944  23527415.6094                   23527402.9654
        42.2504         27.5004
 -25270309.54648 -21347999.96749  20541452.1174                   20541442.9884
        51.7504         54.7504
    448066.97146  -6974416.44643  24410513.2344                   24410503.1094
        38.7504         23.5004
  -2044464.37245  -2370916.01945  24734027.3524                   24734015.2344
        35.7504         32.5004
                                  24993494.1724                   24993486.3914
        30.7504         16.2504
 -18593425.57548 -20712999.90549  20617690.1804                   20617680.5824
        52.0004         54.7504
 23  1  7  0 16  0.0000000  0 10G24G23G22G27G08G21G10G18G31G32
 -10961418.15246  -9140867.28444  22891608.1804                   22891599.6374
        38.5004         26.7504
 -10794847.14247 -10566364.15246  21954634.4924                   21954623.7234
        44.5004         36.0004
 -10515467.95647  -8482693.50245  21889629.2504                   21889618.8324
        45.0004         32.7504
  -8352563.29646  -6318871.25445  24065991.4694                   24065981.9304
        37.0004         32.2504
  -8042013.74546  -6166207.87645  23757723.8914                   23757716.8134
        39.7504         35.5004
 -11901343.01546  -8569162.88744  23513569.7424                   23513559.4414
        41.0004         27.5004
 -25260355.86648 -21340243.85749  20543346.2344                   20543337.1644
        51.0004         54.7504
    562531.96046  -6885222.99244  24432296.2734                   24432284.6844
        39.2504         25.2504
  -2163808.39846  -2463911.36845  24711316.3594                   24711305.1214
        37.0004         32.2504
 -18615849.46248 -20730473.06149  20613422.8204                   20613413.5164
        51.5004         54.7504
 23  1  7  0 16 30.0000000  0 11G24G23G22G27G08G21G10G18G31G01G32
 -10890898.26746  -9085916.71444  22905028.6644                   22905019.4774
        38.5004         26.7504
 -10729859.79147 -10515724.66545  21967001.5394                   21966990.5944
        45.5004         35.7504
 -10583242.78747  -8535505.02745  21876732.2114                   21876721.3834
        45.7504         33.0004
  -8263834.82446  -6249732.16845  24082876.4384                   24082866.1374
        36.5004         31.5004
  -7992703.40646  -6127784.27745  23767107.5004                   23767100.4804
        39.7504         35.2504
 -11973825.41446  -8625642.64444  23499777.6484                   23499765.1214
        41.5004         27.0004
 -25250102.90748 -21332254.53949  20545297.3524                   20545288.3404
        51.5004         54.7504
    677102.31946  -6795947.37943  24454097.3754                   24454086.9574
        38.0004         22.7504
  -2283176.82546  -2556925.71645  24688600.7584                   24688589.8714
        36.0004         33.0004
                                  24951121.6954                   24951114.3834
        32.0004         17.2504
 -18637861.93548 -20747625.62649  20609234.0164                   20609224.7114
        52.2504         54.7504
 23  1  7  0 17  0.0000000  0 11G24G23G22G27G08G21G10G18G31G01G32
 -10819878.76646  -9030576.84144  22918542.0704                   22918534.1134
        37.7504         27.5004
 -10664638.67347 -10464903.02246  21979412.4774                   21979401.8834
        44.7504         36.2504
 -10650700.60747  -8588069.55245  21863895.1954                   21863884.4844
        45.2504         33.0004
  -8174943.87745  -6180466.50745  24099789.5234                   24099782.0944
        34.5004         31.5004
  -7942974.79146  -6089034.72545  23776571.8754                   23776562.9804
        41.2504         35.2504
 -12046036.09946  -8681910.72344  23486036.8204                   23486023.9414
        41.7504         28.2504
 -25239550.57148 -21324031.94149  20547305.3914                   20547296.0274
        53.0004         54.7504
    791775.55046  -6706591.63443  24475919.1484                   24475908.8484
        38.0004         22.7504
  -2402567.30746  -2649957.25245  24665882.0784                   24665870.6054
        37.0004         33.2504
                                  24929965.7504                   24929959.6094
        31.0004         15.5004
 -18659463.54548 -20764458.04749  20605123.5944                   20605113.9384
        53.0004         54.7504
 23  1  7  0 17 30.0000000  0 11G24G23G22G27G08G21G10G18G31G01G32
 -10748361.12346  -8974848.82144  22932152.6174                   22932143.2544
        38.5004         27.2504
 -10599183.10347 -10413898.69846  21991867.4224                   21991857.2974
        44.7504         36.2504
 -10717840.13347  -8640386.04045  21851119.5474                   21851107.7234
        46.2504         34.0004
  -8085892.73745  -6111076.01345  24116736.0704                   24116727.5864
        35.5004         32.2504
  -7892830.05446  -6049960.89845  23786113.7584                   23786104.4534
        40.5004         35.0004
 -12117972.43146  -8737964.99044  23472347.5864                   23472335.1764
        41.7504         27.7504
 -25228697.35848 -21315574.89549  20549371.0474                   20549361.2734
        51.7504         55.0004
    906550.58546  -6617156.56043  24497758.6094                   24497749.2464
        38.0004         22.7504
  -2521976.24546  -2743003.20045  24643160.0084                   24643148.0664
        37.0004         33.5004
    123345.95455  -1046268.07952  24908836.0004                   24908826.4614
        31.0004         17.2504
 -18680653.77948 -20780969.91649  20601090.9694                   20601081.1954
        51.7504         55.0004
 23  1  7  0 18  0.0000000  0 11G24G23G22G27G08G21G10G18G31G01G32
 -10676348.98546  -8918735.47344  22945856.0784                   22945847.1844
        39.2504         27.2504
 -10533494.48447 -10362712.78745  22004368.4384                   22004357.3164
        46.5004         35.5004
 -10784661.50047  -8692454.62645  21838403.9924                   21838392.4614
        46.2504         34.0004
  -7996685.56245  -6041563.92945  24133712.6884                   24133703.2664
        35.7504         30.0004
  -7842272.26746  -6010565.22345  23795733.9144                   23795725.1954
        40.0004         34.5004
 -12189633.48446  -8793804.75044  23458711.0784                   23458698.1994
        41.5004         27.5004
 -25217543.89648 -21306883.89249  20551493.2584                   20551484.1294
        51.5004         55.0004
   1021423.95846  -6527644.81443  24519620.5554                   24519608.9654
        39.0004         23.5004
  -2641401.84046  -2836062.10045  24620434.1484                   24620422.4414
        37.2504         34.0004
                                  24887725.0704                   24887717.5824
        33.5004         16.2504
 -18701434.05848 -20797162.33149  20597136.5554                   20597127.1914
        52.0004         55.0004
 23  1  7  0 18 30.0000000  0 11G24G23G22G27G08G21G10G18G31G01G32
 -10603843.01546  -8862237.29744  22959652.4384                   22959644.3634
        37.5004         26.2504
 -10467571.34047 -10311344.11146  22016912.9534                   22016902.3014
        46.0004         36.0004
 -10851162.55747  -8744273.61045  21825748.6414                   21825737.9304
        46.5004         34.0004
  -7907323.75846  -5971931.34445  24150717.1884                   24150708.5274
        36.5004         31.0004
  -7791302.51146  -5970848.56045  23805434.6024                   23805425.5314
        39.7504         34.7504
 -12261015.51246  -8849427.10744  23445126.8204                   23445114.3524
        41.7504         28.2504
 -25206087.80948 -21297957.07749  20553673.3834                   20553664.1374
        51.0004         55.0004
   1136395.41846  -6438056.69343  24541496.7894                   24541487.0164
        36.7504         22.7504
  -2760839.24746  -2929130.20045  24597704.6414                   24597693.9304
        37.0004         33.5004
                                  24866639.7114                   24866630.8754
        33.2504         16.2504
 -18721802.98448 -20813034.22349  20593260.4774                   20593250.9964
        52.0004         54.7504
 23  1  7  0 19  0.0000000  0 11G24G23G22G27G08G21G10G18G31G01G32
 -10530847.66546  -8805357.81444  22973543.8834                   22973534.1094
        38.2504         26.0004
 -10401416.03247 -10259794.53545  22029502.0634                   22029491.2344
        45.7504         35.5004
 -10917344.66947  -8795844.07245  21813154.7814                   21813143.7194
        46.2504         34.0004
  -7817812.50446  -5902182.33945  24167751.4694                   24167741.8714
        36.0004         31.5004
  -7739925.02846  -5930814.16445  23815209.7664                   23815202.6294
        39.2504         35.2504
 -12332118.53547  -8904832.04144  23431596.1644                   23431584.7504
        42.2504         27.7504
 -25194330.89248 -21288795.84249  20555910.4064                   20555901.1604
        51.0004         54.7504
   1251460.64446  -6348395.47643  24563394.0704                   24563382.9494
        37.5004         23.0004
  -2880288.04446  -3022207.19345  24574975.4844                   24574964.0704
        38.2504         35.0004
   -209082.98255  -1305303.44552  24845575.1954                   24845568.1174
        31.7504         16.7504
 -18741763.04248 -20828587.50749  20589462.3054                   20589452.7074
        51.7504         55.0004
 23  1  7  0 19 30.0000000  0 11G24G23G22G27G08G21G10G18G31G01G32
 -10457365.25246  -8748098.78244  22987527.2034                   22987518.1914
        38.2504         27.2504
 -10335028.46247 -10208063.97145  22042134.9614                   22042124.1334
        45.2504         35.7504
 -10983206.88247  -8847165.25245  21800621.7814                   21800610.4844
        46.2504         34.2504
  -7728154.54246  -5832318.97745  24184812.3054                   24184802.8834
        37.0004         31.0004
  -7688141.49746  -5890463.38445  23825064.4844                   23825055.9414
        38.7504         33.2504
 -12402940.44947  -8960017.91444  23418119.1644                   23418107.3984
        42.0004         27.7504
 -25182272.11748 -21279399.39749  20558205.3284                   20558195.9064
        51.0004         54.7504
   1366617.94146  -6258662.52643  24585307.0164                   24585297.1254
        37.0004         22.5004
  -2999745.14546  -3115290.64745  24552243.3204                   24552231.7894
        38.7504         34.0004
   -319644.51845  -1391455.36842  24824536.3754                   24824529.0634
        32.7504         17.7504
 -18761314.22948 -20843822.19649  20585741.9224                   20585731.9734
        51.5004         54.7504
 23  1  7  0 20  0.0000000  0 11G24G23G22G27G08G21G10G18G31G01G32
 -10383396.99346  -8690461.20044  23001601.8524                   23001594.0704
        37.2504         26.0004
 -10268407.88847 -10156151.85345  22054812.8284                   22054801.8834
        46.5004         35.5004
 -11048747.53347  -8898235.87645  21788149.9924                   21788138.5204
        46.5004         34.0004
  -7638351.90146  -5762342.89245  24201900.4224                   24201891.4694
        36.5004         30.7504
  -7635953.76146  -5849797.62345  23834995.6804                   23834986.1414
        39.0004         33.5004
 -12473477.80547  -9014982.09544  23404696.6644                   23404684.5474
        42.2504         28.0004
 -25169910.19348 -21269766.73049  20560557.5394                   20560548.3524
        52.2504         55.0004
   1481866.04346  -6168858.82643  24607238.3444                   24607228.1024
        38.0004         22.5004
  -3119206.51946  -3208377.42245  24529511.8204                   24529498.8834
        39.7504         34.7504
                                  24803520.0164                   24803514.4024
        30.5004         16.2504
 -18780455.88648 -20858737.76749  20582099.3204                   20582089.7234
        52.5004         54.7504
 23  1  7  0 20 30.0000000  0 11G24G23G22G27G08G21G10G18G31G01G32
 -10308946.44446  -8632447.74944  23015769.9534                   23015760.7074
        37.7504         26.5004
 -10201555.37347 -10104058.99246  22067534.0004                   22067523.4654
        46.0004         36.0004
 -11113966.73147  -8949056.00745  21775738.9534                   21775728.0084
        47.0004         34.0004
  -7548408.50746  -5692257.15345  24219016.8754                   24219007.3364
        37.7504         31.5004
  -7583364.52446  -5808819.01745  23845004.5634                   23844994.4964
        40.0004         34.0004
 -12543729.93147  -9069723.98344  23391328.7194                   23391316.0164
        42.5004         28.5004
 -25157245.08248 -21259897.81649  20562967.7894                   20562958.4264
        52.5004         55.0004
   1597202.12446  -6078986.52043  24629186.0704                   24629175.8874
        38.2504         22.0004
  -3238670.12046  -3301465.95045  24506777.5084                   24506765.6844
        38.2504         34.7504
   -540377.72945  -1563455.30343  24782534.1564                   24782525.2034
        34.5004         18.2504
 -18799189.20648 -20873335.16649  20578534.3984                   20578524.9184
        52.5004         54.7504
 23  1  7  0 21  0.0000000  0 11G24G23G22G27G08G21G10G18G31G01G32
 -10234014.86946  -8574059.50944  23030027.8054                   23030019.9654
        37.5004         26.0004
 -10134470.17947 -10051784.84545  22080300.6644                   22080289.6024
        46.5004         35.5004
 -11178862.97247  -8999624.49745  21763389.2034                   21763378.3754
        46.5004         34.2504
  -7458326.52246  -5622063.39845  24236160.0944                   24236150.2034
        38.5004         31.7504
  -7530375.83846  -5767529.13445  23855087.0314                   23855078.4304
        39.0004         33.5004
 -12613693.78047  -9124241.25644  23378015.1804                   23378002.2424
        42.2504         28.5004
 -25144275.19848 -21249791.41749  20565435.8284                   20565426.6994
        51.0004         54.7504
   1712624.98846  -5989046.65443  24651148.9304                   24651140.2704
        36.0004         22.5004
  -3358132.52246  -3394553.57845  24484044.1804                   24484033.1174
        38.7504         35.5004
   -650543.88645  -1649299.05342  24761566.4774                   24761561.2154
        30.5004         17.7504
 -18817513.54748 -20887613.86449  20575047.2894                   20575037.7504
        51.5004         55.0004
 23  1  7  0 21 30.0000000  0 11G24G23G22G27G08G21G10G18G31G01G32
 -10158606.47846  -8515299.75244  23044378.2114                   23044369.9614
        37.5004         25.7504
 -10067154.17347  -9999330.82645  22093109.8984                   22093099.0704
        47.0004         35.7504
 -11243437.40647  -9049942.22445  21751101.2814                   21751090.5704
        46.5004         34.2504
  -7368110.49646  -5551765.18545  24253325.1724                   24253316.9804
        36.0004         30.5004
  -7476991.89246  -5725931.28045  23865242.8914                   23865236.8674
        37.2504         32.2504
 -12683368.53246  -9178533.23944  23364755.0164                   23364743.3674
        41.5004         28.2504
 -25131001.86948 -21239448.56349  20567961.6564                   20567952.2344
        52.0004         55.0004
   1828130.95346  -5899042.03143  24673131.3134                   24673120.2504
        38.5004         22.5004
  -3477592.14046  -3487638.98245  24461310.7584                   24461300.1644
        37.5004         34.0004
   -760574.30245  -1735037.07043  24740632.0634                   24740622.6994
        34.2504         18.5004
 -18835430.96748 -20901575.48049  20571637.6804                   20571628.1414
        52.2504         54.7504
 23  1  7  0 22  0.0000000  0 11G24G23G22G27G08G21G10G18G31G01G32
 -10082723.49146  -8456170.11144  23058817.8134                   23058809.1524
        37.5004         24.5004
  -9999607.25847  -9946696.87546  22105963.9614                   22105952.7814
        46.5004         36.0004
 -11307688.83447  -9100008.25845  21738874.6954                   21738863.4574
        46.5004         34.0004
  -7277763.28746  -5481364.79045  24270519.6414                   24270509.3404
        39.0004         31.5004
  -7423214.20946  -5684026.62845  23875479.3754                   23875469.6604
        37.7504         32.0004
 -12752752.04347  -9232598.31844  23351552.9694                   23351540.7934
        42.5004         29.0004
 -25117424.00348 -21228868.40749  20570545.7034                   20570536.2234
        52.0004         55.0004
   1943718.03546  -5808974.14043  24695125.6414                   24695116.1604
        37.2504         22.0004
  -3597045.62346  -3580719.62346  24438580.5004                   24438570.0824
        38.2504         36.0004
   -870465.73145  -1820666.75842  24719717.2814                   24719711.2584
        31.2504         17.7504
 -18852941.48248 -20915220.04349  20568305.3914                   20568296.3794
        53.0004         54.7504
 23  1  7  0 22 30.0000000  0 11G24G23G22G27G08G21G10G18G31G01G32
 -10006367.41046  -8396671.90144  23073346.4614                   23073339.8524
        37.7504         25.7504
  -9931828.83047  -9893882.52446  22118861.8204                   22118850.8164
        46.7504         36.0004
 -11371615.88147  -9149821.52145  21726709.7034                   21726698.8164
        46.5004         34.0004
  -7187286.94446  -5410863.75345  24287736.2814                   24287726.9184
        38.2504         32.0004
  -7369044.73646  -5641816.66245  23885786.9384                   23885777.8674
        38.5004         32.0004
 -12821841.90447  -9286434.54544  23338405.1174                   23338393.1174
        42.0004         28.5004
 -25103540.21448 -21218049.87049  20573187.3364                   20573178.2074
        51.5004         55.0004
   2059385.30846  -5718843.84843  24717136.9924                   24717126.5744
        37.5004         22.7504
